{"t_rx_ms": 1773442502289, "run_id": "20260313_154342", "seq": 762, "pitch_deg": -1.7264, "yaw_deg": -61.2608, "roll_deg": 4.842, "lat_deg": 34.039734599999996, "lon_deg": -117.8164872, "altitude_rel_ft": 0.4429, "ground_speed_ft_s": 9.5949, "vel_north_m_s": 1.55, "vel_east_m_s": -2.48, "vel_down_m_s": -0.01, "battery_remain_pct": 9900.0}
{"t_rx_ms": 1773442502491, "run_id": "20260313_154342", "seq": 763, "pitch_deg": -1.7264, "yaw_deg": -61.2608, "roll_deg": 4.842, "lat_deg": 34.039734599999996, "lon_deg": -117.8164872, "altitude_rel_ft": 0.4429, "ground_speed_ft_s": 9.5949, "vel_north_m_s": 1.55, "vel_east_m_s": -2.48, "vel_down_m_s": -0.01, "battery_remain_pct": 9900.0}
{"t_rx_ms": 1773442502691, "run_id": "20260313_154342", "seq": 764, "pitch_deg": -1.7264, "yaw_deg": -61.2608, "roll_deg": 4.842, "lat_deg": 34.039734599999996, "lon_deg": -117.8164872, "altitude_rel_ft": 0.4429, "ground_speed_ft_s": 9.5949, "vel_north_m_s": 1.55, "vel_east_m_s": -2.48, "vel_down_m_s": -0.01, "battery_remain_pct": 9900.0}
{"t_rx_ms": 1773442502894, "run_id": "20260313_154342", "seq": 765, "pitch_deg": -1.7264, "yaw_deg": -61.2608, "roll_deg": 4.842, "lat_deg": 34.039734599999996, "lon_deg": -117.8164872, "altitude_rel_ft": 0.4429, "ground_speed_ft_s": 9.5949, "vel_north_m_s": 1.55, "vel_east_m_s": -2.48, "vel_down_m_s": -0.01, "battery_remain_pct": 9900.0}
{"t_rx_ms": 1773442503094, "run_id": "20260313_154342", "seq": 766, "pitch_deg": -1.7264, "yaw_deg": -61.2608, "roll_deg": 4.842, "lat_deg": 34.039734599999996, "lon_deg": -117.8164872, "altitude_rel_ft": 0.4429, "ground_speed_ft_s": 9.5949, "vel_north_m_s": 1.55, "vel_east_m_s": -2.48, "vel_down_m_s": -0.01, "battery_remain_pct": 9900.0}
{"t_rx_ms": 1773442503295, "run_id": "20260313_154342", "seq": 767, "pitch_deg": -1.6254, "yaw_deg": -53.926, "roll_deg": 4.4698, "lat_deg": 34.0397531, "lon_deg": -117.8165161, "altitude_rel_ft": -0.3937, "ground_speed_ft_s": 11.4381, "vel_north_m_s": 2.13, "vel_east_m_s": -2.76, "vel_down_m_s": 0.04, "battery_remain_pct": 9900.0}
{"t_rx_ms": 1773442503496, "run_id": "20260313_154342", "seq": 768, "pitch_deg": -1.6254, "yaw_deg": -53.926, "roll_deg": 4.4698, "lat_deg": 34.0397531, "lon_deg": -117.8165161, "altitude_rel_ft": -0.3937, "ground_speed_ft_s": 11.4381, "vel_north_m_s": 2.13, "vel_east_m_s": -2.76, "vel_down_m_s": 0.04, "battery_remain_pct": 9900.0}
{"t_rx_ms": 1773442503697, "run_id": "20260313_154342", "seq": 769, "pitch_deg": -1.6254, "yaw_deg": -53.926, "roll_deg": 4.4698, "lat_deg": 34.0397531, "lon_deg": -117.8165161, "altitude_rel_ft": -0.3937, "ground_speed_ft_s": 11.4381, "vel_north_m_s": 2.13, "vel_east_m_s": -2.76, "vel_down_m_s": 0.04, "battery_remain_pct": 9900.0}
{"t_rx_ms": 1773442503897, "run_id": "20260313_154342", "seq": 770, "pitch_deg": -1.6254, "yaw_deg": -53.926, "roll_deg": 4.4698, "lat_deg": 34.0397531, "lon_deg": -117.8165161, "altitude_rel_ft": -0.3937, "ground_speed_ft_s": 11.4381, "vel_north_m_s": 2.13, "vel_east_m_s": -2.76, "vel_down_m_s": 0.04, "battery_remain_pct": 9900.0}
{"t_rx_ms": 1773442504099, "run_id": "20260313_154342", "seq": 771, "pitch_deg": -1.6254, "yaw_deg": -53.926, "roll_deg": 4.4698, "lat_deg": 34.0397531, "lon_deg": -117.8165161, "altitude_rel_ft": -0.3937, "ground_speed_ft_s": 11.4381, "vel_north_m_s": 2.13, "vel_east_m_s": -2.76, "vel_down_m_s": 0.04, "battery_remain_pct": 9900.0}
{"t_rx_ms": 1773442504299, "run_id": "20260313_154342", "seq": 772, "pitch_deg": -2.0652, "yaw_deg": -52.9113, "roll_deg": 4.7843, "lat_deg": 34.0397734, "lon_deg": -117.8165468, "altitude_rel_ft": 0.5577, "ground_speed_ft_s": 12.2562, "vel_north_m_s": 2.33, "vel_east_m_s": -2.92, "vel_down_m_s": 0.1, "battery_remain_pct": 9900.0}
{"t_rx_ms": 1773442504501, "run_id": "20260313_154342", "seq": 773, "pitch_deg": -2.0652, "yaw_deg": -52.9113, "roll_deg": 4.7843, "lat_deg": 34.0397734, "lon_deg": -117.8165468, "altitude_rel_ft": 0.5577, "ground_speed_ft_s": 12.2562, "vel_north_m_s": 2.33, "vel_east_m_s": -2.92, "vel_down_m_s": 0.1, "battery_remain_pct": 9900.0}
{"t_rx_ms": 1773442504705, "run_id": "20260313_154342", "seq": 774, "pitch_deg": -2.0652, "yaw_deg": -52.9113, "roll_deg": 4.7843, "lat_deg": 34.0397734, "lon_deg": -117.8165468, "altitude_rel_ft": 0.5577, "ground_speed_ft_s": 12.2562, "vel_north_m_s": 2.33, "vel_east_m_s": -2.92, "vel_down_m_s": 0.1, "battery_remain_pct": 9900.0}
{"t_rx_ms": 1773442504908, "run_id": "20260313_154342", "seq": 775, "pitch_deg": -2.0652, "yaw_deg": -52.9113, "roll_deg": 4.7843, "lat_deg": 34.0397734, "lon_deg": -117.8165468, "altitude_rel_ft": 0.5577, "ground_speed_ft_s": 12.2562, "vel_north_m_s": 2.33, "vel_east_m_s": -2.92, "vel_down_m_s": 0.1, "battery_remain_pct": 9900.0}
{"t_rx_ms": 1773442505111, "run_id": "20260313_154342", "seq": 776, "pitch_deg": -2.0652, "yaw_deg": -52.9113, "roll_deg": 4.7843, "lat_deg": 34.0397734, "lon_deg": -117.8165468, "altitude_rel_ft": 0.5577, "ground_speed_ft_s": 12.2562, "vel_north_m_s": 2.33, "vel_east_m_s": -2.92, "vel_down_m_s": 0.1, "battery_remain_pct": 9900.0}
{"t_rx_ms": 1773442505311, "run_id": "20260313_154342", "seq": 777, "pitch_deg": -1.8902, "yaw_deg": -52.4053, "roll_deg": 5.3364, "lat_deg": 34.039795999999996, "lon_deg": -117.816581, "altitude_rel_ft": 0.2789, "ground_speed_ft_s": 12.6559, "vel_north_m_s": 2.4, "vel_east_m_s": -3.02, "vel_down_m_s": 0.06, "battery_remain_pct": 9900.0}
{"t_rx_ms": 1773442505511, "run_id": "20260313_154342", "seq": 778, "pitch_deg": -1.8902, "yaw_deg": -52.4053, "roll_deg": 5.3364, "lat_deg": 34.039795999999996, "lon_deg": -117.816581, "altitude_rel_ft": 0.2789, "ground_speed_ft_s": 12.6559, "vel_north_m_s": 2.4, "vel_east_m_s": -3.02, "vel_down_m_s": 0.06, "battery_remain_pct": 9900.0}
{"t_rx_ms": 1773442505713, "run_id": "20260313_154342", "seq": 779, "pitch_deg": -1.8902, "yaw_deg": -52.4053, "roll_deg": 5.3364, "lat_deg": 34.039795999999996, "lon_deg": -117.816581, "altitude_rel_ft": 0.2789, "ground_speed_ft_s": 12.6559, "vel_north_m_s": 2.4, "vel_east_m_s": -3.02, "vel_down_m_s": 0.06, "battery_remain_pct": 9900.0}
{"t_rx_ms": 1773442505913, "run_id": "20260313_154342", "seq": 780, "pitch_deg": -1.8902, "yaw_deg": -52.4053, "roll_deg": 5.3364, "lat_deg": 34.039795999999996, "lon_deg": -117.816581, "altitude_rel_ft": 0.2789, "ground_speed_ft_s": 12.6559, "vel_north_m_s": 2.4, "vel_east_m_s": -3.02, "vel_down_m_s": 0.06, "battery_remain_pct": 9900.0}
{"t_rx_ms": 1773442506114, "run_id": "20260313_154342", "seq": 781, "pitch_deg": -1.8902, "yaw_deg": -52.4053, "roll_deg": 5.3364, "lat_deg": 34.039795999999996, "lon_deg": -117.816581, "altitude_rel_ft": 0.2789, "ground_speed_ft_s": 12.6559, "vel_north_m_s": 2.4, "vel_east_m_s": -3.02, "vel_down_m_s": 0.06, "battery_remain_pct": 9900.0}
{"t_rx_ms": 1773442506314, "run_id": "20260313_154342", "seq": 782, "pitch_deg": -1.028, "yaw_deg": -52.174, "roll_deg": 4.4571, "lat_deg": 34.0398177, "lon_deg": -117.8166138, "altitude_rel_ft": -0.6627, "ground_speed_ft_s": 12.7185, "vel_north_m_s": 2.38, "vel_east_m_s": -3.06, "vel_down_m_s": 0.04, "battery_remain_pct": 9900.0}
{"t_rx_ms": 1773442506516, "run_id": "20260313_154342", "seq": 783, "pitch_deg": -1.028, "yaw_deg": -52.174, "roll_deg": 4.4571, "lat_deg": 34.0398177, "lon_deg": -117.8166138, "altitude_rel_ft": -0.6627, "ground_speed_ft_s": 12.7185, "vel_north_m_s": 2.38, "vel_east_m_s": -3.06, "vel_down_m_s": 0.04, "battery_remain_pct": 9900.0}
{"t_rx_ms": 1773442506717, "run_id": "20260313_154342", "seq": 784, "pitch_deg": -1.028, "yaw_deg": -52.174, "roll_deg": 4.4571, "lat_deg": 34.0398177, "lon_deg": -117.8166138, "altitude_rel_ft": -0.6627, "ground_speed_ft_s": 12.7185, "vel_north_m_s": 2.38, "vel_east_m_s": -3.06, "vel_down_m_s": 0.04, "battery_remain_pct": 9900.0}
{"t_rx_ms": 1773442506917, "run_id": "20260313_154342", "seq": 785, "pitch_deg": -1.028, "yaw_deg": -52.174, "roll_deg": 4.4571, "lat_deg": 34.0398177, "lon_deg": -117.8166138, "altitude_rel_ft": -0.6627, "ground_speed_ft_s": 12.7185, "vel_north_m_s": 2.38, "vel_east_m_s": -3.06, "vel_down_m_s": 0.04, "battery_remain_pct": 9900.0}
{"t_rx_ms": 1773442507118, "run_id": "20260313_154342", "seq": 786, "pitch_deg": -1.028, "yaw_deg": -52.174, "roll_deg": 4.4571, "lat_deg": 34.0398177, "lon_deg": -117.8166138, "altitude_rel_ft": -0.6627, "ground_speed_ft_s": 12.7185, "vel_north_m_s": 2.38, "vel_east_m_s": -3.06, "vel_down_m_s": 0.04, "battery_remain_pct": 9900.0}
{"t_rx_ms": 1773442507320, "run_id": "20260313_154342", "seq": 787, "pitch_deg": -1.5611, "yaw_deg": -52.0843, "roll_deg": 4.472, "lat_deg": 34.0398384, "lon_deg": -117.81664509999999, "altitude_rel_ft": -1.0203, "ground_speed_ft_s": 12.9558, "vel_north_m_s": 2.3, "vel_east_m_s": -3.21, "vel_down_m_s": 0.19, "battery_remain_pct": 9900.0}
{"t_rx_ms": 1773442507520, "run_id": "20260313_154342", "seq": 788, "pitch_deg": -1.5611, "yaw_deg": -52.0843, "roll_deg": 4.472, "lat_deg": 34.0398384, "lon_deg": -117.81664509999999, "altitude_rel_ft": -1.0203, "ground_speed_ft_s": 12.9558, "vel_north_m_s": 2.3, "vel_east_m_s": -3.21, "vel_down_m_s": 0.19, "battery_remain_pct": 9900.0}
{"t_rx_ms": 1773442507721, "run_id": "20260313_154342", "seq": 789, "pitch_deg": -1.5611, "yaw_deg": -52.0843, "roll_deg": 4.472, "lat_deg": 34.0398384, "lon_deg": -117.81664509999999, "altitude_rel_ft": -1.0203, "ground_speed_ft_s": 12.9558, "vel_north_m_s": 2.3, "vel_east_m_s": -3.21, "vel_down_m_s": 0.19, "battery_remain_pct": 9900.0}
{"t_rx_ms": 1773442507922, "run_id": "20260313_154342", "seq": 790, "pitch_deg": -1.5611, "yaw_deg": -52.0843, "roll_deg": 4.472, "lat_deg": 34.0398384, "lon_deg": -117.81664509999999, "altitude_rel_ft": -1.0203, "ground_speed_ft_s": 12.9558, "vel_north_m_s": 2.3, "vel_east_m_s": -3.21, "vel_down_m_s": 0.19, "battery_remain_pct": 9900.0}
{"t_rx_ms": 1773442508123, "run_id": "20260313_154342", "seq": 791, "pitch_deg": -1.5611, "yaw_deg": -52.0843, "roll_deg": 4.472, "lat_deg": 34.0398384, "lon_deg": -117.81664509999999, "altitude_rel_ft": -1.0203, "ground_speed_ft_s": 12.9558, "vel_north_m_s": 2.3, "vel_east_m_s": -3.21, "vel_down_m_s": 0.19, "battery_remain_pct": 9900.0}
{"t_rx_ms": 1773442508326, "run_id": "20260313_154342", "seq": 792, "pitch_deg": 2.6526, "yaw_deg": -51.7011, "roll_deg": 4.177, "lat_deg": 34.0398613, "lon_deg": -117.81667829999999, "altitude_rel_ft": -0.6923, "ground_speed_ft_s": 12.3056, "vel_north_m_s": 2.45, "vel_east_m_s": -2.84, "vel_down_m_s": -0.04, "battery_remain_pct": 9900.0}
{"t_rx_ms": 1773442508532, "run_id": "20260313_154342", "seq": 793, "pitch_deg": 2.6526, "yaw_deg": -51.7011, "roll_deg": 4.177, "lat_deg": 34.0398613, "lon_deg": -117.81667829999999, "altitude_rel_ft": -0.6923, "ground_speed_ft_s": 12.3056, "vel_north_m_s": 2.45, "vel_east_m_s": -2.84, "vel_down_m_s": -0.04, "battery_remain_pct": 9900.0}
{"t_rx_ms": 1773442508740, "run_id": "20260313_154342", "seq": 794, "pitch_deg": 2.6526, "yaw_deg": -51.7011, "roll_deg": 4.177, "lat_deg": 34.0398613, "lon_deg": -117.81667829999999, "altitude_rel_ft": -0.6923, "ground_speed_ft_s": 12.3056, "vel_north_m_s": 2.45, "vel_east_m_s": -2.84, "vel_down_m_s": -0.04, "battery_remain_pct": 9900.0}
{"t_rx_ms": 1773442508943, "run_id": "20260313_154342", "seq": 795, "pitch_deg": 2.6526, "yaw_deg": -51.7011, "roll_deg": 4.177, "lat_deg": 34.0398613, "lon_deg": -117.81667829999999, "altitude_rel_ft": -0.6923, "ground_speed_ft_s": 12.3056, "vel_north_m_s": 2.45, "vel_east_m_s": -2.84, "vel_down_m_s": -0.04, "battery_remain_pct": 9900.0}
{"t_rx_ms": 1773442509141, "run_id": "20260313_154342", "seq": 796, "pitch_deg": 2.6526, "yaw_deg": -51.7011, "roll_deg": 4.177, "lat_deg": 34.0398613, "lon_deg": -117.81667829999999, "altitude_rel_ft": -0.6923, "ground_speed_ft_s": 12.3056, "vel_north_m_s": 2.45, "vel_east_m_s": -2.84, "vel_down_m_s": -0.04, "battery_remain_pct": 9900.0}
{"t_rx_ms": 1773442509344, "run_id": "20260313_154342", "seq": 797, "pitch_deg": 2.9773, "yaw_deg": -51.9673, "roll_deg": 4.4034, "lat_deg": 34.0398801, "lon_deg": -117.8167076, "altitude_rel_ft": -1.1089, "ground_speed_ft_s": 11.2682, "vel_north_m_s": 2.11, "vel_east_m_s": -2.71, "vel_down_m_s": -0.01, "battery_remain_pct": 9900.0}
{"t_rx_ms": 1773442509545, "run_id": "20260313_154342", "seq": 798, "pitch_deg": 2.9773, "yaw_deg": -51.9673, "roll_deg": 4.4034, "lat_deg": 34.0398801, "lon_deg": -117.8167076, "altitude_rel_ft": -1.1089, "ground_speed_ft_s": 11.2682, "vel_north_m_s": 2.11, "vel_east_m_s": -2.71, "vel_down_m_s": -0.01, "battery_remain_pct": 9900.0}
{"t_rx_ms": 1773442509771, "run_id": "20260313_154342", "seq": 799, "pitch_deg": 2.9773, "yaw_deg": -51.9673, "roll_deg": 4.4034, "lat_deg": 34.0398801, "lon_deg": -117.8167076, "altitude_rel_ft": -1.1089, "ground_speed_ft_s": 11.2682, "vel_north_m_s": 2.11, "vel_east_m_s": -2.71, "vel_down_m_s": -0.01, "battery_remain_pct": 9900.0}
{"t_rx_ms": 1773442509972, "run_id": "20260313_154342", "seq": 800, "pitch_deg": 2.9773, "yaw_deg": -51.9673, "roll_deg": 4.4034, "lat_deg": 34.0398801, "lon_deg": -117.8167076, "altitude_rel_ft": -1.1089, "ground_speed_ft_s": 11.2682, "vel_north_m_s": 2.11, "vel_east_m_s": -2.71, "vel_down_m_s": -0.01, "battery_remain_pct": 9900.0}
{"t_rx_ms": 1773442510179, "run_id": "20260313_154342", "seq": 801, "pitch_deg": 2.9773, "yaw_deg": -51.9673, "roll_deg": 4.4034, "lat_deg": 34.0398801, "lon_deg": -117.8167076, "altitude_rel_ft": -1.1089, "ground_speed_ft_s": 11.2682, "vel_north_m_s": 2.11, "vel_east_m_s": -2.71, "vel_down_m_s": -0.01, "battery_remain_pct": 9900.0}
{"t_rx_ms": 1773442510383, "run_id": "20260313_154342", "seq": 802, "pitch_deg": 3.1059, "yaw_deg": -52.0156, "roll_deg": 5.5375, "lat_deg": 34.0398989, "lon_deg": -117.8167362, "altitude_rel_ft": -0.8858, "ground_speed_ft_s": 11.3201, "vel_north_m_s": 2.11, "vel_east_m_s": -2.73, "vel_down_m_s": 0.07, "battery_remain_pct": 9900.0}
{"t_rx_ms": 1773442510591, "run_id": "20260313_154342", "seq": 803, "pitch_deg": 3.1059, "yaw_deg": -52.0156, "roll_deg": 5.5375, "lat_deg": 34.0398989, "lon_deg": -117.8167362, "altitude_rel_ft": -0.8858, "ground_speed_ft_s": 11.3201, "vel_north_m_s": 2.11, "vel_east_m_s": -2.73, "vel_down_m_s": 0.07, "battery_remain_pct": 9900.0}
{"t_rx_ms": 1773442510797, "run_id": "20260313_154342", "seq": 804, "pitch_deg": 3.1059, "yaw_deg": -52.0156, "roll_deg": 5.5375, "lat_deg": 34.0398989, "lon_deg": -117.8167362, "altitude_rel_ft": -0.8858, "ground_speed_ft_s": 11.3201, "vel_north_m_s": 2.11, "vel_east_m_s": -2.73, "vel_down_m_s": 0.07, "battery_remain_pct": 9900.0}
{"t_rx_ms": 1773442510998, "run_id": "20260313_154342", "seq": 805, "pitch_deg": 3.1059, "yaw_deg": -52.0156, "roll_deg": 5.5375, "lat_deg": 34.0398989, "lon_deg": -117.8167362, "altitude_rel_ft": -0.8858, "ground_speed_ft_s": 11.3201, "vel_north_m_s": 2.11, "vel_east_m_s": -2.73, "vel_down_m_s": 0.07, "battery_remain_pct": 9900.0}
{"t_rx_ms": 1773442511198, "run_id": "20260313_154342", "seq": 806, "pitch_deg": 3.1059, "yaw_deg": -52.0156, "roll_deg": 5.5375, "lat_deg": 34.0398989, "lon_deg": -117.8167362, "altitude_rel_ft": -0.8858, "ground_speed_ft_s": 11.3201, "vel_north_m_s": 2.11, "vel_east_m_s": -2.73, "vel_down_m_s": 0.07, "battery_remain_pct": 9900.0}
{"t_rx_ms": 1773442511399, "run_id": "20260313_154342", "seq": 807, "pitch_deg": 1.533, "yaw_deg": -52.5189, "roll_deg": 4.8542, "lat_deg": 34.0399185, "lon_deg": -117.8167675, "altitude_rel_ft": -1.3287, "ground_speed_ft_s": 11.1089, "vel_north_m_s": 2.03, "vel_east_m_s": -2.71, "vel_down_m_s": 0.17, "battery_remain_pct": 9900.0}
{"t_rx_ms": 1773442511600, "run_id": "20260313_154342", "seq": 808, "pitch_deg": 1.533, "yaw_deg": -52.5189, "roll_deg": 4.8542, "lat_deg": 34.0399185, "lon_deg": -117.8167675, "altitude_rel_ft": -1.3287, "ground_speed_ft_s": 11.1089, "vel_north_m_s": 2.03, "vel_east_m_s": -2.71, "vel_down_m_s": 0.17, "battery_remain_pct": 9900.0}
{"t_rx_ms": 1773442511801, "run_id": "20260313_154342", "seq": 809, "pitch_deg": 1.533, "yaw_deg": -52.5189, "roll_deg": 4.8542, "lat_deg": 34.0399185, "lon_deg": -117.8167675, "altitude_rel_ft": -1.3287, "ground_speed_ft_s": 11.1089, "vel_north_m_s": 2.03, "vel_east_m_s": -2.71, "vel_down_m_s": 0.17, "battery_remain_pct": 9900.0}
{"t_rx_ms": 1773442512007, "run_id": "20260313_154342", "seq": 810, "pitch_deg": 1.533, "yaw_deg": -52.5189, "roll_deg": 4.8542, "lat_deg": 34.0399185, "lon_deg": -117.8167675, "altitude_rel_ft": -1.3287, "ground_speed_ft_s": 11.1089, "vel_north_m_s": 2.03, "vel_east_m_s": -2.71, "vel_down_m_s": 0.17, "battery_remain_pct": 9900.0}
{"t_rx_ms": 1773442512211, "run_id": "20260313_154342", "seq": 811, "pitch_deg": 1.533, "yaw_deg": -52.5189, "roll_deg": 4.8542, "lat_deg": 34.0399185, "lon_deg": -117.8167675, "altitude_rel_ft": -1.3287, "ground_speed_ft_s": 11.1089, "vel_north_m_s": 2.03, "vel_east_m_s": -2.71, "vel_down_m_s": 0.17, "battery_remain_pct": 9900.0}
{"t_rx_ms": 1773442512411, "run_id": "20260313_154342", "seq": 812, "pitch_deg": 2.7045, "yaw_deg": -52.3596, "roll_deg": 4.7554, "lat_deg": 34.0399381, "lon_deg": -117.81679749999999, "altitude_rel_ft": -0.2001, "ground_speed_ft_s": 11.5286, "vel_north_m_s": 2.2, "vel_east_m_s": -2.74, "vel_down_m_s": -0.11, "battery_remain_pct": 9900.0}
{"t_rx_ms": 1773442512613, "run_id": "20260313_154342", "seq": 813, "pitch_deg": 2.7045, "yaw_deg": -52.3596, "roll_deg": 4.7554, "lat_deg": 34.0399381, "lon_deg": -117.81679749999999, "altitude_rel_ft": -0.2001, "ground_speed_ft_s": 11.5286, "vel_north_m_s": 2.2, "vel_east_m_s": -2.74, "vel_down_m_s": -0.11, "battery_remain_pct": 9900.0}
{"t_rx_ms": 1773442512816, "run_id": "20260313_154342", "seq": 814, "pitch_deg": 2.7045, "yaw_deg": -52.3596, "roll_deg": 4.7554, "lat_deg": 34.0399381, "lon_deg": -117.81679749999999, "altitude_rel_ft": -0.2001, "ground_speed_ft_s": 11.5286, "vel_north_m_s": 2.2, "vel_east_m_s": -2.74, "vel_down_m_s": -0.11, "battery_remain_pct": 9900.0}
{"t_rx_ms": 1773442513017, "run_id": "20260313_154342", "seq": 815, "pitch_deg": 2.7045, "yaw_deg": -52.3596, "roll_deg": 4.7554, "lat_deg": 34.0399381, "lon_deg": -117.81679749999999, "altitude_rel_ft": -0.2001, "ground_speed_ft_s": 11.5286, "vel_north_m_s": 2.2, "vel_east_m_s": -2.74, "vel_down_m_s": -0.11, "battery_remain_pct": 9900.0}
{"t_rx_ms": 1773442513221, "run_id": "20260313_154342", "seq": 816, "pitch_deg": 2.7045, "yaw_deg": -52.3596, "roll_deg": 4.7554, "lat_deg": 34.0399381, "lon_deg": -117.81679749999999, "altitude_rel_ft": -0.2001, "ground_speed_ft_s": 11.5286, "vel_north_m_s": 2.2, "vel_east_m_s": -2.74, "vel_down_m_s": -0.11, "battery_remain_pct": 9900.0}
{"t_rx_ms": 1773442513423, "run_id": "20260313_154342", "seq": 817, "pitch_deg": 3.1172, "yaw_deg": -52.2366, "roll_deg": 4.3914, "lat_deg": 34.0399588, "lon_deg": -117.8168305, "altitude_rel_ft": -0.0656, "ground_speed_ft_s": 12.7493, "vel_north_m_s": 2.33, "vel_east_m_s": -3.11, "vel_down_m_s": -0.03, "battery_remain_pct": 9900.0}
{"t_rx_ms": 1773442513625, "run_id": "20260313_154342", "seq": 818, "pitch_deg": 3.1172, "yaw_deg": -52.2366, "roll_deg": 4.3914, "lat_deg": 34.0399588, "lon_deg": -117.8168305, "altitude_rel_ft": -0.0656, "ground_speed_ft_s": 12.7493, "vel_north_m_s": 2.33, "vel_east_m_s": -3.11, "vel_down_m_s": -0.03, "battery_remain_pct": 9900.0}
{"t_rx_ms": 1773442513826, "run_id": "20260313_154342", "seq": 819, "pitch_deg": 3.1172, "yaw_deg": -52.2366, "roll_deg": 4.3914, "lat_deg": 34.0399588, "lon_deg": -117.8168305, "altitude_rel_ft": -0.0656, "ground_speed_ft_s": 12.7493, "vel_north_m_s": 2.33, "vel_east_m_s": -3.11, "vel_down_m_s": -0.03, "battery_remain_pct": 9900.0}
{"t_rx_ms": 1773442514026, "run_id": "20260313_154342", "seq": 820, "pitch_deg": 3.1172, "yaw_deg": -52.2366, "roll_deg": 4.3914, "lat_deg": 34.0399588, "lon_deg": -117.8168305, "altitude_rel_ft": -0.0656, "ground_speed_ft_s": 12.7493, "vel_north_m_s": 2.33, "vel_east_m_s": -3.11, "vel_down_m_s": -0.03, "battery_remain_pct": 9900.0}
{"t_rx_ms": 1773442514235, "run_id": "20260313_154342", "seq": 821, "pitch_deg": 3.1172, "yaw_deg": -52.2366, "roll_deg": 4.3914, "lat_deg": 34.0399588, "lon_deg": -117.8168305, "altitude_rel_ft": -0.0656, "ground_speed_ft_s": 12.7493, "vel_north_m_s": 2.33, "vel_east_m_s": -3.11, "vel_down_m_s": -0.03, "battery_remain_pct": 9900.0}
{"t_rx_ms": 1773442514436, "run_id": "20260313_154342", "seq": 822, "pitch_deg": 2.9315, "yaw_deg": -52.1938, "roll_deg": 4.7496, "lat_deg": 34.039980199999995, "lon_deg": -117.8168642, "altitude_rel_ft": -0.3346, "ground_speed_ft_s": 12.9397, "vel_north_m_s": 2.36, "vel_east_m_s": -3.16, "vel_down_m_s": -0.07, "battery_remain_pct": 9900.0}
{"t_rx_ms": 1773442514637, "run_id": "20260313_154342", "seq": 823, "pitch_deg": 2.9315, "yaw_deg": -52.1938, "roll_deg": 4.7496, "lat_deg": 34.039980199999995, "lon_deg": -117.8168642, "altitude_rel_ft": -0.3346, "ground_speed_ft_s": 12.9397, "vel_north_m_s": 2.36, "vel_east_m_s": -3.16, "vel_down_m_s": -0.07, "battery_remain_pct": 9900.0}
{"t_rx_ms": 1773442514838, "run_id": "20260313_154342", "seq": 824, "pitch_deg": 2.9315, "yaw_deg": -52.1938, "roll_deg": 4.7496, "lat_deg": 34.039980199999995, "lon_deg": -117.8168642, "altitude_rel_ft": -0.3346, "ground_speed_ft_s": 12.9397, "vel_north_m_s": 2.36, "vel_east_m_s": -3.16, "vel_down_m_s": -0.07, "battery_remain_pct": 9900.0}
{"t_rx_ms": 1773442515041, "run_id": "20260313_154342", "seq": 825, "pitch_deg": 2.9315, "yaw_deg": -52.1938, "roll_deg": 4.7496, "lat_deg": 34.039980199999995, "lon_deg": -117.8168642, "altitude_rel_ft": -0.3346, "ground_speed_ft_s": 12.9397, "vel_north_m_s": 2.36, "vel_east_m_s": -3.16, "vel_down_m_s": -0.07, "battery_remain_pct": 9900.0}
{"t_rx_ms": 1773442515242, "run_id": "20260313_154342", "seq": 826, "pitch_deg": 3.3854, "yaw_deg": -52.139, "roll_deg": 4.8929, "lat_deg": 34.0400016, "lon_deg": -117.816898, "altitude_rel_ft": -0.3937, "ground_speed_ft_s": 12.9856, "vel_north_m_s": 2.37, "vel_east_m_s": -3.17, "vel_down_m_s": 0.01, "battery_remain_pct": 9900.0}
{"t_rx_ms": 1773442515446, "run_id": "20260313_154342", "seq": 827, "pitch_deg": 3.3854, "yaw_deg": -52.139, "roll_deg": 4.8929, "lat_deg": 34.0400016, "lon_deg": -117.816898, "altitude_rel_ft": -0.3937, "ground_speed_ft_s": 12.9856, "vel_north_m_s": 2.37, "vel_east_m_s": -3.17, "vel_down_m_s": 0.01, "battery_remain_pct": 9900.0}
{"t_rx_ms": 1773442515652, "run_id": "20260313_154342", "seq": 828, "pitch_deg": 3.3854, "yaw_deg": -52.139, "roll_deg": 4.8929, "lat_deg": 34.0400016, "lon_deg": -117.816898, "altitude_rel_ft": -0.3937, "ground_speed_ft_s": 12.9856, "vel_north_m_s": 2.37, "vel_east_m_s": -3.17, "vel_down_m_s": 0.01, "battery_remain_pct": 9900.0}
{"t_rx_ms": 1773442515853, "run_id": "20260313_154342", "seq": 829, "pitch_deg": 3.3854, "yaw_deg": -52.139, "roll_deg": 4.8929, "lat_deg": 34.0400016, "lon_deg": -117.816898, "altitude_rel_ft": -0.3937, "ground_speed_ft_s": 12.9856, "vel_north_m_s": 2.37, "vel_east_m_s": -3.17, "vel_down_m_s": 0.01, "battery_remain_pct": 9900.0}
{"t_rx_ms": 1773442516054, "run_id": "20260313_154342", "seq": 830, "pitch_deg": 3.3854, "yaw_deg": -52.139, "roll_deg": 4.8929, "lat_deg": 34.0400016, "lon_deg": -117.816898, "altitude_rel_ft": -0.3937, "ground_speed_ft_s": 12.9856, "vel_north_m_s": 2.37, "vel_east_m_s": -3.17, "vel_down_m_s": 0.01, "battery_remain_pct": 9900.0}
{"t_rx_ms": 1773442516256, "run_id": "20260313_154342", "seq": 831, "pitch_deg": 3.4614, "yaw_deg": -52.2878, "roll_deg": 4.154, "lat_deg": 34.0400244, "lon_deg": -117.81693399999999, "altitude_rel_ft": -0.2986, "ground_speed_ft_s": 13.3206, "vel_north_m_s": 2.46, "vel_east_m_s": -3.23, "vel_down_m_s": 0.04, "battery_remain_pct": 9900.0}
{"t_rx_ms": 1773442516458, "run_id": "20260313_154342", "seq": 832, "pitch_deg": 3.4614, "yaw_deg": -52.2878, "roll_deg": 4.154, "lat_deg": 34.0400244, "lon_deg": -117.81693399999999, "altitude_rel_ft": -0.2986, "ground_speed_ft_s": 13.3206, "vel_north_m_s": 2.46, "vel_east_m_s": -3.23, "vel_down_m_s": 0.04, "battery_remain_pct": 9900.0}
{"t_rx_ms": 1773442516658, "run_id": "20260313_154342", "seq": 833, "pitch_deg": 3.4614, "yaw_deg": -52.2878, "roll_deg": 4.154, "lat_deg": 34.0400244, "lon_deg": -117.81693399999999, "altitude_rel_ft": -0.2986, "ground_speed_ft_s": 13.3206, "vel_north_m_s": 2.46, "vel_east_m_s": -3.23, "vel_down_m_s": 0.04, "battery_remain_pct": 9900.0}
{"t_rx_ms": 1773442516859, "run_id": "20260313_154342", "seq": 834, "pitch_deg": 3.4614, "yaw_deg": -52.2878, "roll_deg": 4.154, "lat_deg": 34.0400244, "lon_deg": -117.81693399999999, "altitude_rel_ft": -0.2986, "ground_speed_ft_s": 13.3206, "vel_north_m_s": 2.46, "vel_east_m_s": -3.23, "vel_down_m_s": 0.04, "battery_remain_pct": 9900.0}
{"t_rx_ms": 1773442517062, "run_id": "20260313_154342", "seq": 835, "pitch_deg": 3.4614, "yaw_deg": -52.2878, "roll_deg": 4.154, "lat_deg": 34.0400244, "lon_deg": -117.81693399999999, "altitude_rel_ft": -0.2986, "ground_speed_ft_s": 13.3206, "vel_north_m_s": 2.46, "vel_east_m_s": -3.23, "vel_down_m_s": 0.04, "battery_remain_pct": 9900.0}
{"t_rx_ms": 1773442517267, "run_id": "20260313_154342", "seq": 836, "pitch_deg": 4.0013, "yaw_deg": -52.0827, "roll_deg": 3.1528, "lat_deg": 34.0400467, "lon_deg": -117.8169686, "altitude_rel_ft": -0.2395, "ground_speed_ft_s": 13.6026, "vel_north_m_s": 2.47, "vel_east_m_s": -3.33, "vel_down_m_s": 0.01, "battery_remain_pct": 9900.0}
{"t_rx_ms": 1773442517469, "run_id": "20260313_154342", "seq": 837, "pitch_deg": 4.0013, "yaw_deg": -52.0827, "roll_deg": 3.1528, "lat_deg": 34.0400467, "lon_deg": -117.8169686, "altitude_rel_ft": -0.2395, "ground_speed_ft_s": 13.6026, "vel_north_m_s": 2.47, "vel_east_m_s": -3.33, "vel_down_m_s": 0.01, "battery_remain_pct": 9900.0}
{"t_rx_ms": 1773442517669, "run_id": "20260313_154342", "seq": 838, "pitch_deg": 4.0013, "yaw_deg": -52.0827, "roll_deg": 3.1528, "lat_deg": 34.0400467, "lon_deg": -117.8169686, "altitude_rel_ft": -0.2395, "ground_speed_ft_s": 13.6026, "vel_north_m_s": 2.47, "vel_east_m_s": -3.33, "vel_down_m_s": 0.01, "battery_remain_pct": 9900.0}
{"t_rx_ms": 1773442517871, "run_id": "20260313_154342", "seq": 839, "pitch_deg": 4.0013, "yaw_deg": -52.0827, "roll_deg": 3.1528, "lat_deg": 34.0400467, "lon_deg": -117.8169686, "altitude_rel_ft": -0.2395, "ground_speed_ft_s": 13.6026, "vel_north_m_s": 2.47, "vel_east_m_s": -3.33, "vel_down_m_s": 0.01, "battery_remain_pct": 9900.0}
{"t_rx_ms": 1773442518072, "run_id": "20260313_154342", "seq": 840, "pitch_deg": 4.0013, "yaw_deg": -52.0827, "roll_deg": 3.1528, "lat_deg": 34.0400467, "lon_deg": -117.8169686, "altitude_rel_ft": -0.2395, "ground_speed_ft_s": 13.6026, "vel_north_m_s": 2.47, "vel_east_m_s": -3.33, "vel_down_m_s": 0.01, "battery_remain_pct": 9900.0}
{"t_rx_ms": 1773442518276, "run_id": "20260313_154342", "seq": 841, "pitch_deg": 4.9083, "yaw_deg": -51.9803, "roll_deg": 3.6061, "lat_deg": 34.0400693, "lon_deg": -117.81700409999999, "altitude_rel_ft": -0.7415, "ground_speed_ft_s": 13.2224, "vel_north_m_s": 2.45, "vel_east_m_s": -3.2, "vel_down_m_s": -0.07, "battery_remain_pct": 9900.0}
{"t_rx_ms": 1773442518480, "run_id": "20260313_154342", "seq": 842, "pitch_deg": 4.9083, "yaw_deg": -51.9803, "roll_deg": 3.6061, "lat_deg": 34.0400693, "lon_deg": -117.81700409999999, "altitude_rel_ft": -0.7415, "ground_speed_ft_s": 13.2224, "vel_north_m_s": 2.45, "vel_east_m_s": -3.2, "vel_down_m_s": -0.07, "battery_remain_pct": 9900.0}
{"t_rx_ms": 1773442518682, "run_id": "20260313_154342", "seq": 843, "pitch_deg": 4.9083, "yaw_deg": -51.9803, "roll_deg": 3.6061, "lat_deg": 34.0400693, "lon_deg": -117.81700409999999, "altitude_rel_ft": -0.7415, "ground_speed_ft_s": 13.2224, "vel_north_m_s": 2.45, "vel_east_m_s": -3.2, "vel_down_m_s": -0.07, "battery_remain_pct": 9900.0}
{"t_rx_ms": 1773442518883, "run_id": "20260313_154342", "seq": 844, "pitch_deg": 4.9083, "yaw_deg": -51.9803, "roll_deg": 3.6061, "lat_deg": 34.0400693, "lon_deg": -117.81700409999999, "altitude_rel_ft": -0.7415, "ground_speed_ft_s": 13.2224, "vel_north_m_s": 2.45, "vel_east_m_s": -3.2, "vel_down_m_s": -0.07, "battery_remain_pct": 9900.0}
{"t_rx_ms": 1773442519086, "run_id": "20260313_154342", "seq": 845, "pitch_deg": 4.9083, "yaw_deg": -51.9803, "roll_deg": 3.6061, "lat_deg": 34.0400693, "lon_deg": -117.81700409999999, "altitude_rel_ft": -0.7415, "ground_speed_ft_s": 13.2224, "vel_north_m_s": 2.45, "vel_east_m_s": -3.2, "vel_down_m_s": -0.07, "battery_remain_pct": 9900.0}
{"t_rx_ms": 1773442519287, "run_id": "20260313_154342", "seq": 846, "pitch_deg": 3.907, "yaw_deg": -52.1798, "roll_deg": 3.4222, "lat_deg": 34.040092099999995, "lon_deg": -117.8170408, "altitude_rel_ft": -0.1542, "ground_speed_ft_s": 13.4785, "vel_north_m_s": 2.5, "vel_east_m_s": -3.26, "vel_down_m_s": 0.08, "battery_remain_pct": 9900.0}
{"t_rx_ms": 1773442519491, "run_id": "20260313_154342", "seq": 847, "pitch_deg": 3.907, "yaw_deg": -52.1798, "roll_deg": 3.4222, "lat_deg": 34.040092099999995, "lon_deg": -117.8170408, "altitude_rel_ft": -0.1542, "ground_speed_ft_s": 13.4785, "vel_north_m_s": 2.5, "vel_east_m_s": -3.26, "vel_down_m_s": 0.08, "battery_remain_pct": 9900.0}
{"t_rx_ms": 1773442519692, "run_id": "20260313_154342", "seq": 848, "pitch_deg": 3.907, "yaw_deg": -52.1798, "roll_deg": 3.4222, "lat_deg": 34.040092099999995, "lon_deg": -117.8170408, "altitude_rel_ft": -0.1542, "ground_speed_ft_s": 13.4785, "vel_north_m_s": 2.5, "vel_east_m_s": -3.26, "vel_down_m_s": 0.08, "battery_remain_pct": 9900.0}
{"t_rx_ms": 1773442519894, "run_id": "20260313_154342", "seq": 849, "pitch_deg": 3.907, "yaw_deg": -52.1798, "roll_deg": 3.4222, "lat_deg": 34.040092099999995, "lon_deg": -117.8170408, "altitude_rel_ft": -0.1542, "ground_speed_ft_s": 13.4785, "vel_north_m_s": 2.5, "vel_east_m_s": -3.26, "vel_down_m_s": 0.08, "battery_remain_pct": 9900.0}
{"t_rx_ms": 1773442520098, "run_id": "20260313_154342", "seq": 850, "pitch_deg": 3.907, "yaw_deg": -52.1798, "roll_deg": 3.4222, "lat_deg": 34.040092099999995, "lon_deg": -117.8170408, "altitude_rel_ft": -0.1542, "ground_speed_ft_s": 13.4785, "vel_north_m_s": 2.5, "vel_east_m_s": -3.26, "vel_down_m_s": 0.08, "battery_remain_pct": 9900.0}
{"t_rx_ms": 1773442520301, "run_id": "20260313_154342", "seq": 851, "pitch_deg": 0.0201, "yaw_deg": -52.7146, "roll_deg": 1.2946, "lat_deg": 34.040113999999996, "lon_deg": -117.817076, "altitude_rel_ft": -0.2001, "ground_speed_ft_s": 13.6221, "vel_north_m_s": 2.48, "vel_east_m_s": -3.33, "vel_down_m_s": 0.02, "battery_remain_pct": 9900.0}
{"t_rx_ms": 1773442520502, "run_id": "20260313_154342", "seq": 852, "pitch_deg": 0.0201, "yaw_deg": -52.7146, "roll_deg": 1.2946, "lat_deg": 34.040113999999996, "lon_deg": -117.817076, "altitude_rel_ft": -0.2001, "ground_speed_ft_s": 13.6221, "vel_north_m_s": 2.48, "vel_east_m_s": -3.33, "vel_down_m_s": 0.02, "battery_remain_pct": 9900.0}
{"t_rx_ms": 1773442520702, "run_id": "20260313_154342", "seq": 853, "pitch_deg": 0.0201, "yaw_deg": -52.7146, "roll_deg": 1.2946, "lat_deg": 34.040113999999996, "lon_deg": -117.817076, "altitude_rel_ft": -0.2001, "ground_speed_ft_s": 13.6221, "vel_north_m_s": 2.48, "vel_east_m_s": -3.33, "vel_down_m_s": 0.02, "battery_remain_pct": 9900.0}
{"t_rx_ms": 1773442520903, "run_id": "20260313_154342", "seq": 854, "pitch_deg": 0.0201, "yaw_deg": -52.7146, "roll_deg": 1.2946, "lat_deg": 34.040113999999996, "lon_deg": -117.817076, "altitude_rel_ft": -0.2001, "ground_speed_ft_s": 13.6221, "vel_north_m_s": 2.48, "vel_east_m_s": -3.33, "vel_down_m_s": 0.02, "battery_remain_pct": 9900.0}
{"t_rx_ms": 1773442521104, "run_id": "20260313_154342", "seq": 855, "pitch_deg": 0.0201, "yaw_deg": -52.7146, "roll_deg": 1.2946, "lat_deg": 34.040113999999996, "lon_deg": -117.817076, "altitude_rel_ft": -0.2001, "ground_speed_ft_s": 13.6221, "vel_north_m_s": 2.48, "vel_east_m_s": -3.33, "vel_down_m_s": 0.02, "battery_remain_pct": 9900.0}
{"t_rx_ms": 1773442521309, "run_id": "20260313_154342", "seq": 856, "pitch_deg": 0.9012, "yaw_deg": -51.9171, "roll_deg": 4.8836, "lat_deg": 34.0401367, "lon_deg": -117.8171122, "altitude_rel_ft": 0.7119, "ground_speed_ft_s": 13.7345, "vel_north_m_s": 2.55, "vel_east_m_s": -3.32, "vel_down_m_s": -0.01, "battery_remain_pct": 9900.0}
{"t_rx_ms": 1773442521509, "run_id": "20260313_154342", "seq": 857, "pitch_deg": 0.9012, "yaw_deg": -51.9171, "roll_deg": 4.8836, "lat_deg": 34.0401367, "lon_deg": -117.8171122, "altitude_rel_ft": 0.7119, "ground_speed_ft_s": 13.7345, "vel_north_m_s": 2.55, "vel_east_m_s": -3.32, "vel_down_m_s": -0.01, "battery_remain_pct": 9900.0}
{"t_rx_ms": 1773442521715, "run_id": "20260313_154342", "seq": 858, "pitch_deg": 0.9012, "yaw_deg": -51.9171, "roll_deg": 4.8836, "lat_deg": 34.0401367, "lon_deg": -117.8171122, "altitude_rel_ft": 0.7119, "ground_speed_ft_s": 13.7345, "vel_north_m_s": 2.55, "vel_east_m_s": -3.32, "vel_down_m_s": -0.01, "battery_remain_pct": 9900.0}
{"t_rx_ms": 1773442521912, "run_id": "20260313_154342", "seq": 859, "pitch_deg": 0.9012, "yaw_deg": -51.9171, "roll_deg": 4.8836, "lat_deg": 34.0401367, "lon_deg": -117.8171122, "altitude_rel_ft": 0.7119, "ground_speed_ft_s": 13.7345, "vel_north_m_s": 2.55, "vel_east_m_s": -3.32, "vel_down_m_s": -0.01, "battery_remain_pct": 9900.0}
{"t_rx_ms": 1773442522113, "run_id": "20260313_154342", "seq": 860, "pitch_deg": 0.9012, "yaw_deg": -51.9171, "roll_deg": 4.8836, "lat_deg": 34.0401367, "lon_deg": -117.8171122, "altitude_rel_ft": 0.7119, "ground_speed_ft_s": 13.7345, "vel_north_m_s": 2.55, "vel_east_m_s": -3.32, "vel_down_m_s": -0.01, "battery_remain_pct": 9900.0}
{"t_rx_ms": 1773442522318, "run_id": "20260313_154342", "seq": 861, "pitch_deg": 1.1246, "yaw_deg": -51.7838, "roll_deg": 3.6898, "lat_deg": 34.0401594, "lon_deg": -117.8171484, "altitude_rel_ft": -0.105, "ground_speed_ft_s": 14.1011, "vel_north_m_s": 2.59, "vel_east_m_s": -3.43, "vel_down_m_s": -0.03, "battery_remain_pct": 9900.0}
{"t_rx_ms": 1773442522518, "run_id": "20260313_154342", "seq": 862, "pitch_deg": 1.1246, "yaw_deg": -51.7838, "roll_deg": 3.6898, "lat_deg": 34.0401594, "lon_deg": -117.8171484, "altitude_rel_ft": -0.105, "ground_speed_ft_s": 14.1011, "vel_north_m_s": 2.59, "vel_east_m_s": -3.43, "vel_down_m_s": -0.03, "battery_remain_pct": 9900.0}
{"t_rx_ms": 1773442522719, "run_id": "20260313_154342", "seq": 863, "pitch_deg": 1.1246, "yaw_deg": -51.7838, "roll_deg": 3.6898, "lat_deg": 34.0401594, "lon_deg": -117.8171484, "altitude_rel_ft": -0.105, "ground_speed_ft_s": 14.1011, "vel_north_m_s": 2.59, "vel_east_m_s": -3.43, "vel_down_m_s": -0.03, "battery_remain_pct": 9900.0}
{"t_rx_ms": 1773442522920, "run_id": "20260313_154342", "seq": 864, "pitch_deg": 1.1246, "yaw_deg": -51.7838, "roll_deg": 3.6898, "lat_deg": 34.0401594, "lon_deg": -117.8171484, "altitude_rel_ft": -0.105, "ground_speed_ft_s": 14.1011, "vel_north_m_s": 2.59, "vel_east_m_s": -3.43, "vel_down_m_s": -0.03, "battery_remain_pct": 9900.0}
{"t_rx_ms": 1773442523121, "run_id": "20260313_154342", "seq": 865, "pitch_deg": 1.1246, "yaw_deg": -51.7838, "roll_deg": 3.6898, "lat_deg": 34.0401594, "lon_deg": -117.8171484, "altitude_rel_ft": -0.105, "ground_speed_ft_s": 14.1011, "vel_north_m_s": 2.59, "vel_east_m_s": -3.43, "vel_down_m_s": -0.03, "battery_remain_pct": 9900.0}
{"t_rx_ms": 1773442523327, "run_id": "20260313_154342", "seq": 866, "pitch_deg": 2.0583, "yaw_deg": -51.6224, "roll_deg": 3.6817, "lat_deg": 34.0401838, "lon_deg": -117.8171869, "altitude_rel_ft": -0.0853, "ground_speed_ft_s": 13.9846, "vel_north_m_s": 2.61, "vel_east_m_s": -3.37, "vel_down_m_s": -0.09, "battery_remain_pct": 9900.0}
{"t_rx_ms": 1773442523528, "run_id": "20260313_154342", "seq": 867, "pitch_deg": 2.0583, "yaw_deg": -51.6224, "roll_deg": 3.6817, "lat_deg": 34.0401838, "lon_deg": -117.8171869, "altitude_rel_ft": -0.0853, "ground_speed_ft_s": 13.9846, "vel_north_m_s": 2.61, "vel_east_m_s": -3.37, "vel_down_m_s": -0.09, "battery_remain_pct": 9900.0}
{"t_rx_ms": 1773442523728, "run_id": "20260313_154342", "seq": 868, "pitch_deg": 2.0583, "yaw_deg": -51.6224, "roll_deg": 3.6817, "lat_deg": 34.0401838, "lon_deg": -117.8171869, "altitude_rel_ft": -0.0853, "ground_speed_ft_s": 13.9846, "vel_north_m_s": 2.61, "vel_east_m_s": -3.37, "vel_down_m_s": -0.09, "battery_remain_pct": 9900.0}
{"t_rx_ms": 1773442524441, "run_id": "20260313_154342", "seq": 869, "pitch_deg": 2.0583, "yaw_deg": -51.6224, "roll_deg": 3.6817, "lat_deg": 34.0401838, "lon_deg": -117.8171869, "altitude_rel_ft": -0.0853, "ground_speed_ft_s": 13.9846, "vel_north_m_s": 2.61, "vel_east_m_s": -3.37, "vel_down_m_s": -0.09, "battery_remain_pct": 9900.0}
{"t_rx_ms": 1773442524644, "run_id": "20260313_154342", "seq": 870, "pitch_deg": 2.0633, "yaw_deg": -51.5028, "roll_deg": 3.7395, "lat_deg": 34.040206999999995, "lon_deg": -117.81722409999999, "altitude_rel_ft": 0.0459, "ground_speed_ft_s": 13.8911, "vel_north_m_s": 2.55, "vel_east_m_s": -3.38, "vel_down_m_s": -0.12, "battery_remain_pct": 9900.0}
{"t_rx_ms": 1773442524844, "run_id": "20260313_154342", "seq": 871, "pitch_deg": 2.0633, "yaw_deg": -51.5028, "roll_deg": 3.7395, "lat_deg": 34.040206999999995, "lon_deg": -117.81722409999999, "altitude_rel_ft": 0.0459, "ground_speed_ft_s": 13.8911, "vel_north_m_s": 2.55, "vel_east_m_s": -3.38, "vel_down_m_s": -0.12, "battery_remain_pct": 9900.0}
{"t_rx_ms": 1773442525047, "run_id": "20260313_154342", "seq": 872, "pitch_deg": 2.0633, "yaw_deg": -51.5028, "roll_deg": 3.7395, "lat_deg": 34.040206999999995, "lon_deg": -117.81722409999999, "altitude_rel_ft": 0.0459, "ground_speed_ft_s": 13.8911, "vel_north_m_s": 2.55, "vel_east_m_s": -3.38, "vel_down_m_s": -0.12, "battery_remain_pct": 9900.0}
{"t_rx_ms": 1773442525248, "run_id": "20260313_154342", "seq": 873, "pitch_deg": 2.2733, "yaw_deg": -51.4574, "roll_deg": 3.7713, "lat_deg": 34.04023, "lon_deg": -117.8172611, "altitude_rel_ft": 0.6266, "ground_speed_ft_s": 14.1867, "vel_north_m_s": 2.62, "vel_east_m_s": -3.44, "vel_down_m_s": -0.17, "battery_remain_pct": 9900.0}
{"t_rx_ms": 1773442525456, "run_id": "20260313_154342", "seq": 874, "pitch_deg": 2.2733, "yaw_deg": -51.4574, "roll_deg": 3.7713, "lat_deg": 34.04023, "lon_deg": -117.8172611, "altitude_rel_ft": 0.6266, "ground_speed_ft_s": 14.1867, "vel_north_m_s": 2.62, "vel_east_m_s": -3.44, "vel_down_m_s": -0.17, "battery_remain_pct": 9900.0}
{"t_rx_ms": 1773442525657, "run_id": "20260313_154342", "seq": 875, "pitch_deg": 2.2733, "yaw_deg": -51.4574, "roll_deg": 3.7713, "lat_deg": 34.04023, "lon_deg": -117.8172611, "altitude_rel_ft": 0.6266, "ground_speed_ft_s": 14.1867, "vel_north_m_s": 2.62, "vel_east_m_s": -3.44, "vel_down_m_s": -0.17, "battery_remain_pct": 9900.0}
{"t_rx_ms": 1773442525864, "run_id": "20260313_154342", "seq": 876, "pitch_deg": 2.2733, "yaw_deg": -51.4574, "roll_deg": 3.7713, "lat_deg": 34.04023, "lon_deg": -117.8172611, "altitude_rel_ft": 0.6266, "ground_speed_ft_s": 14.1867, "vel_north_m_s": 2.62, "vel_east_m_s": -3.44, "vel_down_m_s": -0.17, "battery_remain_pct": 9900.0}
{"t_rx_ms": 1773442526064, "run_id": "20260313_154342", "seq": 877, "pitch_deg": 2.2733, "yaw_deg": -51.4574, "roll_deg": 3.7713, "lat_deg": 34.04023, "lon_deg": -117.8172611, "altitude_rel_ft": 0.6266, "ground_speed_ft_s": 14.1867, "vel_north_m_s": 2.62, "vel_east_m_s": -3.44, "vel_down_m_s": -0.17, "battery_remain_pct": 9900.0}
{"t_rx_ms": 1773442526267, "run_id": "20260313_154342", "seq": 878, "pitch_deg": 2.3819, "yaw_deg": -51.3482, "roll_deg": 4.051, "lat_deg": 34.0402542, "lon_deg": -117.81729949999999, "altitude_rel_ft": 0.5873, "ground_speed_ft_s": 14.3968, "vel_north_m_s": 2.66, "vel_east_m_s": -3.49, "vel_down_m_s": -0.03, "battery_remain_pct": 9900.0}
{"t_rx_ms": 1773442526483, "run_id": "20260313_154342", "seq": 879, "pitch_deg": 2.3819, "yaw_deg": -51.3482, "roll_deg": 4.051, "lat_deg": 34.0402542, "lon_deg": -117.81729949999999, "altitude_rel_ft": 0.5873, "ground_speed_ft_s": 14.3968, "vel_north_m_s": 2.66, "vel_east_m_s": -3.49, "vel_down_m_s": -0.03, "battery_remain_pct": 9900.0}
{"t_rx_ms": 1773442526683, "run_id": "20260313_154342", "seq": 880, "pitch_deg": 2.3819, "yaw_deg": -51.3482, "roll_deg": 4.051, "lat_deg": 34.0402542, "lon_deg": -117.81729949999999, "altitude_rel_ft": 0.5873, "ground_speed_ft_s": 14.3968, "vel_north_m_s": 2.66, "vel_east_m_s": -3.49, "vel_down_m_s": -0.03, "battery_remain_pct": 9900.0}
{"t_rx_ms": 1773442526884, "run_id": "20260313_154342", "seq": 881, "pitch_deg": 2.3819, "yaw_deg": -51.3482, "roll_deg": 4.051, "lat_deg": 34.0402542, "lon_deg": -117.81729949999999, "altitude_rel_ft": 0.5873, "ground_speed_ft_s": 14.3968, "vel_north_m_s": 2.66, "vel_east_m_s": -3.49, "vel_down_m_s": -0.03, "battery_remain_pct": 9900.0}
{"t_rx_ms": 1773442527086, "run_id": "20260313_154342", "seq": 882, "pitch_deg": 2.3819, "yaw_deg": -51.3482, "roll_deg": 4.051, "lat_deg": 34.0402542, "lon_deg": -117.81729949999999, "altitude_rel_ft": 0.5873, "ground_speed_ft_s": 14.3968, "vel_north_m_s": 2.66, "vel_east_m_s": -3.49, "vel_down_m_s": -0.03, "battery_remain_pct": 9900.0}
{"t_rx_ms": 1773442527288, "run_id": "20260313_154342", "seq": 883, "pitch_deg": 3.5107, "yaw_deg": -51.0456, "roll_deg": 4.5379, "lat_deg": 34.040276999999996, "lon_deg": -117.8173355, "altitude_rel_ft": -0.21, "ground_speed_ft_s": 14.6852, "vel_north_m_s": 2.7, "vel_east_m_s": -3.57, "vel_down_m_s": 0.04, "battery_remain_pct": 9900.0}
{"t_rx_ms": 1773442527490, "run_id": "20260313_154342", "seq": 884, "pitch_deg": 3.5107, "yaw_deg": -51.0456, "roll_deg": 4.5379, "lat_deg": 34.040276999999996, "lon_deg": -117.8173355, "altitude_rel_ft": -0.21, "ground_speed_ft_s": 14.6852, "vel_north_m_s": 2.7, "vel_east_m_s": -3.57, "vel_down_m_s": 0.04, "battery_remain_pct": 9900.0}
{"t_rx_ms": 1773442527690, "run_id": "20260313_154342", "seq": 885, "pitch_deg": 3.5107, "yaw_deg": -51.0456, "roll_deg": 4.5379, "lat_deg": 34.040276999999996, "lon_deg": -117.8173355, "altitude_rel_ft": -0.21, "ground_speed_ft_s": 14.6852, "vel_north_m_s": 2.7, "vel_east_m_s": -3.57, "vel_down_m_s": 0.04, "battery_remain_pct": 9900.0}
{"t_rx_ms": 1773442527891, "run_id": "20260313_154342", "seq": 886, "pitch_deg": 3.5107, "yaw_deg": -51.0456, "roll_deg": 4.5379, "lat_deg": 34.040276999999996, "lon_deg": -117.8173355, "altitude_rel_ft": -0.21, "ground_speed_ft_s": 14.6852, "vel_north_m_s": 2.7, "vel_east_m_s": -3.57, "vel_down_m_s": 0.04, "battery_remain_pct": 9900.0}
{"t_rx_ms": 1773442528096, "run_id": "20260313_154342", "seq": 887, "pitch_deg": 3.5107, "yaw_deg": -51.0456, "roll_deg": 4.5379, "lat_deg": 34.040276999999996, "lon_deg": -117.8173355, "altitude_rel_ft": -0.21, "ground_speed_ft_s": 14.6852, "vel_north_m_s": 2.7, "vel_east_m_s": -3.57, "vel_down_m_s": 0.04, "battery_remain_pct": 9900.0}
{"t_rx_ms": 1773442528299, "run_id": "20260313_154342", "seq": 888, "pitch_deg": 3.8884, "yaw_deg": -50.837, "roll_deg": 4.1335, "lat_deg": 34.0403014, "lon_deg": -117.81737349999999, "altitude_rel_ft": 0.3248, "ground_speed_ft_s": 14.7447, "vel_north_m_s": 2.73, "vel_east_m_s": -3.57, "vel_down_m_s": -0.06, "battery_remain_pct": 9900.0}
{"t_rx_ms": 1773442528502, "run_id": "20260313_154342", "seq": 889, "pitch_deg": 3.8884, "yaw_deg": -50.837, "roll_deg": 4.1335, "lat_deg": 34.0403014, "lon_deg": -117.81737349999999, "altitude_rel_ft": 0.3248, "ground_speed_ft_s": 14.7447, "vel_north_m_s": 2.73, "vel_east_m_s": -3.57, "vel_down_m_s": -0.06, "battery_remain_pct": 9900.0}
{"t_rx_ms": 1773442528703, "run_id": "20260313_154342", "seq": 890, "pitch_deg": 3.8884, "yaw_deg": -50.837, "roll_deg": 4.1335, "lat_deg": 34.0403014, "lon_deg": -117.81737349999999, "altitude_rel_ft": 0.3248, "ground_speed_ft_s": 14.7447, "vel_north_m_s": 2.73, "vel_east_m_s": -3.57, "vel_down_m_s": -0.06, "battery_remain_pct": 9900.0}
{"t_rx_ms": 1773442528903, "run_id": "20260313_154342", "seq": 891, "pitch_deg": 3.8884, "yaw_deg": -50.837, "roll_deg": 4.1335, "lat_deg": 34.0403014, "lon_deg": -117.81737349999999, "altitude_rel_ft": 0.3248, "ground_speed_ft_s": 14.7447, "vel_north_m_s": 2.73, "vel_east_m_s": -3.57, "vel_down_m_s": -0.06, "battery_remain_pct": 9900.0}
{"t_rx_ms": 1773442529104, "run_id": "20260313_154342", "seq": 892, "pitch_deg": 3.8884, "yaw_deg": -50.837, "roll_deg": 4.1335, "lat_deg": 34.0403014, "lon_deg": -117.81737349999999, "altitude_rel_ft": 0.3248, "ground_speed_ft_s": 14.7447, "vel_north_m_s": 2.73, "vel_east_m_s": -3.57, "vel_down_m_s": -0.06, "battery_remain_pct": 9900.0}
{"t_rx_ms": 1773442529305, "run_id": "20260313_154342", "seq": 893, "pitch_deg": 3.8487, "yaw_deg": -50.8033, "roll_deg": 3.7619, "lat_deg": 34.0403269, "lon_deg": -117.8174126, "altitude_rel_ft": 0.2198, "ground_speed_ft_s": 14.8651, "vel_north_m_s": 2.79, "vel_east_m_s": -3.57, "vel_down_m_s": -0.07, "battery_remain_pct": 9900.0}
{"t_rx_ms": 1773442529505, "run_id": "20260313_154342", "seq": 894, "pitch_deg": 3.8487, "yaw_deg": -50.8033, "roll_deg": 3.7619, "lat_deg": 34.0403269, "lon_deg": -117.8174126, "altitude_rel_ft": 0.2198, "ground_speed_ft_s": 14.8651, "vel_north_m_s": 2.79, "vel_east_m_s": -3.57, "vel_down_m_s": -0.07, "battery_remain_pct": 9900.0}
{"t_rx_ms": 1773442529706, "run_id": "20260313_154342", "seq": 895, "pitch_deg": 3.8487, "yaw_deg": -50.8033, "roll_deg": 3.7619, "lat_deg": 34.0403269, "lon_deg": -117.8174126, "altitude_rel_ft": 0.2198, "ground_speed_ft_s": 14.8651, "vel_north_m_s": 2.79, "vel_east_m_s": -3.57, "vel_down_m_s": -0.07, "battery_remain_pct": 9900.0}
{"t_rx_ms": 1773442529912, "run_id": "20260313_154342", "seq": 896, "pitch_deg": 3.8487, "yaw_deg": -50.8033, "roll_deg": 3.7619, "lat_deg": 34.0403269, "lon_deg": -117.8174126, "altitude_rel_ft": 0.2198, "ground_speed_ft_s": 14.8651, "vel_north_m_s": 2.79, "vel_east_m_s": -3.57, "vel_down_m_s": -0.07, "battery_remain_pct": 9900.0}
{"t_rx_ms": 1773442530115, "run_id": "20260313_154342", "seq": 897, "pitch_deg": 3.8487, "yaw_deg": -50.8033, "roll_deg": 3.7619, "lat_deg": 34.0403269, "lon_deg": -117.8174126, "altitude_rel_ft": 0.2198, "ground_speed_ft_s": 14.8651, "vel_north_m_s": 2.79, "vel_east_m_s": -3.57, "vel_down_m_s": -0.07, "battery_remain_pct": 9900.0}
{"t_rx_ms": 1773442530315, "run_id": "20260313_154342", "seq": 898, "pitch_deg": 3.5293, "yaw_deg": -50.8481, "roll_deg": 3.2985, "lat_deg": 34.0403532, "lon_deg": -117.8174533, "altitude_rel_ft": 0.4429, "ground_speed_ft_s": 14.9775, "vel_north_m_s": 2.82, "vel_east_m_s": -3.59, "vel_down_m_s": -0.05, "battery_remain_pct": 9900.0}
{"t_rx_ms": 1773442530518, "run_id": "20260313_154342", "seq": 899, "pitch_deg": 3.5293, "yaw_deg": -50.8481, "roll_deg": 3.2985, "lat_deg": 34.0403532, "lon_deg": -117.8174533, "altitude_rel_ft": 0.4429, "ground_speed_ft_s": 14.9775, "vel_north_m_s": 2.82, "vel_east_m_s": -3.59, "vel_down_m_s": -0.05, "battery_remain_pct": 9900.0}
{"t_rx_ms": 1773442530721, "run_id": "20260313_154342", "seq": 900, "pitch_deg": 3.5293, "yaw_deg": -50.8481, "roll_deg": 3.2985, "lat_deg": 34.0403532, "lon_deg": -117.8174533, "altitude_rel_ft": 0.4429, "ground_speed_ft_s": 14.9775, "vel_north_m_s": 2.82, "vel_east_m_s": -3.59, "vel_down_m_s": -0.05, "battery_remain_pct": 9900.0}
{"t_rx_ms": 1773442530924, "run_id": "20260313_154342", "seq": 901, "pitch_deg": 3.5293, "yaw_deg": -50.8481, "roll_deg": 3.2985, "lat_deg": 34.0403532, "lon_deg": -117.8174533, "altitude_rel_ft": 0.4429, "ground_speed_ft_s": 14.9775, "vel_north_m_s": 2.82, "vel_east_m_s": -3.59, "vel_down_m_s": -0.05, "battery_remain_pct": 9900.0}
{"t_rx_ms": 1773442531128, "run_id": "20260313_154342", "seq": 902, "pitch_deg": 3.5293, "yaw_deg": -50.8481, "roll_deg": 3.2985, "lat_deg": 34.0403532, "lon_deg": -117.8174533, "altitude_rel_ft": 0.4429, "ground_speed_ft_s": 14.9775, "vel_north_m_s": 2.82, "vel_east_m_s": -3.59, "vel_down_m_s": -0.05, "battery_remain_pct": 9900.0}
{"t_rx_ms": 1773442531331, "run_id": "20260313_154342", "seq": 903, "pitch_deg": 2.872, "yaw_deg": -50.8357, "roll_deg": 3.7998, "lat_deg": 34.0403771, "lon_deg": -117.81748999999999, "altitude_rel_ft": 1.0597, "ground_speed_ft_s": 14.8027, "vel_north_m_s": 2.81, "vel_east_m_s": -3.53, "vel_down_m_s": -0.06, "battery_remain_pct": 9900.0}
{"t_rx_ms": 1773442531534, "run_id": "20260313_154342", "seq": 904, "pitch_deg": 2.872, "yaw_deg": -50.8357, "roll_deg": 3.7998, "lat_deg": 34.0403771, "lon_deg": -117.81748999999999, "altitude_rel_ft": 1.0597, "ground_speed_ft_s": 14.8027, "vel_north_m_s": 2.81, "vel_east_m_s": -3.53, "vel_down_m_s": -0.06, "battery_remain_pct": 9900.0}
{"t_rx_ms": 1773442531735, "run_id": "20260313_154342", "seq": 905, "pitch_deg": 2.872, "yaw_deg": -50.8357, "roll_deg": 3.7998, "lat_deg": 34.0403771, "lon_deg": -117.81748999999999, "altitude_rel_ft": 1.0597, "ground_speed_ft_s": 14.8027, "vel_north_m_s": 2.81, "vel_east_m_s": -3.53, "vel_down_m_s": -0.06, "battery_remain_pct": 9900.0}
{"t_rx_ms": 1773442531939, "run_id": "20260313_154342", "seq": 906, "pitch_deg": 2.872, "yaw_deg": -50.8357, "roll_deg": 3.7998, "lat_deg": 34.0403771, "lon_deg": -117.81748999999999, "altitude_rel_ft": 1.0597, "ground_speed_ft_s": 14.8027, "vel_north_m_s": 2.81, "vel_east_m_s": -3.53, "vel_down_m_s": -0.06, "battery_remain_pct": 9900.0}
{"t_rx_ms": 1773442532139, "run_id": "20260313_154342", "seq": 907, "pitch_deg": 2.872, "yaw_deg": -50.8357, "roll_deg": 3.7998, "lat_deg": 34.0403771, "lon_deg": -117.81748999999999, "altitude_rel_ft": 1.0597, "ground_speed_ft_s": 14.8027, "vel_north_m_s": 2.81, "vel_east_m_s": -3.53, "vel_down_m_s": -0.06, "battery_remain_pct": 9900.0}
{"t_rx_ms": 1773442532344, "run_id": "20260313_154342", "seq": 908, "pitch_deg": 2.6104, "yaw_deg": -48.7947, "roll_deg": 3.8759, "lat_deg": 34.040404099999996, "lon_deg": -117.8175301, "altitude_rel_ft": 1.1089, "ground_speed_ft_s": 14.7024, "vel_north_m_s": 2.86, "vel_east_m_s": -3.45, "vel_down_m_s": -0.03, "battery_remain_pct": 9900.0}
{"t_rx_ms": 1773442532545, "run_id": "20260313_154342", "seq": 909, "pitch_deg": 2.6104, "yaw_deg": -48.7947, "roll_deg": 3.8759, "lat_deg": 34.040404099999996, "lon_deg": -117.8175301, "altitude_rel_ft": 1.1089, "ground_speed_ft_s": 14.7024, "vel_north_m_s": 2.86, "vel_east_m_s": -3.45, "vel_down_m_s": -0.03, "battery_remain_pct": 9900.0}
{"t_rx_ms": 1773442532747, "run_id": "20260313_154342", "seq": 910, "pitch_deg": 2.6104, "yaw_deg": -48.7947, "roll_deg": 3.8759, "lat_deg": 34.040404099999996, "lon_deg": -117.8175301, "altitude_rel_ft": 1.1089, "ground_speed_ft_s": 14.7024, "vel_north_m_s": 2.86, "vel_east_m_s": -3.45, "vel_down_m_s": -0.03, "battery_remain_pct": 9900.0}
{"t_rx_ms": 1773442532948, "run_id": "20260313_154342", "seq": 911, "pitch_deg": 2.6104, "yaw_deg": -48.7947, "roll_deg": 3.8759, "lat_deg": 34.040404099999996, "lon_deg": -117.8175301, "altitude_rel_ft": 1.1089, "ground_speed_ft_s": 14.7024, "vel_north_m_s": 2.86, "vel_east_m_s": -3.45, "vel_down_m_s": -0.03, "battery_remain_pct": 9900.0}
{"t_rx_ms": 1773442533151, "run_id": "20260313_154342", "seq": 912, "pitch_deg": 2.6104, "yaw_deg": -48.7947, "roll_deg": 3.8759, "lat_deg": 34.040404099999996, "lon_deg": -117.8175301, "altitude_rel_ft": 1.1089, "ground_speed_ft_s": 14.7024, "vel_north_m_s": 2.86, "vel_east_m_s": -3.45, "vel_down_m_s": -0.03, "battery_remain_pct": 9900.0}
{"t_rx_ms": 1773442533352, "run_id": "20260313_154342", "seq": 913, "pitch_deg": 2.6148, "yaw_deg": -46.6913, "roll_deg": 4.0447, "lat_deg": 34.0404289, "lon_deg": -117.8175632, "altitude_rel_ft": 0.4626, "ground_speed_ft_s": 13.9103, "vel_north_m_s": 2.86, "vel_east_m_s": -3.13, "vel_down_m_s": 0.0, "battery_remain_pct": 9900.0}
{"t_rx_ms": 1773442533556, "run_id": "20260313_154342", "seq": 914, "pitch_deg": 2.6148, "yaw_deg": -46.6913, "roll_deg": 4.0447, "lat_deg": 34.0404289, "lon_deg": -117.8175632, "altitude_rel_ft": 0.4626, "ground_speed_ft_s": 13.9103, "vel_north_m_s": 2.86, "vel_east_m_s": -3.13, "vel_down_m_s": 0.0, "battery_remain_pct": 9900.0}
{"t_rx_ms": 1773442533756, "run_id": "20260313_154342", "seq": 915, "pitch_deg": 2.6148, "yaw_deg": -46.6913, "roll_deg": 4.0447, "lat_deg": 34.0404289, "lon_deg": -117.8175632, "altitude_rel_ft": 0.4626, "ground_speed_ft_s": 13.9103, "vel_north_m_s": 2.86, "vel_east_m_s": -3.13, "vel_down_m_s": 0.0, "battery_remain_pct": 9900.0}
{"t_rx_ms": 1773442533960, "run_id": "20260313_154342", "seq": 916, "pitch_deg": 2.6148, "yaw_deg": -46.6913, "roll_deg": 4.0447, "lat_deg": 34.0404289, "lon_deg": -117.8175632, "altitude_rel_ft": 0.4626, "ground_speed_ft_s": 13.9103, "vel_north_m_s": 2.86, "vel_east_m_s": -3.13, "vel_down_m_s": 0.0, "battery_remain_pct": 9900.0}
{"t_rx_ms": 1773442534161, "run_id": "20260313_154342", "seq": 917, "pitch_deg": 2.6148, "yaw_deg": -46.6913, "roll_deg": 4.0447, "lat_deg": 34.0404289, "lon_deg": -117.8175632, "altitude_rel_ft": 0.4626, "ground_speed_ft_s": 13.9103, "vel_north_m_s": 2.86, "vel_east_m_s": -3.13, "vel_down_m_s": 0.0, "battery_remain_pct": 9900.0}
{"t_rx_ms": 1773442534361, "run_id": "20260313_154342", "seq": 918, "pitch_deg": 1.9999, "yaw_deg": -43.9812, "roll_deg": 4.3525, "lat_deg": 34.0404561, "lon_deg": -117.817596, "altitude_rel_ft": 1.0892, "ground_speed_ft_s": 14.085, "vel_north_m_s": 3.1, "vel_east_m_s": -2.97, "vel_down_m_s": 0.07, "battery_remain_pct": 9900.0}
{"t_rx_ms": 1773442534571, "run_id": "20260313_154342", "seq": 919, "pitch_deg": 1.9999, "yaw_deg": -43.9812, "roll_deg": 4.3525, "lat_deg": 34.0404561, "lon_deg": -117.817596, "altitude_rel_ft": 1.0892, "ground_speed_ft_s": 14.085, "vel_north_m_s": 3.1, "vel_east_m_s": -2.97, "vel_down_m_s": 0.07, "battery_remain_pct": 9900.0}
{"t_rx_ms": 1773442534777, "run_id": "20260313_154342", "seq": 920, "pitch_deg": 1.9999, "yaw_deg": -43.9812, "roll_deg": 4.3525, "lat_deg": 34.0404561, "lon_deg": -117.817596, "altitude_rel_ft": 1.0892, "ground_speed_ft_s": 14.085, "vel_north_m_s": 3.1, "vel_east_m_s": -2.97, "vel_down_m_s": 0.07, "battery_remain_pct": 9900.0}
{"t_rx_ms": 1773442534981, "run_id": "20260313_154342", "seq": 921, "pitch_deg": 1.9999, "yaw_deg": -43.9812, "roll_deg": 4.3525, "lat_deg": 34.0404561, "lon_deg": -117.817596, "altitude_rel_ft": 1.0892, "ground_speed_ft_s": 14.085, "vel_north_m_s": 3.1, "vel_east_m_s": -2.97, "vel_down_m_s": 0.07, "battery_remain_pct": 9900.0}
{"t_rx_ms": 1773442535187, "run_id": "20260313_154342", "seq": 922, "pitch_deg": 1.9999, "yaw_deg": -43.9812, "roll_deg": 4.3525, "lat_deg": 34.0404561, "lon_deg": -117.817596, "altitude_rel_ft": 1.0892, "ground_speed_ft_s": 14.085, "vel_north_m_s": 3.1, "vel_east_m_s": -2.97, "vel_down_m_s": 0.07, "battery_remain_pct": 9900.0}
{"t_rx_ms": 1773442535388, "run_id": "20260313_154342", "seq": 923, "pitch_deg": 0.5136, "yaw_deg": -40.4245, "roll_deg": 4.1047, "lat_deg": 34.0404856, "lon_deg": -117.81762739999999, "altitude_rel_ft": 0.3248, "ground_speed_ft_s": 14.1816, "vel_north_m_s": 3.31, "vel_east_m_s": -2.78, "vel_down_m_s": -0.05, "battery_remain_pct": 9900.0}
{"t_rx_ms": 1773442535589, "run_id": "20260313_154342", "seq": 924, "pitch_deg": 0.5136, "yaw_deg": -40.4245, "roll_deg": 4.1047, "lat_deg": 34.0404856, "lon_deg": -117.81762739999999, "altitude_rel_ft": 0.3248, "ground_speed_ft_s": 14.1816, "vel_north_m_s": 3.31, "vel_east_m_s": -2.78, "vel_down_m_s": -0.05, "battery_remain_pct": 9900.0}
{"t_rx_ms": 1773442535795, "run_id": "20260313_154342", "seq": 925, "pitch_deg": 0.5136, "yaw_deg": -40.4245, "roll_deg": 4.1047, "lat_deg": 34.0404856, "lon_deg": -117.81762739999999, "altitude_rel_ft": 0.3248, "ground_speed_ft_s": 14.1816, "vel_north_m_s": 3.31, "vel_east_m_s": -2.78, "vel_down_m_s": -0.05, "battery_remain_pct": 9900.0}
{"t_rx_ms": 1773442535997, "run_id": "20260313_154342", "seq": 926, "pitch_deg": 0.5136, "yaw_deg": -40.4245, "roll_deg": 4.1047, "lat_deg": 34.0404856, "lon_deg": -117.81762739999999, "altitude_rel_ft": 0.3248, "ground_speed_ft_s": 14.1816, "vel_north_m_s": 3.31, "vel_east_m_s": -2.78, "vel_down_m_s": -0.05, "battery_remain_pct": 9900.0}
{"t_rx_ms": 1773442536197, "run_id": "20260313_154342", "seq": 927, "pitch_deg": 0.5136, "yaw_deg": -40.4245, "roll_deg": 4.1047, "lat_deg": 34.0404856, "lon_deg": -117.81762739999999, "altitude_rel_ft": 0.3248, "ground_speed_ft_s": 14.1816, "vel_north_m_s": 3.31, "vel_east_m_s": -2.78, "vel_down_m_s": -0.05, "battery_remain_pct": 9900.0}
{"t_rx_ms": 1773442536399, "run_id": "20260313_154342", "seq": 928, "pitch_deg": 0.3391, "yaw_deg": -36.2136, "roll_deg": 4.3134, "lat_deg": 34.040516, "lon_deg": -117.81765589999999, "altitude_rel_ft": 0.3543, "ground_speed_ft_s": 14.0552, "vel_north_m_s": 3.42, "vel_east_m_s": -2.58, "vel_down_m_s": 0.01, "battery_remain_pct": 9900.0}
{"t_rx_ms": 1773442536601, "run_id": "20260313_154342", "seq": 929, "pitch_deg": 0.3391, "yaw_deg": -36.2136, "roll_deg": 4.3134, "lat_deg": 34.040516, "lon_deg": -117.81765589999999, "altitude_rel_ft": 0.3543, "ground_speed_ft_s": 14.0552, "vel_north_m_s": 3.42, "vel_east_m_s": -2.58, "vel_down_m_s": 0.01, "battery_remain_pct": 9900.0}
{"t_rx_ms": 1773442536802, "run_id": "20260313_154342", "seq": 930, "pitch_deg": 0.3391, "yaw_deg": -36.2136, "roll_deg": 4.3134, "lat_deg": 34.040516, "lon_deg": -117.81765589999999, "altitude_rel_ft": 0.3543, "ground_speed_ft_s": 14.0552, "vel_north_m_s": 3.42, "vel_east_m_s": -2.58, "vel_down_m_s": 0.01, "battery_remain_pct": 9900.0}
{"t_rx_ms": 1773442537016, "run_id": "20260313_154342", "seq": 931, "pitch_deg": 0.3391, "yaw_deg": -36.2136, "roll_deg": 4.3134, "lat_deg": 34.040516, "lon_deg": -117.81765589999999, "altitude_rel_ft": 0.3543, "ground_speed_ft_s": 14.0552, "vel_north_m_s": 3.42, "vel_east_m_s": -2.58, "vel_down_m_s": 0.01, "battery_remain_pct": 9900.0}
{"t_rx_ms": 1773442537217, "run_id": "20260313_154342", "seq": 932, "pitch_deg": 0.3391, "yaw_deg": -36.2136, "roll_deg": 4.3134, "lat_deg": 34.040516, "lon_deg": -117.81765589999999, "altitude_rel_ft": 0.3543, "ground_speed_ft_s": 14.0552, "vel_north_m_s": 3.42, "vel_east_m_s": -2.58, "vel_down_m_s": 0.01, "battery_remain_pct": 9900.0}
{"t_rx_ms": 1773442537417, "run_id": "20260313_154342", "seq": 933, "pitch_deg": 0.6407, "yaw_deg": -30.7076, "roll_deg": 3.9167, "lat_deg": 34.0405476, "lon_deg": -117.81768029999999, "altitude_rel_ft": 0.269, "ground_speed_ft_s": 13.5632, "vel_north_m_s": 3.59, "vel_east_m_s": -2.05, "vel_down_m_s": -0.02, "battery_remain_pct": 9900.0}
{"t_rx_ms": 1773442537618, "run_id": "20260313_154342", "seq": 934, "pitch_deg": 0.6407, "yaw_deg": -30.7076, "roll_deg": 3.9167, "lat_deg": 34.0405476, "lon_deg": -117.81768029999999, "altitude_rel_ft": 0.269, "ground_speed_ft_s": 13.5632, "vel_north_m_s": 3.59, "vel_east_m_s": -2.05, "vel_down_m_s": -0.02, "battery_remain_pct": 9900.0}
{"t_rx_ms": 1773442537832, "run_id": "20260313_154342", "seq": 935, "pitch_deg": 0.6407, "yaw_deg": -30.7076, "roll_deg": 3.9167, "lat_deg": 34.0405476, "lon_deg": -117.81768029999999, "altitude_rel_ft": 0.269, "ground_speed_ft_s": 13.5632, "vel_north_m_s": 3.59, "vel_east_m_s": -2.05, "vel_down_m_s": -0.02, "battery_remain_pct": 9900.0}
{"t_rx_ms": 1773442538036, "run_id": "20260313_154342", "seq": 936, "pitch_deg": 0.6407, "yaw_deg": -30.7076, "roll_deg": 3.9167, "lat_deg": 34.0405476, "lon_deg": -117.81768029999999, "altitude_rel_ft": 0.269, "ground_speed_ft_s": 13.5632, "vel_north_m_s": 3.59, "vel_east_m_s": -2.05, "vel_down_m_s": -0.02, "battery_remain_pct": 9900.0}
{"t_rx_ms": 1773442538236, "run_id": "20260313_154342", "seq": 937, "pitch_deg": 0.6407, "yaw_deg": -30.7076, "roll_deg": 3.9167, "lat_deg": 34.0405476, "lon_deg": -117.81768029999999, "altitude_rel_ft": 0.269, "ground_speed_ft_s": 13.5632, "vel_north_m_s": 3.59, "vel_east_m_s": -2.05, "vel_down_m_s": -0.02, "battery_remain_pct": 9900.0}
{"t_rx_ms": 1773442538441, "run_id": "20260313_154342", "seq": 938, "pitch_deg": 0.3689, "yaw_deg": -24.2471, "roll_deg": 4.6711, "lat_deg": 34.0405812, "lon_deg": -117.8177005, "altitude_rel_ft": -0.0459, "ground_speed_ft_s": 13.3214, "vel_north_m_s": 3.71, "vel_east_m_s": -1.65, "vel_down_m_s": -0.01, "battery_remain_pct": 9900.0}
