{"t_rx_ms": 1773435968370, "run_id": "20260313_140530", "seq": 0, "pitch_deg": 5.3465, "yaw_deg": 128.1705, "roll_deg": 2.3246, "lat_deg": 34.0435836, "lon_deg": -117.81317179999999, "altitude_rel_ft": -1.0203, "ground_speed_ft_s": 14.3788, "vel_north_m_s": -2.69, "vel_east_m_s": 3.46, "vel_down_m_s": -0.03, "battery_remain_pct": 9900.0}
{"t_rx_ms": 1773435968567, "run_id": "20260313_140530", "seq": 1, "pitch_deg": 5.3465, "yaw_deg": 128.1705, "roll_deg": 2.3246, "lat_deg": 34.0435836, "lon_deg": -117.81317179999999, "altitude_rel_ft": -1.0203, "ground_speed_ft_s": 14.3788, "vel_north_m_s": -2.69, "vel_east_m_s": 3.46, "vel_down_m_s": -0.03, "battery_remain_pct": 9900.0}
{"t_rx_ms": 1773435968768, "run_id": "20260313_140530", "seq": 2, "pitch_deg": 5.8117, "yaw_deg": 127.8747, "roll_deg": 2.4872, "lat_deg": 34.04356, "lon_deg": -117.813136, "altitude_rel_ft": -0.0853, "ground_speed_ft_s": 13.7429, "vel_north_m_s": -2.58, "vel_east_m_s": 3.3, "vel_down_m_s": 0.0, "battery_remain_pct": 9900.0}
{"t_rx_ms": 1773435968969, "run_id": "20260313_140530", "seq": 3, "pitch_deg": 5.8117, "yaw_deg": 127.8747, "roll_deg": 2.4872, "lat_deg": 34.04356, "lon_deg": -117.813136, "altitude_rel_ft": -0.0853, "ground_speed_ft_s": 13.7429, "vel_north_m_s": -2.58, "vel_east_m_s": 3.3, "vel_down_m_s": 0.0, "battery_remain_pct": 9900.0}
{"t_rx_ms": 1773435969170, "run_id": "20260313_140530", "seq": 4, "pitch_deg": 5.8117, "yaw_deg": 127.8747, "roll_deg": 2.4872, "lat_deg": 34.04356, "lon_deg": -117.813136, "altitude_rel_ft": -0.0853, "ground_speed_ft_s": 13.7429, "vel_north_m_s": -2.58, "vel_east_m_s": 3.3, "vel_down_m_s": 0.0, "battery_remain_pct": 9900.0}
{"t_rx_ms": 1773435969370, "run_id": "20260313_140530", "seq": 5, "pitch_deg": 5.8117, "yaw_deg": 127.8747, "roll_deg": 2.4872, "lat_deg": 34.04356, "lon_deg": -117.813136, "altitude_rel_ft": -0.0853, "ground_speed_ft_s": 13.7429, "vel_north_m_s": -2.58, "vel_east_m_s": 3.3, "vel_down_m_s": 0.0, "battery_remain_pct": 9900.0}
{"t_rx_ms": 1773435969571, "run_id": "20260313_140530", "seq": 6, "pitch_deg": 5.8117, "yaw_deg": 127.8747, "roll_deg": 2.4872, "lat_deg": 34.04356, "lon_deg": -117.813136, "altitude_rel_ft": -0.0853, "ground_speed_ft_s": 13.7429, "vel_north_m_s": -2.58, "vel_east_m_s": 3.3, "vel_down_m_s": 0.0, "battery_remain_pct": 9900.0}
{"t_rx_ms": 1773435969773, "run_id": "20260313_140530", "seq": 7, "pitch_deg": 5.4072, "yaw_deg": 127.5761, "roll_deg": 2.452, "lat_deg": 34.0435385, "lon_deg": -117.81310289999999, "altitude_rel_ft": -0.2887, "ground_speed_ft_s": 12.6783, "vel_north_m_s": -2.36, "vel_east_m_s": 3.06, "vel_down_m_s": -0.07, "battery_remain_pct": 9900.0}
{"t_rx_ms": 1773435969973, "run_id": "20260313_140530", "seq": 8, "pitch_deg": 5.4072, "yaw_deg": 127.5761, "roll_deg": 2.452, "lat_deg": 34.0435385, "lon_deg": -117.81310289999999, "altitude_rel_ft": -0.2887, "ground_speed_ft_s": 12.6783, "vel_north_m_s": -2.36, "vel_east_m_s": 3.06, "vel_down_m_s": -0.07, "battery_remain_pct": 9900.0}
{"t_rx_ms": 1773435970174, "run_id": "20260313_140530", "seq": 9, "pitch_deg": 5.4072, "yaw_deg": 127.5761, "roll_deg": 2.452, "lat_deg": 34.0435385, "lon_deg": -117.81310289999999, "altitude_rel_ft": -0.2887, "ground_speed_ft_s": 12.6783, "vel_north_m_s": -2.36, "vel_east_m_s": 3.06, "vel_down_m_s": -0.07, "battery_remain_pct": 9900.0}
{"t_rx_ms": 1773435970374, "run_id": "20260313_140530", "seq": 10, "pitch_deg": 5.4072, "yaw_deg": 127.5761, "roll_deg": 2.452, "lat_deg": 34.0435385, "lon_deg": -117.81310289999999, "altitude_rel_ft": -0.2887, "ground_speed_ft_s": 12.6783, "vel_north_m_s": -2.36, "vel_east_m_s": 3.06, "vel_down_m_s": -0.07, "battery_remain_pct": 9900.0}
{"t_rx_ms": 1773435970575, "run_id": "20260313_140530", "seq": 11, "pitch_deg": 5.4072, "yaw_deg": 127.5761, "roll_deg": 2.452, "lat_deg": 34.0435385, "lon_deg": -117.81310289999999, "altitude_rel_ft": -0.2887, "ground_speed_ft_s": 12.6783, "vel_north_m_s": -2.36, "vel_east_m_s": 3.06, "vel_down_m_s": -0.07, "battery_remain_pct": 9900.0}
{"t_rx_ms": 1773435970775, "run_id": "20260313_140530", "seq": 12, "pitch_deg": 5.749, "yaw_deg": 127.2509, "roll_deg": 2.727, "lat_deg": 34.0435185, "lon_deg": -117.8130716, "altitude_rel_ft": 0.0, "ground_speed_ft_s": 11.9102, "vel_north_m_s": -2.21, "vel_east_m_s": 2.88, "vel_down_m_s": 0.0, "battery_remain_pct": 9900.0}
{"t_rx_ms": 1773435970976, "run_id": "20260313_140530", "seq": 13, "pitch_deg": 5.749, "yaw_deg": 127.2509, "roll_deg": 2.727, "lat_deg": 34.0435185, "lon_deg": -117.8130716, "altitude_rel_ft": 0.0, "ground_speed_ft_s": 11.9102, "vel_north_m_s": -2.21, "vel_east_m_s": 2.88, "vel_down_m_s": 0.0, "battery_remain_pct": 9900.0}
{"t_rx_ms": 1773435971177, "run_id": "20260313_140530", "seq": 14, "pitch_deg": 5.749, "yaw_deg": 127.2509, "roll_deg": 2.727, "lat_deg": 34.0435185, "lon_deg": -117.8130716, "altitude_rel_ft": 0.0, "ground_speed_ft_s": 11.9102, "vel_north_m_s": -2.21, "vel_east_m_s": 2.88, "vel_down_m_s": 0.0, "battery_remain_pct": 9900.0}
{"t_rx_ms": 1773435971380, "run_id": "20260313_140530", "seq": 15, "pitch_deg": 5.749, "yaw_deg": 127.2509, "roll_deg": 2.727, "lat_deg": 34.0435185, "lon_deg": -117.8130716, "altitude_rel_ft": 0.0, "ground_speed_ft_s": 11.9102, "vel_north_m_s": -2.21, "vel_east_m_s": 2.88, "vel_down_m_s": 0.0, "battery_remain_pct": 9900.0}
{"t_rx_ms": 1773435971581, "run_id": "20260313_140530", "seq": 16, "pitch_deg": 5.749, "yaw_deg": 127.2509, "roll_deg": 2.727, "lat_deg": 34.0435185, "lon_deg": -117.8130716, "altitude_rel_ft": 0.0, "ground_speed_ft_s": 11.9102, "vel_north_m_s": -2.21, "vel_east_m_s": 2.88, "vel_down_m_s": 0.0, "battery_remain_pct": 9900.0}
{"t_rx_ms": 1773435971785, "run_id": "20260313_140530", "seq": 17, "pitch_deg": 5.3643, "yaw_deg": 127.169, "roll_deg": 3.4896, "lat_deg": 34.0434996, "lon_deg": -117.81304139999999, "altitude_rel_ft": 0.6627, "ground_speed_ft_s": 11.273, "vel_north_m_s": -2.06, "vel_east_m_s": 2.75, "vel_down_m_s": -0.02, "battery_remain_pct": 9900.0}
{"t_rx_ms": 1773435971993, "run_id": "20260313_140530", "seq": 18, "pitch_deg": 5.3643, "yaw_deg": 127.169, "roll_deg": 3.4896, "lat_deg": 34.0434996, "lon_deg": -117.81304139999999, "altitude_rel_ft": 0.6627, "ground_speed_ft_s": 11.273, "vel_north_m_s": -2.06, "vel_east_m_s": 2.75, "vel_down_m_s": -0.02, "battery_remain_pct": 9900.0}
{"t_rx_ms": 1773435972214, "run_id": "20260313_140530", "seq": 19, "pitch_deg": 5.3643, "yaw_deg": 127.169, "roll_deg": 3.4896, "lat_deg": 34.0434996, "lon_deg": -117.81304139999999, "altitude_rel_ft": 0.6627, "ground_speed_ft_s": 11.273, "vel_north_m_s": -2.06, "vel_east_m_s": 2.75, "vel_down_m_s": -0.02, "battery_remain_pct": 9900.0}
{"t_rx_ms": 1773435972416, "run_id": "20260313_140530", "seq": 20, "pitch_deg": 5.3643, "yaw_deg": 127.169, "roll_deg": 3.4896, "lat_deg": 34.0434996, "lon_deg": -117.81304139999999, "altitude_rel_ft": 0.6627, "ground_speed_ft_s": 11.273, "vel_north_m_s": -2.06, "vel_east_m_s": 2.75, "vel_down_m_s": -0.02, "battery_remain_pct": 9900.0}
{"t_rx_ms": 1773435972624, "run_id": "20260313_140530", "seq": 21, "pitch_deg": 5.3643, "yaw_deg": 127.169, "roll_deg": 3.4896, "lat_deg": 34.0434996, "lon_deg": -117.81304139999999, "altitude_rel_ft": 0.6627, "ground_speed_ft_s": 11.273, "vel_north_m_s": -2.06, "vel_east_m_s": 2.75, "vel_down_m_s": -0.02, "battery_remain_pct": 9900.0}
{"t_rx_ms": 1773435972825, "run_id": "20260313_140530", "seq": 22, "pitch_deg": 5.5425, "yaw_deg": 126.8989, "roll_deg": 3.7984, "lat_deg": 34.0434815, "lon_deg": -117.81301239999999, "altitude_rel_ft": 0.607, "ground_speed_ft_s": 10.7221, "vel_north_m_s": -1.94, "vel_east_m_s": 2.63, "vel_down_m_s": 0.08, "battery_remain_pct": 9900.0}
{"t_rx_ms": 1773435973032, "run_id": "20260313_140530", "seq": 23, "pitch_deg": 5.5425, "yaw_deg": 126.8989, "roll_deg": 3.7984, "lat_deg": 34.0434815, "lon_deg": -117.81301239999999, "altitude_rel_ft": 0.607, "ground_speed_ft_s": 10.7221, "vel_north_m_s": -1.94, "vel_east_m_s": 2.63, "vel_down_m_s": 0.08, "battery_remain_pct": 9900.0}
{"t_rx_ms": 1773435973233, "run_id": "20260313_140530", "seq": 24, "pitch_deg": 5.5425, "yaw_deg": 126.8989, "roll_deg": 3.7984, "lat_deg": 34.0434815, "lon_deg": -117.81301239999999, "altitude_rel_ft": 0.607, "ground_speed_ft_s": 10.7221, "vel_north_m_s": -1.94, "vel_east_m_s": 2.63, "vel_down_m_s": 0.08, "battery_remain_pct": 9900.0}
{"t_rx_ms": 1773435973437, "run_id": "20260313_140530", "seq": 25, "pitch_deg": 5.5425, "yaw_deg": 126.8989, "roll_deg": 3.7984, "lat_deg": 34.0434815, "lon_deg": -117.81301239999999, "altitude_rel_ft": 0.607, "ground_speed_ft_s": 10.7221, "vel_north_m_s": -1.94, "vel_east_m_s": 2.63, "vel_down_m_s": 0.08, "battery_remain_pct": 9900.0}
{"t_rx_ms": 1773435973640, "run_id": "20260313_140530", "seq": 26, "pitch_deg": 5.5425, "yaw_deg": 126.8989, "roll_deg": 3.7984, "lat_deg": 34.0434815, "lon_deg": -117.81301239999999, "altitude_rel_ft": 0.607, "ground_speed_ft_s": 10.7221, "vel_north_m_s": -1.94, "vel_east_m_s": 2.63, "vel_down_m_s": 0.08, "battery_remain_pct": 9900.0}
{"t_rx_ms": 1773435973841, "run_id": "20260313_140530", "seq": 27, "pitch_deg": 5.5004, "yaw_deg": 126.1919, "roll_deg": 3.818, "lat_deg": 34.043464199999995, "lon_deg": -117.81298389999999, "altitude_rel_ft": 0.2592, "ground_speed_ft_s": 10.5149, "vel_north_m_s": -1.86, "vel_east_m_s": 2.61, "vel_down_m_s": -0.02, "battery_remain_pct": 9900.0}
{"t_rx_ms": 1773435974044, "run_id": "20260313_140530", "seq": 28, "pitch_deg": 5.5004, "yaw_deg": 126.1919, "roll_deg": 3.818, "lat_deg": 34.043464199999995, "lon_deg": -117.81298389999999, "altitude_rel_ft": 0.2592, "ground_speed_ft_s": 10.5149, "vel_north_m_s": -1.86, "vel_east_m_s": 2.61, "vel_down_m_s": -0.02, "battery_remain_pct": 9900.0}
{"t_rx_ms": 1773435974245, "run_id": "20260313_140530", "seq": 29, "pitch_deg": 5.5004, "yaw_deg": 126.1919, "roll_deg": 3.818, "lat_deg": 34.043464199999995, "lon_deg": -117.81298389999999, "altitude_rel_ft": 0.2592, "ground_speed_ft_s": 10.5149, "vel_north_m_s": -1.86, "vel_east_m_s": 2.61, "vel_down_m_s": -0.02, "battery_remain_pct": 9900.0}
{"t_rx_ms": 1773435974452, "run_id": "20260313_140530", "seq": 30, "pitch_deg": 5.5004, "yaw_deg": 126.1919, "roll_deg": 3.818, "lat_deg": 34.043464199999995, "lon_deg": -117.81298389999999, "altitude_rel_ft": 0.2592, "ground_speed_ft_s": 10.5149, "vel_north_m_s": -1.86, "vel_east_m_s": 2.61, "vel_down_m_s": -0.02, "battery_remain_pct": 9900.0}
{"t_rx_ms": 1773435974652, "run_id": "20260313_140530", "seq": 31, "pitch_deg": 5.3708, "yaw_deg": 125.2367, "roll_deg": 2.8454, "lat_deg": 34.043447799999996, "lon_deg": -117.81295659999999, "altitude_rel_ft": 0.4035, "ground_speed_ft_s": 10.5916, "vel_north_m_s": -1.9, "vel_east_m_s": 2.61, "vel_down_m_s": 0.0, "battery_remain_pct": 9900.0}
{"t_rx_ms": 1773435974853, "run_id": "20260313_140530", "seq": 32, "pitch_deg": 5.3708, "yaw_deg": 125.2367, "roll_deg": 2.8454, "lat_deg": 34.043447799999996, "lon_deg": -117.81295659999999, "altitude_rel_ft": 0.4035, "ground_speed_ft_s": 10.5916, "vel_north_m_s": -1.9, "vel_east_m_s": 2.61, "vel_down_m_s": 0.0, "battery_remain_pct": 9900.0}
{"t_rx_ms": 1773435975053, "run_id": "20260313_140530", "seq": 33, "pitch_deg": 5.3708, "yaw_deg": 125.2367, "roll_deg": 2.8454, "lat_deg": 34.043447799999996, "lon_deg": -117.81295659999999, "altitude_rel_ft": 0.4035, "ground_speed_ft_s": 10.5916, "vel_north_m_s": -1.9, "vel_east_m_s": 2.61, "vel_down_m_s": 0.0, "battery_remain_pct": 9900.0}
{"t_rx_ms": 1773435975254, "run_id": "20260313_140530", "seq": 34, "pitch_deg": 5.3708, "yaw_deg": 125.2367, "roll_deg": 2.8454, "lat_deg": 34.043447799999996, "lon_deg": -117.81295659999999, "altitude_rel_ft": 0.4035, "ground_speed_ft_s": 10.5916, "vel_north_m_s": -1.9, "vel_east_m_s": 2.61, "vel_down_m_s": 0.0, "battery_remain_pct": 9900.0}
{"t_rx_ms": 1773435975456, "run_id": "20260313_140530", "seq": 35, "pitch_deg": 5.3708, "yaw_deg": 125.2367, "roll_deg": 2.8454, "lat_deg": 34.043447799999996, "lon_deg": -117.81295659999999, "altitude_rel_ft": 0.4035, "ground_speed_ft_s": 10.5916, "vel_north_m_s": -1.9, "vel_east_m_s": 2.61, "vel_down_m_s": 0.0, "battery_remain_pct": 9900.0}
{"t_rx_ms": 1773435975658, "run_id": "20260313_140530", "seq": 36, "pitch_deg": 5.1213, "yaw_deg": 124.3797, "roll_deg": 2.3047, "lat_deg": 34.0434285, "lon_deg": -117.812923, "altitude_rel_ft": 0.876, "ground_speed_ft_s": 12.5143, "vel_north_m_s": -2.18, "vel_east_m_s": 3.13, "vel_down_m_s": 0.01, "battery_remain_pct": 9900.0}
{"t_rx_ms": 1773435975859, "run_id": "20260313_140530", "seq": 37, "pitch_deg": 5.1213, "yaw_deg": 124.3797, "roll_deg": 2.3047, "lat_deg": 34.0434285, "lon_deg": -117.812923, "altitude_rel_ft": 0.876, "ground_speed_ft_s": 12.5143, "vel_north_m_s": -2.18, "vel_east_m_s": 3.13, "vel_down_m_s": 0.01, "battery_remain_pct": 9900.0}
{"t_rx_ms": 1773435976060, "run_id": "20260313_140530", "seq": 38, "pitch_deg": 5.1213, "yaw_deg": 124.3797, "roll_deg": 2.3047, "lat_deg": 34.0434285, "lon_deg": -117.812923, "altitude_rel_ft": 0.876, "ground_speed_ft_s": 12.5143, "vel_north_m_s": -2.18, "vel_east_m_s": 3.13, "vel_down_m_s": 0.01, "battery_remain_pct": 9900.0}
{"t_rx_ms": 1773435976261, "run_id": "20260313_140530", "seq": 39, "pitch_deg": 5.1213, "yaw_deg": 124.3797, "roll_deg": 2.3047, "lat_deg": 34.0434285, "lon_deg": -117.812923, "altitude_rel_ft": 0.876, "ground_speed_ft_s": 12.5143, "vel_north_m_s": -2.18, "vel_east_m_s": 3.13, "vel_down_m_s": 0.01, "battery_remain_pct": 9900.0}
{"t_rx_ms": 1773435976462, "run_id": "20260313_140530", "seq": 40, "pitch_deg": 5.1213, "yaw_deg": 124.3797, "roll_deg": 2.3047, "lat_deg": 34.0434285, "lon_deg": -117.812923, "altitude_rel_ft": 0.876, "ground_speed_ft_s": 12.5143, "vel_north_m_s": -2.18, "vel_east_m_s": 3.13, "vel_down_m_s": 0.01, "battery_remain_pct": 9900.0}
{"t_rx_ms": 1773435976664, "run_id": "20260313_140530", "seq": 41, "pitch_deg": 4.6278, "yaw_deg": 124.0807, "roll_deg": 1.1619, "lat_deg": 34.0434093, "lon_deg": -117.81289009999999, "altitude_rel_ft": 0.6529, "ground_speed_ft_s": 12.3189, "vel_north_m_s": -2.19, "vel_east_m_s": 3.05, "vel_down_m_s": -0.15, "battery_remain_pct": 9900.0}
{"t_rx_ms": 1773435976865, "run_id": "20260313_140530", "seq": 42, "pitch_deg": 4.6278, "yaw_deg": 124.0807, "roll_deg": 1.1619, "lat_deg": 34.0434093, "lon_deg": -117.81289009999999, "altitude_rel_ft": 0.6529, "ground_speed_ft_s": 12.3189, "vel_north_m_s": -2.19, "vel_east_m_s": 3.05, "vel_down_m_s": -0.15, "battery_remain_pct": 9900.0}
{"t_rx_ms": 1773435977069, "run_id": "20260313_140530", "seq": 43, "pitch_deg": 4.6278, "yaw_deg": 124.0807, "roll_deg": 1.1619, "lat_deg": 34.0434093, "lon_deg": -117.81289009999999, "altitude_rel_ft": 0.6529, "ground_speed_ft_s": 12.3189, "vel_north_m_s": -2.19, "vel_east_m_s": 3.05, "vel_down_m_s": -0.15, "battery_remain_pct": 9900.0}
{"t_rx_ms": 1773435977270, "run_id": "20260313_140530", "seq": 44, "pitch_deg": 4.6278, "yaw_deg": 124.0807, "roll_deg": 1.1619, "lat_deg": 34.0434093, "lon_deg": -117.81289009999999, "altitude_rel_ft": 0.6529, "ground_speed_ft_s": 12.3189, "vel_north_m_s": -2.19, "vel_east_m_s": 3.05, "vel_down_m_s": -0.15, "battery_remain_pct": 9900.0}
{"t_rx_ms": 1773435977472, "run_id": "20260313_140530", "seq": 45, "pitch_deg": 4.6278, "yaw_deg": 124.0807, "roll_deg": 1.1619, "lat_deg": 34.0434093, "lon_deg": -117.81289009999999, "altitude_rel_ft": 0.6529, "ground_speed_ft_s": 12.3189, "vel_north_m_s": -2.19, "vel_east_m_s": 3.05, "vel_down_m_s": -0.15, "battery_remain_pct": 9900.0}
{"t_rx_ms": 1773435977673, "run_id": "20260313_140530", "seq": 46, "pitch_deg": 4.6369, "yaw_deg": 124.4332, "roll_deg": 4.2696, "lat_deg": 34.043389, "lon_deg": -117.8128539, "altitude_rel_ft": 0.7119, "ground_speed_ft_s": 13.3676, "vel_north_m_s": -2.29, "vel_east_m_s": 3.37, "vel_down_m_s": 0.08, "battery_remain_pct": 9900.0}
{"t_rx_ms": 1773435977886, "run_id": "20260313_140530", "seq": 47, "pitch_deg": 4.6369, "yaw_deg": 124.4332, "roll_deg": 4.2696, "lat_deg": 34.043389, "lon_deg": -117.8128539, "altitude_rel_ft": 0.7119, "ground_speed_ft_s": 13.3676, "vel_north_m_s": -2.29, "vel_east_m_s": 3.37, "vel_down_m_s": 0.08, "battery_remain_pct": 9900.0}
{"t_rx_ms": 1773435978089, "run_id": "20260313_140530", "seq": 48, "pitch_deg": 4.6369, "yaw_deg": 124.4332, "roll_deg": 4.2696, "lat_deg": 34.043389, "lon_deg": -117.8128539, "altitude_rel_ft": 0.7119, "ground_speed_ft_s": 13.3676, "vel_north_m_s": -2.29, "vel_east_m_s": 3.37, "vel_down_m_s": 0.08, "battery_remain_pct": 9900.0}
{"t_rx_ms": 1773435978289, "run_id": "20260313_140530", "seq": 49, "pitch_deg": 4.6369, "yaw_deg": 124.4332, "roll_deg": 4.2696, "lat_deg": 34.043389, "lon_deg": -117.8128539, "altitude_rel_ft": 0.7119, "ground_speed_ft_s": 13.3676, "vel_north_m_s": -2.29, "vel_east_m_s": 3.37, "vel_down_m_s": 0.08, "battery_remain_pct": 9900.0}
{"t_rx_ms": 1773435978490, "run_id": "20260313_140530", "seq": 50, "pitch_deg": 4.6369, "yaw_deg": 124.4332, "roll_deg": 4.2696, "lat_deg": 34.043389, "lon_deg": -117.8128539, "altitude_rel_ft": 0.7119, "ground_speed_ft_s": 13.3676, "vel_north_m_s": -2.29, "vel_east_m_s": 3.37, "vel_down_m_s": 0.08, "battery_remain_pct": 9900.0}
{"t_rx_ms": 1773435978691, "run_id": "20260313_140530", "seq": 51, "pitch_deg": 4.1254, "yaw_deg": 124.9303, "roll_deg": 2.153, "lat_deg": 34.0433668, "lon_deg": -117.812816, "altitude_rel_ft": 0.5479, "ground_speed_ft_s": 14.8715, "vel_north_m_s": -2.59, "vel_east_m_s": 3.72, "vel_down_m_s": -0.05, "battery_remain_pct": 9900.0}
{"t_rx_ms": 1773435978892, "run_id": "20260313_140530", "seq": 52, "pitch_deg": 4.1254, "yaw_deg": 124.9303, "roll_deg": 2.153, "lat_deg": 34.0433668, "lon_deg": -117.812816, "altitude_rel_ft": 0.5479, "ground_speed_ft_s": 14.8715, "vel_north_m_s": -2.59, "vel_east_m_s": 3.72, "vel_down_m_s": -0.05, "battery_remain_pct": 9900.0}
{"t_rx_ms": 1773435979093, "run_id": "20260313_140530", "seq": 53, "pitch_deg": 4.1254, "yaw_deg": 124.9303, "roll_deg": 2.153, "lat_deg": 34.0433668, "lon_deg": -117.812816, "altitude_rel_ft": 0.5479, "ground_speed_ft_s": 14.8715, "vel_north_m_s": -2.59, "vel_east_m_s": 3.72, "vel_down_m_s": -0.05, "battery_remain_pct": 9900.0}
{"t_rx_ms": 1773435979293, "run_id": "20260313_140530", "seq": 54, "pitch_deg": 4.1254, "yaw_deg": 124.9303, "roll_deg": 2.153, "lat_deg": 34.0433668, "lon_deg": -117.812816, "altitude_rel_ft": 0.5479, "ground_speed_ft_s": 14.8715, "vel_north_m_s": -2.59, "vel_east_m_s": 3.72, "vel_down_m_s": -0.05, "battery_remain_pct": 9900.0}
{"t_rx_ms": 1773435979494, "run_id": "20260313_140530", "seq": 55, "pitch_deg": 4.1254, "yaw_deg": 124.9303, "roll_deg": 2.153, "lat_deg": 34.0433668, "lon_deg": -117.812816, "altitude_rel_ft": 0.5479, "ground_speed_ft_s": 14.8715, "vel_north_m_s": -2.59, "vel_east_m_s": 3.72, "vel_down_m_s": -0.05, "battery_remain_pct": 9900.0}
{"t_rx_ms": 1773435979700, "run_id": "20260313_140530", "seq": 56, "pitch_deg": 5.9271, "yaw_deg": 125.3802, "roll_deg": 2.2549, "lat_deg": 34.0433433, "lon_deg": -117.8127779, "altitude_rel_ft": 0.1247, "ground_speed_ft_s": 13.6165, "vel_north_m_s": -2.45, "vel_east_m_s": 3.35, "vel_down_m_s": 0.03, "battery_remain_pct": 9900.0}
{"t_rx_ms": 1773435979908, "run_id": "20260313_140530", "seq": 57, "pitch_deg": 5.9271, "yaw_deg": 125.3802, "roll_deg": 2.2549, "lat_deg": 34.0433433, "lon_deg": -117.8127779, "altitude_rel_ft": 0.1247, "ground_speed_ft_s": 13.6165, "vel_north_m_s": -2.45, "vel_east_m_s": 3.35, "vel_down_m_s": 0.03, "battery_remain_pct": 9900.0}
{"t_rx_ms": 1773435980103, "run_id": "20260313_140530", "seq": 58, "pitch_deg": 5.9271, "yaw_deg": 125.3802, "roll_deg": 2.2549, "lat_deg": 34.0433433, "lon_deg": -117.8127779, "altitude_rel_ft": 0.1247, "ground_speed_ft_s": 13.6165, "vel_north_m_s": -2.45, "vel_east_m_s": 3.35, "vel_down_m_s": 0.03, "battery_remain_pct": 9900.0}
{"t_rx_ms": 1773435980304, "run_id": "20260313_140530", "seq": 59, "pitch_deg": 5.9271, "yaw_deg": 125.3802, "roll_deg": 2.2549, "lat_deg": 34.0433433, "lon_deg": -117.8127779, "altitude_rel_ft": 0.1247, "ground_speed_ft_s": 13.6165, "vel_north_m_s": -2.45, "vel_east_m_s": 3.35, "vel_down_m_s": 0.03, "battery_remain_pct": 9900.0}
{"t_rx_ms": 1773435980505, "run_id": "20260313_140530", "seq": 60, "pitch_deg": 5.9271, "yaw_deg": 125.3802, "roll_deg": 2.2549, "lat_deg": 34.0433433, "lon_deg": -117.8127779, "altitude_rel_ft": 0.1247, "ground_speed_ft_s": 13.6165, "vel_north_m_s": -2.45, "vel_east_m_s": 3.35, "vel_down_m_s": 0.03, "battery_remain_pct": 9900.0}
{"t_rx_ms": 1773435980708, "run_id": "20260313_140530", "seq": 61, "pitch_deg": 7.0638, "yaw_deg": 125.7141, "roll_deg": 3.8507, "lat_deg": 34.0433249, "lon_deg": -117.8127476, "altitude_rel_ft": -0.2395, "ground_speed_ft_s": 10.7546, "vel_north_m_s": -1.97, "vel_east_m_s": 2.62, "vel_down_m_s": -0.03, "battery_remain_pct": 9900.0}
{"t_rx_ms": 1773435980911, "run_id": "20260313_140530", "seq": 62, "pitch_deg": 7.0638, "yaw_deg": 125.7141, "roll_deg": 3.8507, "lat_deg": 34.0433249, "lon_deg": -117.8127476, "altitude_rel_ft": -0.2395, "ground_speed_ft_s": 10.7546, "vel_north_m_s": -1.97, "vel_east_m_s": 2.62, "vel_down_m_s": -0.03, "battery_remain_pct": 9900.0}
{"t_rx_ms": 1773435981116, "run_id": "20260313_140530", "seq": 63, "pitch_deg": 7.0638, "yaw_deg": 125.7141, "roll_deg": 3.8507, "lat_deg": 34.0433249, "lon_deg": -117.8127476, "altitude_rel_ft": -0.2395, "ground_speed_ft_s": 10.7546, "vel_north_m_s": -1.97, "vel_east_m_s": 2.62, "vel_down_m_s": -0.03, "battery_remain_pct": 9900.0}
{"t_rx_ms": 1773435981319, "run_id": "20260313_140530", "seq": 64, "pitch_deg": 7.0638, "yaw_deg": 125.7141, "roll_deg": 3.8507, "lat_deg": 34.0433249, "lon_deg": -117.8127476, "altitude_rel_ft": -0.2395, "ground_speed_ft_s": 10.7546, "vel_north_m_s": -1.97, "vel_east_m_s": 2.62, "vel_down_m_s": -0.03, "battery_remain_pct": 9900.0}
{"t_rx_ms": 1773435981522, "run_id": "20260313_140530", "seq": 65, "pitch_deg": 7.0638, "yaw_deg": 125.7141, "roll_deg": 3.8507, "lat_deg": 34.0433249, "lon_deg": -117.8127476, "altitude_rel_ft": -0.2395, "ground_speed_ft_s": 10.7546, "vel_north_m_s": -1.97, "vel_east_m_s": 2.62, "vel_down_m_s": -0.03, "battery_remain_pct": 9900.0}
{"t_rx_ms": 1773435981723, "run_id": "20260313_140530", "seq": 66, "pitch_deg": 7.1684, "yaw_deg": 126.1009, "roll_deg": 3.6077, "lat_deg": 34.0433108, "lon_deg": -117.81272399999999, "altitude_rel_ft": -0.105, "ground_speed_ft_s": 8.7874, "vel_north_m_s": -1.57, "vel_east_m_s": 2.17, "vel_down_m_s": -0.03, "battery_remain_pct": 9900.0}
{"t_rx_ms": 1773435981926, "run_id": "20260313_140530", "seq": 67, "pitch_deg": 7.1684, "yaw_deg": 126.1009, "roll_deg": 3.6077, "lat_deg": 34.0433108, "lon_deg": -117.81272399999999, "altitude_rel_ft": -0.105, "ground_speed_ft_s": 8.7874, "vel_north_m_s": -1.57, "vel_east_m_s": 2.17, "vel_down_m_s": -0.03, "battery_remain_pct": 9900.0}
{"t_rx_ms": 1773435982127, "run_id": "20260313_140530", "seq": 68, "pitch_deg": 7.1684, "yaw_deg": 126.1009, "roll_deg": 3.6077, "lat_deg": 34.0433108, "lon_deg": -117.81272399999999, "altitude_rel_ft": -0.105, "ground_speed_ft_s": 8.7874, "vel_north_m_s": -1.57, "vel_east_m_s": 2.17, "vel_down_m_s": -0.03, "battery_remain_pct": 9900.0}
{"t_rx_ms": 1773435982327, "run_id": "20260313_140530", "seq": 69, "pitch_deg": 7.1684, "yaw_deg": 126.1009, "roll_deg": 3.6077, "lat_deg": 34.0433108, "lon_deg": -117.81272399999999, "altitude_rel_ft": -0.105, "ground_speed_ft_s": 8.7874, "vel_north_m_s": -1.57, "vel_east_m_s": 2.17, "vel_down_m_s": -0.03, "battery_remain_pct": 9900.0}
{"t_rx_ms": 1773435982528, "run_id": "20260313_140530", "seq": 70, "pitch_deg": 7.1684, "yaw_deg": 126.1009, "roll_deg": 3.6077, "lat_deg": 34.0433108, "lon_deg": -117.81272399999999, "altitude_rel_ft": -0.105, "ground_speed_ft_s": 8.7874, "vel_north_m_s": -1.57, "vel_east_m_s": 2.17, "vel_down_m_s": -0.03, "battery_remain_pct": 9900.0}
{"t_rx_ms": 1773435982729, "run_id": "20260313_140530", "seq": 71, "pitch_deg": 7.2672, "yaw_deg": 126.5283, "roll_deg": 4.5683, "lat_deg": 34.0432969, "lon_deg": -117.8127009, "altitude_rel_ft": -0.0951, "ground_speed_ft_s": 8.5635, "vel_north_m_s": -1.48, "vel_east_m_s": 2.15, "vel_down_m_s": 0.1, "battery_remain_pct": 9900.0}
{"t_rx_ms": 1773435982930, "run_id": "20260313_140530", "seq": 72, "pitch_deg": 7.2672, "yaw_deg": 126.5283, "roll_deg": 4.5683, "lat_deg": 34.0432969, "lon_deg": -117.8127009, "altitude_rel_ft": -0.0951, "ground_speed_ft_s": 8.5635, "vel_north_m_s": -1.48, "vel_east_m_s": 2.15, "vel_down_m_s": 0.1, "battery_remain_pct": 9900.0}
{"t_rx_ms": 1773435983131, "run_id": "20260313_140530", "seq": 73, "pitch_deg": 7.2672, "yaw_deg": 126.5283, "roll_deg": 4.5683, "lat_deg": 34.0432969, "lon_deg": -117.8127009, "altitude_rel_ft": -0.0951, "ground_speed_ft_s": 8.5635, "vel_north_m_s": -1.48, "vel_east_m_s": 2.15, "vel_down_m_s": 0.1, "battery_remain_pct": 9900.0}
{"t_rx_ms": 1773435983332, "run_id": "20260313_140530", "seq": 74, "pitch_deg": 7.2672, "yaw_deg": 126.5283, "roll_deg": 4.5683, "lat_deg": 34.0432969, "lon_deg": -117.8127009, "altitude_rel_ft": -0.0951, "ground_speed_ft_s": 8.5635, "vel_north_m_s": -1.48, "vel_east_m_s": 2.15, "vel_down_m_s": 0.1, "battery_remain_pct": 9900.0}
{"t_rx_ms": 1773435983557, "run_id": "20260313_140530", "seq": 75, "pitch_deg": 7.2672, "yaw_deg": 126.5283, "roll_deg": 4.5683, "lat_deg": 34.0432969, "lon_deg": -117.8127009, "altitude_rel_ft": -0.0951, "ground_speed_ft_s": 8.5635, "vel_north_m_s": -1.48, "vel_east_m_s": 2.15, "vel_down_m_s": 0.1, "battery_remain_pct": 9900.0}
{"t_rx_ms": 1773435983757, "run_id": "20260313_140530", "seq": 76, "pitch_deg": 7.683, "yaw_deg": 126.7883, "roll_deg": 3.4337, "lat_deg": 34.0432856, "lon_deg": -117.8126834, "altitude_rel_ft": -0.2789, "ground_speed_ft_s": 6.6068, "vel_north_m_s": -1.14, "vel_east_m_s": 1.66, "vel_down_m_s": 0.07, "battery_remain_pct": 9900.0}
{"t_rx_ms": 1773435983958, "run_id": "20260313_140530", "seq": 77, "pitch_deg": 7.683, "yaw_deg": 126.7883, "roll_deg": 3.4337, "lat_deg": 34.0432856, "lon_deg": -117.8126834, "altitude_rel_ft": -0.2789, "ground_speed_ft_s": 6.6068, "vel_north_m_s": -1.14, "vel_east_m_s": 1.66, "vel_down_m_s": 0.07, "battery_remain_pct": 9900.0}
{"t_rx_ms": 1773435984159, "run_id": "20260313_140530", "seq": 78, "pitch_deg": 7.683, "yaw_deg": 126.7883, "roll_deg": 3.4337, "lat_deg": 34.0432856, "lon_deg": -117.8126834, "altitude_rel_ft": -0.2789, "ground_speed_ft_s": 6.6068, "vel_north_m_s": -1.14, "vel_east_m_s": 1.66, "vel_down_m_s": 0.07, "battery_remain_pct": 9900.0}
{"t_rx_ms": 1773435984360, "run_id": "20260313_140530", "seq": 79, "pitch_deg": 7.683, "yaw_deg": 126.7883, "roll_deg": 3.4337, "lat_deg": 34.0432856, "lon_deg": -117.8126834, "altitude_rel_ft": -0.2789, "ground_speed_ft_s": 6.6068, "vel_north_m_s": -1.14, "vel_east_m_s": 1.66, "vel_down_m_s": 0.07, "battery_remain_pct": 9900.0}
{"t_rx_ms": 1773435984562, "run_id": "20260313_140530", "seq": 80, "pitch_deg": 7.683, "yaw_deg": 126.7883, "roll_deg": 3.4337, "lat_deg": 34.0432856, "lon_deg": -117.8126834, "altitude_rel_ft": -0.2789, "ground_speed_ft_s": 6.6068, "vel_north_m_s": -1.14, "vel_east_m_s": 1.66, "vel_down_m_s": 0.07, "battery_remain_pct": 9900.0}
{"t_rx_ms": 1773435984763, "run_id": "20260313_140530", "seq": 81, "pitch_deg": 7.3417, "yaw_deg": 127.0377, "roll_deg": 2.7211, "lat_deg": 34.043273299999996, "lon_deg": -117.81266509999999, "altitude_rel_ft": -0.0066, "ground_speed_ft_s": 7.0614, "vel_north_m_s": -1.32, "vel_east_m_s": 1.7, "vel_down_m_s": 0.04, "battery_remain_pct": 9900.0}
{"t_rx_ms": 1773435984963, "run_id": "20260313_140530", "seq": 82, "pitch_deg": 7.3417, "yaw_deg": 127.0377, "roll_deg": 2.7211, "lat_deg": 34.043273299999996, "lon_deg": -117.81266509999999, "altitude_rel_ft": -0.0066, "ground_speed_ft_s": 7.0614, "vel_north_m_s": -1.32, "vel_east_m_s": 1.7, "vel_down_m_s": 0.04, "battery_remain_pct": 9900.0}
{"t_rx_ms": 1773435985164, "run_id": "20260313_140530", "seq": 83, "pitch_deg": 7.3417, "yaw_deg": 127.0377, "roll_deg": 2.7211, "lat_deg": 34.043273299999996, "lon_deg": -117.81266509999999, "altitude_rel_ft": -0.0066, "ground_speed_ft_s": 7.0614, "vel_north_m_s": -1.32, "vel_east_m_s": 1.7, "vel_down_m_s": 0.04, "battery_remain_pct": 9900.0}
{"t_rx_ms": 1773435985365, "run_id": "20260313_140530", "seq": 84, "pitch_deg": 7.3417, "yaw_deg": 127.0377, "roll_deg": 2.7211, "lat_deg": 34.043273299999996, "lon_deg": -117.81266509999999, "altitude_rel_ft": -0.0066, "ground_speed_ft_s": 7.0614, "vel_north_m_s": -1.32, "vel_east_m_s": 1.7, "vel_down_m_s": 0.04, "battery_remain_pct": 9900.0}
{"t_rx_ms": 1773435985565, "run_id": "20260313_140530", "seq": 85, "pitch_deg": 7.3417, "yaw_deg": 127.0377, "roll_deg": 2.7211, "lat_deg": 34.043273299999996, "lon_deg": -117.81266509999999, "altitude_rel_ft": -0.0066, "ground_speed_ft_s": 7.0614, "vel_north_m_s": -1.32, "vel_east_m_s": 1.7, "vel_down_m_s": 0.04, "battery_remain_pct": 9900.0}
{"t_rx_ms": 1773435985766, "run_id": "20260313_140530", "seq": 86, "pitch_deg": 6.1691, "yaw_deg": 127.2016, "roll_deg": 1.8718, "lat_deg": 34.0432579, "lon_deg": -117.8126418, "altitude_rel_ft": 0.2789, "ground_speed_ft_s": 9.5821, "vel_north_m_s": -1.85, "vel_east_m_s": 2.26, "vel_down_m_s": -0.03, "battery_remain_pct": 9900.0}
{"t_rx_ms": 1773435985967, "run_id": "20260313_140530", "seq": 87, "pitch_deg": 6.1691, "yaw_deg": 127.2016, "roll_deg": 1.8718, "lat_deg": 34.0432579, "lon_deg": -117.8126418, "altitude_rel_ft": 0.2789, "ground_speed_ft_s": 9.5821, "vel_north_m_s": -1.85, "vel_east_m_s": 2.26, "vel_down_m_s": -0.03, "battery_remain_pct": 9900.0}
{"t_rx_ms": 1773435986168, "run_id": "20260313_140530", "seq": 88, "pitch_deg": 6.1691, "yaw_deg": 127.2016, "roll_deg": 1.8718, "lat_deg": 34.0432579, "lon_deg": -117.8126418, "altitude_rel_ft": 0.2789, "ground_speed_ft_s": 9.5821, "vel_north_m_s": -1.85, "vel_east_m_s": 2.26, "vel_down_m_s": -0.03, "battery_remain_pct": 9900.0}
{"t_rx_ms": 1773435986369, "run_id": "20260313_140530", "seq": 89, "pitch_deg": 6.1691, "yaw_deg": 127.2016, "roll_deg": 1.8718, "lat_deg": 34.0432579, "lon_deg": -117.8126418, "altitude_rel_ft": 0.2789, "ground_speed_ft_s": 9.5821, "vel_north_m_s": -1.85, "vel_east_m_s": 2.26, "vel_down_m_s": -0.03, "battery_remain_pct": 9900.0}
{"t_rx_ms": 1773435986572, "run_id": "20260313_140530", "seq": 90, "pitch_deg": 6.1691, "yaw_deg": 127.2016, "roll_deg": 1.8718, "lat_deg": 34.0432579, "lon_deg": -117.8126418, "altitude_rel_ft": 0.2789, "ground_speed_ft_s": 9.5821, "vel_north_m_s": -1.85, "vel_east_m_s": 2.26, "vel_down_m_s": -0.03, "battery_remain_pct": 9900.0}
{"t_rx_ms": 1773435986789, "run_id": "20260313_140530", "seq": 91, "pitch_deg": 4.8068, "yaw_deg": 127.3483, "roll_deg": 0.9322, "lat_deg": 34.0432376, "lon_deg": -117.8126108, "altitude_rel_ft": 0.8104, "ground_speed_ft_s": 12.3895, "vel_north_m_s": -2.37, "vel_east_m_s": 2.94, "vel_down_m_s": -0.11, "battery_remain_pct": 9900.0}
{"t_rx_ms": 1773435986990, "run_id": "20260313_140530", "seq": 92, "pitch_deg": 4.8068, "yaw_deg": 127.3483, "roll_deg": 0.9322, "lat_deg": 34.0432376, "lon_deg": -117.8126108, "altitude_rel_ft": 0.8104, "ground_speed_ft_s": 12.3895, "vel_north_m_s": -2.37, "vel_east_m_s": 2.94, "vel_down_m_s": -0.11, "battery_remain_pct": 9900.0}
{"t_rx_ms": 1773435987191, "run_id": "20260313_140530", "seq": 93, "pitch_deg": 4.8068, "yaw_deg": 127.3483, "roll_deg": 0.9322, "lat_deg": 34.0432376, "lon_deg": -117.8126108, "altitude_rel_ft": 0.8104, "ground_speed_ft_s": 12.3895, "vel_north_m_s": -2.37, "vel_east_m_s": 2.94, "vel_down_m_s": -0.11, "battery_remain_pct": 9900.0}
{"t_rx_ms": 1773435987392, "run_id": "20260313_140530", "seq": 94, "pitch_deg": 4.8068, "yaw_deg": 127.3483, "roll_deg": 0.9322, "lat_deg": 34.0432376, "lon_deg": -117.8126108, "altitude_rel_ft": 0.8104, "ground_speed_ft_s": 12.3895, "vel_north_m_s": -2.37, "vel_east_m_s": 2.94, "vel_down_m_s": -0.11, "battery_remain_pct": 9900.0}
{"t_rx_ms": 1773435987595, "run_id": "20260313_140530", "seq": 95, "pitch_deg": 4.8068, "yaw_deg": 127.3483, "roll_deg": 0.9322, "lat_deg": 34.0432376, "lon_deg": -117.8126108, "altitude_rel_ft": 0.8104, "ground_speed_ft_s": 12.3895, "vel_north_m_s": -2.37, "vel_east_m_s": 2.94, "vel_down_m_s": -0.11, "battery_remain_pct": 9900.0}
{"t_rx_ms": 1773435987797, "run_id": "20260313_140530", "seq": 96, "pitch_deg": 3.7927, "yaw_deg": 127.1661, "roll_deg": 0.6859, "lat_deg": 34.0432132, "lon_deg": -117.8125736, "altitude_rel_ft": 0.5577, "ground_speed_ft_s": 14.8596, "vel_north_m_s": -2.8, "vel_east_m_s": 3.56, "vel_down_m_s": 0.01, "battery_remain_pct": 9900.0}
{"t_rx_ms": 1773435987999, "run_id": "20260313_140530", "seq": 97, "pitch_deg": 3.7927, "yaw_deg": 127.1661, "roll_deg": 0.6859, "lat_deg": 34.0432132, "lon_deg": -117.8125736, "altitude_rel_ft": 0.5577, "ground_speed_ft_s": 14.8596, "vel_north_m_s": -2.8, "vel_east_m_s": 3.56, "vel_down_m_s": 0.01, "battery_remain_pct": 9900.0}
{"t_rx_ms": 1773435988202, "run_id": "20260313_140530", "seq": 98, "pitch_deg": 3.7927, "yaw_deg": 127.1661, "roll_deg": 0.6859, "lat_deg": 34.0432132, "lon_deg": -117.8125736, "altitude_rel_ft": 0.5577, "ground_speed_ft_s": 14.8596, "vel_north_m_s": -2.8, "vel_east_m_s": 3.56, "vel_down_m_s": 0.01, "battery_remain_pct": 9900.0}
{"t_rx_ms": 1773435988404, "run_id": "20260313_140530", "seq": 99, "pitch_deg": 3.7927, "yaw_deg": 127.1661, "roll_deg": 0.6859, "lat_deg": 34.0432132, "lon_deg": -117.8125736, "altitude_rel_ft": 0.5577, "ground_speed_ft_s": 14.8596, "vel_north_m_s": -2.8, "vel_east_m_s": 3.56, "vel_down_m_s": 0.01, "battery_remain_pct": 9900.0}
{"t_rx_ms": 1773435988605, "run_id": "20260313_140530", "seq": 100, "pitch_deg": 3.7927, "yaw_deg": 127.1661, "roll_deg": 0.6859, "lat_deg": 34.0432132, "lon_deg": -117.8125736, "altitude_rel_ft": 0.5577, "ground_speed_ft_s": 14.8596, "vel_north_m_s": -2.8, "vel_east_m_s": 3.56, "vel_down_m_s": 0.01, "battery_remain_pct": 9900.0}
{"t_rx_ms": 1773435988806, "run_id": "20260313_140530", "seq": 101, "pitch_deg": 3.7137, "yaw_deg": 127.0918, "roll_deg": 0.8595, "lat_deg": 34.043186, "lon_deg": -117.81253219999999, "altitude_rel_ft": 0.9547, "ground_speed_ft_s": 15.6391, "vel_north_m_s": -2.93, "vel_east_m_s": 3.76, "vel_down_m_s": -0.01, "battery_remain_pct": 9900.0}
{"t_rx_ms": 1773435989008, "run_id": "20260313_140530", "seq": 102, "pitch_deg": 3.7137, "yaw_deg": 127.0918, "roll_deg": 0.8595, "lat_deg": 34.043186, "lon_deg": -117.81253219999999, "altitude_rel_ft": 0.9547, "ground_speed_ft_s": 15.6391, "vel_north_m_s": -2.93, "vel_east_m_s": 3.76, "vel_down_m_s": -0.01, "battery_remain_pct": 9900.0}
{"t_rx_ms": 1773435989208, "run_id": "20260313_140530", "seq": 103, "pitch_deg": 3.7137, "yaw_deg": 127.0918, "roll_deg": 0.8595, "lat_deg": 34.043186, "lon_deg": -117.81253219999999, "altitude_rel_ft": 0.9547, "ground_speed_ft_s": 15.6391, "vel_north_m_s": -2.93, "vel_east_m_s": 3.76, "vel_down_m_s": -0.01, "battery_remain_pct": 9900.0}
{"t_rx_ms": 1773435989409, "run_id": "20260313_140530", "seq": 104, "pitch_deg": 3.7137, "yaw_deg": 127.0918, "roll_deg": 0.8595, "lat_deg": 34.043186, "lon_deg": -117.81253219999999, "altitude_rel_ft": 0.9547, "ground_speed_ft_s": 15.6391, "vel_north_m_s": -2.93, "vel_east_m_s": 3.76, "vel_down_m_s": -0.01, "battery_remain_pct": 9900.0}
{"t_rx_ms": 1773435989612, "run_id": "20260313_140530", "seq": 105, "pitch_deg": 3.7137, "yaw_deg": 127.0918, "roll_deg": 0.8595, "lat_deg": 34.043186, "lon_deg": -117.81253219999999, "altitude_rel_ft": 0.9547, "ground_speed_ft_s": 15.6391, "vel_north_m_s": -2.93, "vel_east_m_s": 3.76, "vel_down_m_s": -0.01, "battery_remain_pct": 9900.0}
{"t_rx_ms": 1773435989816, "run_id": "20260313_140530", "seq": 106, "pitch_deg": 3.3497, "yaw_deg": 127.1039, "roll_deg": 1.3377, "lat_deg": 34.043158399999996, "lon_deg": -117.8124895, "altitude_rel_ft": 1.437, "ground_speed_ft_s": 16.419, "vel_north_m_s": -3.06, "vel_east_m_s": 3.96, "vel_down_m_s": 0.01, "battery_remain_pct": 9900.0}
{"t_rx_ms": 1773435990017, "run_id": "20260313_140530", "seq": 107, "pitch_deg": 3.3497, "yaw_deg": 127.1039, "roll_deg": 1.3377, "lat_deg": 34.043158399999996, "lon_deg": -117.8124895, "altitude_rel_ft": 1.437, "ground_speed_ft_s": 16.419, "vel_north_m_s": -3.06, "vel_east_m_s": 3.96, "vel_down_m_s": 0.01, "battery_remain_pct": 9900.0}
{"t_rx_ms": 1773435990218, "run_id": "20260313_140530", "seq": 108, "pitch_deg": 3.3497, "yaw_deg": 127.1039, "roll_deg": 1.3377, "lat_deg": 34.043158399999996, "lon_deg": -117.8124895, "altitude_rel_ft": 1.437, "ground_speed_ft_s": 16.419, "vel_north_m_s": -3.06, "vel_east_m_s": 3.96, "vel_down_m_s": 0.01, "battery_remain_pct": 9900.0}
{"t_rx_ms": 1773435990418, "run_id": "20260313_140530", "seq": 109, "pitch_deg": 3.3497, "yaw_deg": 127.1039, "roll_deg": 1.3377, "lat_deg": 34.043158399999996, "lon_deg": -117.8124895, "altitude_rel_ft": 1.437, "ground_speed_ft_s": 16.419, "vel_north_m_s": -3.06, "vel_east_m_s": 3.96, "vel_down_m_s": 0.01, "battery_remain_pct": 9900.0}
{"t_rx_ms": 1773435990619, "run_id": "20260313_140530", "seq": 110, "pitch_deg": 3.3497, "yaw_deg": 127.1039, "roll_deg": 1.3377, "lat_deg": 34.043158399999996, "lon_deg": -117.8124895, "altitude_rel_ft": 1.437, "ground_speed_ft_s": 16.419, "vel_north_m_s": -3.06, "vel_east_m_s": 3.96, "vel_down_m_s": 0.01, "battery_remain_pct": 9900.0}
{"t_rx_ms": 1773435990824, "run_id": "20260313_140530", "seq": 111, "pitch_deg": 3.1863, "yaw_deg": 126.7284, "roll_deg": 0.2813, "lat_deg": 34.0431309, "lon_deg": -117.812446, "altitude_rel_ft": 1.5617, "ground_speed_ft_s": 16.7067, "vel_north_m_s": -3.02, "vel_east_m_s": 4.1, "vel_down_m_s": 0.06, "battery_remain_pct": 9900.0}
{"t_rx_ms": 1773435991025, "run_id": "20260313_140530", "seq": 112, "pitch_deg": 3.1863, "yaw_deg": 126.7284, "roll_deg": 0.2813, "lat_deg": 34.0431309, "lon_deg": -117.812446, "altitude_rel_ft": 1.5617, "ground_speed_ft_s": 16.7067, "vel_north_m_s": -3.02, "vel_east_m_s": 4.1, "vel_down_m_s": 0.06, "battery_remain_pct": 9900.0}
{"t_rx_ms": 1773435991227, "run_id": "20260313_140530", "seq": 113, "pitch_deg": 3.1863, "yaw_deg": 126.7284, "roll_deg": 0.2813, "lat_deg": 34.0431309, "lon_deg": -117.812446, "altitude_rel_ft": 1.5617, "ground_speed_ft_s": 16.7067, "vel_north_m_s": -3.02, "vel_east_m_s": 4.1, "vel_down_m_s": 0.06, "battery_remain_pct": 9900.0}
{"t_rx_ms": 1773435991428, "run_id": "20260313_140530", "seq": 114, "pitch_deg": 3.1863, "yaw_deg": 126.7284, "roll_deg": 0.2813, "lat_deg": 34.0431309, "lon_deg": -117.812446, "altitude_rel_ft": 1.5617, "ground_speed_ft_s": 16.7067, "vel_north_m_s": -3.02, "vel_east_m_s": 4.1, "vel_down_m_s": 0.06, "battery_remain_pct": 9900.0}
{"t_rx_ms": 1773435991629, "run_id": "20260313_140530", "seq": 115, "pitch_deg": 3.1863, "yaw_deg": 126.7284, "roll_deg": 0.2813, "lat_deg": 34.0431309, "lon_deg": -117.812446, "altitude_rel_ft": 1.5617, "ground_speed_ft_s": 16.7067, "vel_north_m_s": -3.02, "vel_east_m_s": 4.1, "vel_down_m_s": 0.06, "battery_remain_pct": 9900.0}
{"t_rx_ms": 1773435991830, "run_id": "20260313_140530", "seq": 116, "pitch_deg": 3.4904, "yaw_deg": 126.894, "roll_deg": 1.562, "lat_deg": 34.0431044, "lon_deg": -117.8124053, "altitude_rel_ft": 0.2198, "ground_speed_ft_s": 15.9357, "vel_north_m_s": -3.0, "vel_east_m_s": 3.82, "vel_down_m_s": 0.18, "battery_remain_pct": 9900.0}
{"t_rx_ms": 1773435992036, "run_id": "20260313_140530", "seq": 117, "pitch_deg": 3.4904, "yaw_deg": 126.894, "roll_deg": 1.562, "lat_deg": 34.0431044, "lon_deg": -117.8124053, "altitude_rel_ft": 0.2198, "ground_speed_ft_s": 15.9357, "vel_north_m_s": -3.0, "vel_east_m_s": 3.82, "vel_down_m_s": 0.18, "battery_remain_pct": 9900.0}
{"t_rx_ms": 1773435992236, "run_id": "20260313_140530", "seq": 118, "pitch_deg": 3.4904, "yaw_deg": 126.894, "roll_deg": 1.562, "lat_deg": 34.0431044, "lon_deg": -117.8124053, "altitude_rel_ft": 0.2198, "ground_speed_ft_s": 15.9357, "vel_north_m_s": -3.0, "vel_east_m_s": 3.82, "vel_down_m_s": 0.18, "battery_remain_pct": 9900.0}
{"t_rx_ms": 1773435992438, "run_id": "20260313_140530", "seq": 119, "pitch_deg": 3.4904, "yaw_deg": 126.894, "roll_deg": 1.562, "lat_deg": 34.0431044, "lon_deg": -117.8124053, "altitude_rel_ft": 0.2198, "ground_speed_ft_s": 15.9357, "vel_north_m_s": -3.0, "vel_east_m_s": 3.82, "vel_down_m_s": 0.18, "battery_remain_pct": 9900.0}
{"t_rx_ms": 1773435992639, "run_id": "20260313_140530", "seq": 120, "pitch_deg": 3.4904, "yaw_deg": 126.894, "roll_deg": 1.562, "lat_deg": 34.0431044, "lon_deg": -117.8124053, "altitude_rel_ft": 0.2198, "ground_speed_ft_s": 15.9357, "vel_north_m_s": -3.0, "vel_east_m_s": 3.82, "vel_down_m_s": 0.18, "battery_remain_pct": 9900.0}
{"t_rx_ms": 1773435992840, "run_id": "20260313_140530", "seq": 121, "pitch_deg": 3.453, "yaw_deg": 127.0144, "roll_deg": 2.504, "lat_deg": 34.0430776, "lon_deg": -117.8123626, "altitude_rel_ft": 0.0361, "ground_speed_ft_s": 15.2756, "vel_north_m_s": -2.8, "vel_east_m_s": 3.72, "vel_down_m_s": 0.04, "battery_remain_pct": 9900.0}
{"t_rx_ms": 1773435993041, "run_id": "20260313_140530", "seq": 122, "pitch_deg": 3.453, "yaw_deg": 127.0144, "roll_deg": 2.504, "lat_deg": 34.0430776, "lon_deg": -117.8123626, "altitude_rel_ft": 0.0361, "ground_speed_ft_s": 15.2756, "vel_north_m_s": -2.8, "vel_east_m_s": 3.72, "vel_down_m_s": 0.04, "battery_remain_pct": 9900.0}
{"t_rx_ms": 1773435993242, "run_id": "20260313_140530", "seq": 123, "pitch_deg": 3.453, "yaw_deg": 127.0144, "roll_deg": 2.504, "lat_deg": 34.0430776, "lon_deg": -117.8123626, "altitude_rel_ft": 0.0361, "ground_speed_ft_s": 15.2756, "vel_north_m_s": -2.8, "vel_east_m_s": 3.72, "vel_down_m_s": 0.04, "battery_remain_pct": 9900.0}
{"t_rx_ms": 1773435993445, "run_id": "20260313_140530", "seq": 124, "pitch_deg": 3.453, "yaw_deg": 127.0144, "roll_deg": 2.504, "lat_deg": 34.0430776, "lon_deg": -117.8123626, "altitude_rel_ft": 0.0361, "ground_speed_ft_s": 15.2756, "vel_north_m_s": -2.8, "vel_east_m_s": 3.72, "vel_down_m_s": 0.04, "battery_remain_pct": 9900.0}
{"t_rx_ms": 1773435993646, "run_id": "20260313_140530", "seq": 125, "pitch_deg": 3.234, "yaw_deg": 127.1861, "roll_deg": 2.9978, "lat_deg": 34.0430535, "lon_deg": -117.8123249, "altitude_rel_ft": 0.2986, "ground_speed_ft_s": 14.5227, "vel_north_m_s": -2.71, "vel_east_m_s": 3.5, "vel_down_m_s": 0.07, "battery_remain_pct": 9900.0}
{"t_rx_ms": 1773435993847, "run_id": "20260313_140530", "seq": 126, "pitch_deg": 3.234, "yaw_deg": 127.1861, "roll_deg": 2.9978, "lat_deg": 34.0430535, "lon_deg": -117.8123249, "altitude_rel_ft": 0.2986, "ground_speed_ft_s": 14.5227, "vel_north_m_s": -2.71, "vel_east_m_s": 3.5, "vel_down_m_s": 0.07, "battery_remain_pct": 9900.0}
{"t_rx_ms": 1773435994050, "run_id": "20260313_140530", "seq": 127, "pitch_deg": 3.234, "yaw_deg": 127.1861, "roll_deg": 2.9978, "lat_deg": 34.0430535, "lon_deg": -117.8123249, "altitude_rel_ft": 0.2986, "ground_speed_ft_s": 14.5227, "vel_north_m_s": -2.71, "vel_east_m_s": 3.5, "vel_down_m_s": 0.07, "battery_remain_pct": 9900.0}
{"t_rx_ms": 1773435994254, "run_id": "20260313_140530", "seq": 128, "pitch_deg": 3.234, "yaw_deg": 127.1861, "roll_deg": 2.9978, "lat_deg": 34.0430535, "lon_deg": -117.8123249, "altitude_rel_ft": 0.2986, "ground_speed_ft_s": 14.5227, "vel_north_m_s": -2.71, "vel_east_m_s": 3.5, "vel_down_m_s": 0.07, "battery_remain_pct": 9900.0}
{"t_rx_ms": 1773435994455, "run_id": "20260313_140530", "seq": 129, "pitch_deg": 3.234, "yaw_deg": 127.1861, "roll_deg": 2.9978, "lat_deg": 34.0430535, "lon_deg": -117.8123249, "altitude_rel_ft": 0.2986, "ground_speed_ft_s": 14.5227, "vel_north_m_s": -2.71, "vel_east_m_s": 3.5, "vel_down_m_s": 0.07, "battery_remain_pct": 9900.0}
{"t_rx_ms": 1773435994655, "run_id": "20260313_140530", "seq": 130, "pitch_deg": 5.2079, "yaw_deg": 127.551, "roll_deg": 2.3183, "lat_deg": 34.0430293, "lon_deg": -117.812287, "altitude_rel_ft": 0.7415, "ground_speed_ft_s": 14.5148, "vel_north_m_s": -2.68, "vel_east_m_s": 3.52, "vel_down_m_s": -0.01, "battery_remain_pct": 9900.0}
{"t_rx_ms": 1773435994859, "run_id": "20260313_140530", "seq": 131, "pitch_deg": 5.2079, "yaw_deg": 127.551, "roll_deg": 2.3183, "lat_deg": 34.0430293, "lon_deg": -117.812287, "altitude_rel_ft": 0.7415, "ground_speed_ft_s": 14.5148, "vel_north_m_s": -2.68, "vel_east_m_s": 3.52, "vel_down_m_s": -0.01, "battery_remain_pct": 9900.0}
{"t_rx_ms": 1773435995063, "run_id": "20260313_140530", "seq": 132, "pitch_deg": 5.2079, "yaw_deg": 127.551, "roll_deg": 2.3183, "lat_deg": 34.0430293, "lon_deg": -117.812287, "altitude_rel_ft": 0.7415, "ground_speed_ft_s": 14.5148, "vel_north_m_s": -2.68, "vel_east_m_s": 3.52, "vel_down_m_s": -0.01, "battery_remain_pct": 9900.0}
{"t_rx_ms": 1773435995264, "run_id": "20260313_140530", "seq": 133, "pitch_deg": 5.2079, "yaw_deg": 127.551, "roll_deg": 2.3183, "lat_deg": 34.0430293, "lon_deg": -117.812287, "altitude_rel_ft": 0.7415, "ground_speed_ft_s": 14.5148, "vel_north_m_s": -2.68, "vel_east_m_s": 3.52, "vel_down_m_s": -0.01, "battery_remain_pct": 9900.0}
{"t_rx_ms": 1773435995465, "run_id": "20260313_140530", "seq": 134, "pitch_deg": 5.2079, "yaw_deg": 127.551, "roll_deg": 2.3183, "lat_deg": 34.0430293, "lon_deg": -117.812287, "altitude_rel_ft": 0.7415, "ground_speed_ft_s": 14.5148, "vel_north_m_s": -2.68, "vel_east_m_s": 3.52, "vel_down_m_s": -0.01, "battery_remain_pct": 9900.0}
{"t_rx_ms": 1773435995667, "run_id": "20260313_140530", "seq": 135, "pitch_deg": 5.9245, "yaw_deg": 127.7343, "roll_deg": 3.3794, "lat_deg": 34.0430044, "lon_deg": -117.81224879999999, "altitude_rel_ft": -0.374, "ground_speed_ft_s": 14.7068, "vel_north_m_s": -2.75, "vel_east_m_s": 3.54, "vel_down_m_s": -0.02, "battery_remain_pct": 9900.0}
{"t_rx_ms": 1773435995868, "run_id": "20260313_140530", "seq": 136, "pitch_deg": 5.9245, "yaw_deg": 127.7343, "roll_deg": 3.3794, "lat_deg": 34.0430044, "lon_deg": -117.81224879999999, "altitude_rel_ft": -0.374, "ground_speed_ft_s": 14.7068, "vel_north_m_s": -2.75, "vel_east_m_s": 3.54, "vel_down_m_s": -0.02, "battery_remain_pct": 9900.0}
{"t_rx_ms": 1773435996071, "run_id": "20260313_140530", "seq": 137, "pitch_deg": 5.9245, "yaw_deg": 127.7343, "roll_deg": 3.3794, "lat_deg": 34.0430044, "lon_deg": -117.81224879999999, "altitude_rel_ft": -0.374, "ground_speed_ft_s": 14.7068, "vel_north_m_s": -2.75, "vel_east_m_s": 3.54, "vel_down_m_s": -0.02, "battery_remain_pct": 9900.0}
{"t_rx_ms": 1773435996272, "run_id": "20260313_140530", "seq": 138, "pitch_deg": 5.9245, "yaw_deg": 127.7343, "roll_deg": 3.3794, "lat_deg": 34.0430044, "lon_deg": -117.81224879999999, "altitude_rel_ft": -0.374, "ground_speed_ft_s": 14.7068, "vel_north_m_s": -2.75, "vel_east_m_s": 3.54, "vel_down_m_s": -0.02, "battery_remain_pct": 9900.0}
{"t_rx_ms": 1773435996472, "run_id": "20260313_140530", "seq": 139, "pitch_deg": 5.9245, "yaw_deg": 127.7343, "roll_deg": 3.3794, "lat_deg": 34.0430044, "lon_deg": -117.81224879999999, "altitude_rel_ft": -0.374, "ground_speed_ft_s": 14.7068, "vel_north_m_s": -2.75, "vel_east_m_s": 3.54, "vel_down_m_s": -0.02, "battery_remain_pct": 9900.0}
{"t_rx_ms": 1773435996675, "run_id": "20260313_140530", "seq": 140, "pitch_deg": 4.8525, "yaw_deg": 127.6104, "roll_deg": 3.1532, "lat_deg": 34.0429801, "lon_deg": -117.81221079999999, "altitude_rel_ft": 0.9252, "ground_speed_ft_s": 14.7771, "vel_north_m_s": -2.72, "vel_east_m_s": 3.59, "vel_down_m_s": 0.03, "battery_remain_pct": 9900.0}
{"t_rx_ms": 1773435996876, "run_id": "20260313_140530", "seq": 141, "pitch_deg": 4.8525, "yaw_deg": 127.6104, "roll_deg": 3.1532, "lat_deg": 34.0429801, "lon_deg": -117.81221079999999, "altitude_rel_ft": 0.9252, "ground_speed_ft_s": 14.7771, "vel_north_m_s": -2.72, "vel_east_m_s": 3.59, "vel_down_m_s": 0.03, "battery_remain_pct": 9900.0}
{"t_rx_ms": 1773435997077, "run_id": "20260313_140530", "seq": 142, "pitch_deg": 4.8525, "yaw_deg": 127.6104, "roll_deg": 3.1532, "lat_deg": 34.0429801, "lon_deg": -117.81221079999999, "altitude_rel_ft": 0.9252, "ground_speed_ft_s": 14.7771, "vel_north_m_s": -2.72, "vel_east_m_s": 3.59, "vel_down_m_s": 0.03, "battery_remain_pct": 9900.0}
{"t_rx_ms": 1773435997279, "run_id": "20260313_140530", "seq": 143, "pitch_deg": 4.8525, "yaw_deg": 127.6104, "roll_deg": 3.1532, "lat_deg": 34.0429801, "lon_deg": -117.81221079999999, "altitude_rel_ft": 0.9252, "ground_speed_ft_s": 14.7771, "vel_north_m_s": -2.72, "vel_east_m_s": 3.59, "vel_down_m_s": 0.03, "battery_remain_pct": 9900.0}
{"t_rx_ms": 1773435997479, "run_id": "20260313_140530", "seq": 144, "pitch_deg": 4.8525, "yaw_deg": 127.6104, "roll_deg": 3.1532, "lat_deg": 34.0429801, "lon_deg": -117.81221079999999, "altitude_rel_ft": 0.9252, "ground_speed_ft_s": 14.7771, "vel_north_m_s": -2.72, "vel_east_m_s": 3.59, "vel_down_m_s": 0.03, "battery_remain_pct": 9900.0}
{"t_rx_ms": 1773435997679, "run_id": "20260313_140530", "seq": 145, "pitch_deg": 5.219, "yaw_deg": 127.6961, "roll_deg": 3.5752, "lat_deg": 34.042955299999996, "lon_deg": -117.8121723, "altitude_rel_ft": 0.6726, "ground_speed_ft_s": 14.5932, "vel_north_m_s": -2.68, "vel_east_m_s": 3.55, "vel_down_m_s": -0.05, "battery_remain_pct": 9900.0}
{"t_rx_ms": 1773435997884, "run_id": "20260313_140530", "seq": 146, "pitch_deg": 5.219, "yaw_deg": 127.6961, "roll_deg": 3.5752, "lat_deg": 34.042955299999996, "lon_deg": -117.8121723, "altitude_rel_ft": 0.6726, "ground_speed_ft_s": 14.5932, "vel_north_m_s": -2.68, "vel_east_m_s": 3.55, "vel_down_m_s": -0.05, "battery_remain_pct": 9900.0}
{"t_rx_ms": 1773435998085, "run_id": "20260313_140530", "seq": 147, "pitch_deg": 5.219, "yaw_deg": 127.6961, "roll_deg": 3.5752, "lat_deg": 34.042955299999996, "lon_deg": -117.8121723, "altitude_rel_ft": 0.6726, "ground_speed_ft_s": 14.5932, "vel_north_m_s": -2.68, "vel_east_m_s": 3.55, "vel_down_m_s": -0.05, "battery_remain_pct": 9900.0}
{"t_rx_ms": 1773435998286, "run_id": "20260313_140530", "seq": 148, "pitch_deg": 5.219, "yaw_deg": 127.6961, "roll_deg": 3.5752, "lat_deg": 34.042955299999996, "lon_deg": -117.8121723, "altitude_rel_ft": 0.6726, "ground_speed_ft_s": 14.5932, "vel_north_m_s": -2.68, "vel_east_m_s": 3.55, "vel_down_m_s": -0.05, "battery_remain_pct": 9900.0}
{"t_rx_ms": 1773435998486, "run_id": "20260313_140530", "seq": 149, "pitch_deg": 5.219, "yaw_deg": 127.6961, "roll_deg": 3.5752, "lat_deg": 34.042955299999996, "lon_deg": -117.8121723, "altitude_rel_ft": 0.6726, "ground_speed_ft_s": 14.5932, "vel_north_m_s": -2.68, "vel_east_m_s": 3.55, "vel_down_m_s": -0.05, "battery_remain_pct": 9900.0}
{"t_rx_ms": 1773435998687, "run_id": "20260313_140530", "seq": 150, "pitch_deg": 7.2209, "yaw_deg": 128.0281, "roll_deg": 4.1558, "lat_deg": 34.042930999999996, "lon_deg": -117.8121353, "altitude_rel_ft": 0.6463, "ground_speed_ft_s": 14.2443, "vel_north_m_s": -2.7, "vel_east_m_s": 3.4, "vel_down_m_s": -0.02, "battery_remain_pct": 9900.0}
{"t_rx_ms": 1773435998888, "run_id": "20260313_140530", "seq": 151, "pitch_deg": 7.2209, "yaw_deg": 128.0281, "roll_deg": 4.1558, "lat_deg": 34.042930999999996, "lon_deg": -117.8121353, "altitude_rel_ft": 0.6463, "ground_speed_ft_s": 14.2443, "vel_north_m_s": -2.7, "vel_east_m_s": 3.4, "vel_down_m_s": -0.02, "battery_remain_pct": 9900.0}
{"t_rx_ms": 1773435999089, "run_id": "20260313_140530", "seq": 152, "pitch_deg": 7.2209, "yaw_deg": 128.0281, "roll_deg": 4.1558, "lat_deg": 34.042930999999996, "lon_deg": -117.8121353, "altitude_rel_ft": 0.6463, "ground_speed_ft_s": 14.2443, "vel_north_m_s": -2.7, "vel_east_m_s": 3.4, "vel_down_m_s": -0.02, "battery_remain_pct": 9900.0}
{"t_rx_ms": 1773435999535, "run_id": "20260313_140530", "seq": 153, "pitch_deg": 7.2209, "yaw_deg": 128.0281, "roll_deg": 4.1558, "lat_deg": 34.042930999999996, "lon_deg": -117.8121353, "altitude_rel_ft": 0.6463, "ground_speed_ft_s": 14.2443, "vel_north_m_s": -2.7, "vel_east_m_s": 3.4, "vel_down_m_s": -0.02, "battery_remain_pct": 9900.0}
{"t_rx_ms": 1773435999736, "run_id": "20260313_140530", "seq": 154, "pitch_deg": 8.8294, "yaw_deg": 128.4671, "roll_deg": 4.1455, "lat_deg": 34.0429081, "lon_deg": -117.81210109999999, "altitude_rel_ft": -0.0066, "ground_speed_ft_s": 13.2298, "vel_north_m_s": -2.53, "vel_east_m_s": 3.14, "vel_down_m_s": -0.1, "battery_remain_pct": 9900.0}
{"t_rx_ms": 1773435999937, "run_id": "20260313_140530", "seq": 155, "pitch_deg": 8.8294, "yaw_deg": 128.4671, "roll_deg": 4.1455, "lat_deg": 34.0429081, "lon_deg": -117.81210109999999, "altitude_rel_ft": -0.0066, "ground_speed_ft_s": 13.2298, "vel_north_m_s": -2.53, "vel_east_m_s": 3.14, "vel_down_m_s": -0.1, "battery_remain_pct": 9900.0}
{"t_rx_ms": 1773436000139, "run_id": "20260313_140530", "seq": 156, "pitch_deg": 8.8294, "yaw_deg": 128.4671, "roll_deg": 4.1455, "lat_deg": 34.0429081, "lon_deg": -117.81210109999999, "altitude_rel_ft": -0.0066, "ground_speed_ft_s": 13.2298, "vel_north_m_s": -2.53, "vel_east_m_s": 3.14, "vel_down_m_s": -0.1, "battery_remain_pct": 9900.0}
{"t_rx_ms": 1773436000353, "run_id": "20260313_140530", "seq": 157, "pitch_deg": 8.8294, "yaw_deg": 128.4671, "roll_deg": 4.1455, "lat_deg": 34.0429081, "lon_deg": -117.81210109999999, "altitude_rel_ft": -0.0066, "ground_speed_ft_s": 13.2298, "vel_north_m_s": -2.53, "vel_east_m_s": 3.14, "vel_down_m_s": -0.1, "battery_remain_pct": 9900.0}
{"t_rx_ms": 1773436000556, "run_id": "20260313_140530", "seq": 158, "pitch_deg": 8.8294, "yaw_deg": 128.4671, "roll_deg": 4.1455, "lat_deg": 34.0429081, "lon_deg": -117.81210109999999, "altitude_rel_ft": -0.0066, "ground_speed_ft_s": 13.2298, "vel_north_m_s": -2.53, "vel_east_m_s": 3.14, "vel_down_m_s": -0.1, "battery_remain_pct": 9900.0}
{"t_rx_ms": 1773436000758, "run_id": "20260313_140530", "seq": 159, "pitch_deg": 7.8235, "yaw_deg": 131.241, "roll_deg": 4.6504, "lat_deg": 34.0428856, "lon_deg": -117.81206909999999, "altitude_rel_ft": -0.8465, "ground_speed_ft_s": 12.334, "vel_north_m_s": -2.44, "vel_east_m_s": 2.86, "vel_down_m_s": 0.02, "battery_remain_pct": 9900.0}
{"t_rx_ms": 1773436000958, "run_id": "20260313_140530", "seq": 160, "pitch_deg": 7.8235, "yaw_deg": 131.241, "roll_deg": 4.6504, "lat_deg": 34.0428856, "lon_deg": -117.81206909999999, "altitude_rel_ft": -0.8465, "ground_speed_ft_s": 12.334, "vel_north_m_s": -2.44, "vel_east_m_s": 2.86, "vel_down_m_s": 0.02, "battery_remain_pct": 9900.0}
{"t_rx_ms": 1773436001162, "run_id": "20260313_140530", "seq": 161, "pitch_deg": 7.8235, "yaw_deg": 131.241, "roll_deg": 4.6504, "lat_deg": 34.0428856, "lon_deg": -117.81206909999999, "altitude_rel_ft": -0.8465, "ground_speed_ft_s": 12.334, "vel_north_m_s": -2.44, "vel_east_m_s": 2.86, "vel_down_m_s": 0.02, "battery_remain_pct": 9900.0}
{"t_rx_ms": 1773436001363, "run_id": "20260313_140530", "seq": 162, "pitch_deg": 7.8235, "yaw_deg": 131.241, "roll_deg": 4.6504, "lat_deg": 34.0428856, "lon_deg": -117.81206909999999, "altitude_rel_ft": -0.8465, "ground_speed_ft_s": 12.334, "vel_north_m_s": -2.44, "vel_east_m_s": 2.86, "vel_down_m_s": 0.02, "battery_remain_pct": 9900.0}
{"t_rx_ms": 1773436001564, "run_id": "20260313_140530", "seq": 163, "pitch_deg": 7.8235, "yaw_deg": 131.241, "roll_deg": 4.6504, "lat_deg": 34.0428856, "lon_deg": -117.81206909999999, "altitude_rel_ft": -0.8465, "ground_speed_ft_s": 12.334, "vel_north_m_s": -2.44, "vel_east_m_s": 2.86, "vel_down_m_s": 0.02, "battery_remain_pct": 9900.0}
{"t_rx_ms": 1773436001768, "run_id": "20260313_140530", "seq": 164, "pitch_deg": 6.1737, "yaw_deg": 138.5013, "roll_deg": 5.8669, "lat_deg": 34.0428619, "lon_deg": -117.8120424, "altitude_rel_ft": -0.1804, "ground_speed_ft_s": 11.6177, "vel_north_m_s": -2.64, "vel_east_m_s": 2.36, "vel_down_m_s": -0.02, "battery_remain_pct": 9900.0}
{"t_rx_ms": 1773436001969, "run_id": "20260313_140530", "seq": 165, "pitch_deg": 6.1737, "yaw_deg": 138.5013, "roll_deg": 5.8669, "lat_deg": 34.0428619, "lon_deg": -117.8120424, "altitude_rel_ft": -0.1804, "ground_speed_ft_s": 11.6177, "vel_north_m_s": -2.64, "vel_east_m_s": 2.36, "vel_down_m_s": -0.02, "battery_remain_pct": 9900.0}
{"t_rx_ms": 1773436002172, "run_id": "20260313_140530", "seq": 166, "pitch_deg": 6.1737, "yaw_deg": 138.5013, "roll_deg": 5.8669, "lat_deg": 34.0428619, "lon_deg": -117.8120424, "altitude_rel_ft": -0.1804, "ground_speed_ft_s": 11.6177, "vel_north_m_s": -2.64, "vel_east_m_s": 2.36, "vel_down_m_s": -0.02, "battery_remain_pct": 9900.0}
{"t_rx_ms": 1773436002373, "run_id": "20260313_140530", "seq": 167, "pitch_deg": 6.1737, "yaw_deg": 138.5013, "roll_deg": 5.8669, "lat_deg": 34.0428619, "lon_deg": -117.8120424, "altitude_rel_ft": -0.1804, "ground_speed_ft_s": 11.6177, "vel_north_m_s": -2.64, "vel_east_m_s": 2.36, "vel_down_m_s": -0.02, "battery_remain_pct": 9900.0}
{"t_rx_ms": 1773436002576, "run_id": "20260313_140530", "seq": 168, "pitch_deg": 6.1737, "yaw_deg": 138.5013, "roll_deg": 5.8669, "lat_deg": 34.0428619, "lon_deg": -117.8120424, "altitude_rel_ft": -0.1804, "ground_speed_ft_s": 11.6177, "vel_north_m_s": -2.64, "vel_east_m_s": 2.36, "vel_down_m_s": -0.02, "battery_remain_pct": 9900.0}
{"t_rx_ms": 1773436002777, "run_id": "20260313_140530", "seq": 169, "pitch_deg": 3.7018, "yaw_deg": 148.9194, "roll_deg": 6.6091, "lat_deg": 34.0428359, "lon_deg": -117.8120222, "altitude_rel_ft": -0.5282, "ground_speed_ft_s": 11.2034, "vel_north_m_s": -2.95, "vel_east_m_s": 1.72, "vel_down_m_s": 0.01, "battery_remain_pct": 9900.0}
{"t_rx_ms": 1773436002978, "run_id": "20260313_140530", "seq": 170, "pitch_deg": 3.7018, "yaw_deg": 148.9194, "roll_deg": 6.6091, "lat_deg": 34.0428359, "lon_deg": -117.8120222, "altitude_rel_ft": -0.5282, "ground_speed_ft_s": 11.2034, "vel_north_m_s": -2.95, "vel_east_m_s": 1.72, "vel_down_m_s": 0.01, "battery_remain_pct": 9900.0}
{"t_rx_ms": 1773436003179, "run_id": "20260313_140530", "seq": 171, "pitch_deg": 3.7018, "yaw_deg": 148.9194, "roll_deg": 6.6091, "lat_deg": 34.0428359, "lon_deg": -117.8120222, "altitude_rel_ft": -0.5282, "ground_speed_ft_s": 11.2034, "vel_north_m_s": -2.95, "vel_east_m_s": 1.72, "vel_down_m_s": 0.01, "battery_remain_pct": 9900.0}
{"t_rx_ms": 1773436003380, "run_id": "20260313_140530", "seq": 172, "pitch_deg": 3.7018, "yaw_deg": 148.9194, "roll_deg": 6.6091, "lat_deg": 34.0428359, "lon_deg": -117.8120222, "altitude_rel_ft": -0.5282, "ground_speed_ft_s": 11.2034, "vel_north_m_s": -2.95, "vel_east_m_s": 1.72, "vel_down_m_s": 0.01, "battery_remain_pct": 9900.0}
{"t_rx_ms": 1773436003583, "run_id": "20260313_140530", "seq": 173, "pitch_deg": 3.7018, "yaw_deg": 148.9194, "roll_deg": 6.6091, "lat_deg": 34.0428359, "lon_deg": -117.8120222, "altitude_rel_ft": -0.5282, "ground_speed_ft_s": 11.2034, "vel_north_m_s": -2.95, "vel_east_m_s": 1.72, "vel_down_m_s": 0.01, "battery_remain_pct": 9900.0}
{"t_rx_ms": 1773436003785, "run_id": "20260313_140530", "seq": 174, "pitch_deg": 3.9002, "yaw_deg": 161.0725, "roll_deg": 7.7259, "lat_deg": 34.042808099999995, "lon_deg": -117.81200949999999, "altitude_rel_ft": -0.0853, "ground_speed_ft_s": 10.8119, "vel_north_m_s": -3.11, "vel_east_m_s": 1.09, "vel_down_m_s": 0.09, "battery_remain_pct": 9900.0}
{"t_rx_ms": 1773436003986, "run_id": "20260313_140530", "seq": 175, "pitch_deg": 3.9002, "yaw_deg": 161.0725, "roll_deg": 7.7259, "lat_deg": 34.042808099999995, "lon_deg": -117.81200949999999, "altitude_rel_ft": -0.0853, "ground_speed_ft_s": 10.8119, "vel_north_m_s": -3.11, "vel_east_m_s": 1.09, "vel_down_m_s": 0.09, "battery_remain_pct": 9900.0}
{"t_rx_ms": 1773436004187, "run_id": "20260313_140530", "seq": 176, "pitch_deg": 3.9002, "yaw_deg": 161.0725, "roll_deg": 7.7259, "lat_deg": 34.042808099999995, "lon_deg": -117.81200949999999, "altitude_rel_ft": -0.0853, "ground_speed_ft_s": 10.8119, "vel_north_m_s": -3.11, "vel_east_m_s": 1.09, "vel_down_m_s": 0.09, "battery_remain_pct": 9900.0}
{"t_rx_ms": 1773436004390, "run_id": "20260313_140530", "seq": 177, "pitch_deg": 3.9002, "yaw_deg": 161.0725, "roll_deg": 7.7259, "lat_deg": 34.042808099999995, "lon_deg": -117.81200949999999, "altitude_rel_ft": -0.0853, "ground_speed_ft_s": 10.8119, "vel_north_m_s": -3.11, "vel_east_m_s": 1.09, "vel_down_m_s": 0.09, "battery_remain_pct": 9900.0}
