{"t_rx_ms": 1773426445791, "run_id": "SIM_TEST", "seq": 0, "pitch_deg": -9.1373, "yaw_deg": 248.0811, "roll_deg": 7.7539, "lat_deg": 34.004553777772216, "lon_deg": -118.00982848462422, "altitude_rel_ft": 78.5445, "ground_speed_ft_s": 50.14, "vel_north_m_s": -0.357, "vel_east_m_s": -7.9588, "vel_down_m_s": 0.5542, "battery_remain_pct": 88.0836}
{"t_rx_ms": 1773426445891, "run_id": "SIM_TEST", "seq": 1, "pitch_deg": -7.3599, "yaw_deg": 116.5437, "roll_deg": -14.0272, "lat_deg": 33.998650186739376, "lon_deg": -118.00850209542662, "altitude_rel_ft": 78.0333, "ground_speed_ft_s": 35.9587, "vel_north_m_s": -6.3965, "vel_east_m_s": -0.4509, "vel_down_m_s": -0.0742, "battery_remain_pct": 74.5396}
{"t_rx_ms": 1773426445991, "run_id": "SIM_TEST", "seq": 2, "pitch_deg": 9.7194, "yaw_deg": 234.7701, "roll_deg": 7.6178, "lat_deg": 34.009282880308845, "lon_deg": -118.00694702527944, "altitude_rel_ft": 76.3879, "ground_speed_ft_s": 43.8441, "vel_north_m_s": -8.9025, "vel_east_m_s": 8.4991, "vel_down_m_s": -0.8898, "battery_remain_pct": 94.2317}
{"t_rx_ms": 1773426446092, "run_id": "SIM_TEST", "seq": 3, "pitch_deg": 9.3539, "yaw_deg": 176.3859, "roll_deg": -2.8176, "lat_deg": 33.9988010871537, "lon_deg": -118.0020378348306, "altitude_rel_ft": 77.5047, "ground_speed_ft_s": 49.7172, "vel_north_m_s": -6.8297, "vel_east_m_s": -3.6175, "vel_down_m_s": 0.9935, "battery_remain_pct": 93.8565}
{"t_rx_ms": 1773426446193, "run_id": "SIM_TEST", "seq": 4, "pitch_deg": -1.4896, "yaw_deg": 352.0081, "roll_deg": -0.4916, "lat_deg": 33.99757612431466, "lon_deg": -118.00773127569025, "altitude_rel_ft": 73.6001, "ground_speed_ft_s": 53.5644, "vel_north_m_s": 6.7247, "vel_east_m_s": 4.4188, "vel_down_m_s": -0.5563, "battery_remain_pct": 69.9113}
{"t_rx_ms": 1773426446293, "run_id": "SIM_TEST", "seq": 5, "pitch_deg": 8.6492, "yaw_deg": 189.8431, "roll_deg": -14.7383, "lat_deg": 33.99225858357403, "lon_deg": -117.99286260100385, "altitude_rel_ft": 49.366, "ground_speed_ft_s": 37.1597, "vel_north_m_s": -0.5936, "vel_east_m_s": -9.2995, "vel_down_m_s": 0.998, "battery_remain_pct": 60.1489}
{"t_rx_ms": 1773426446393, "run_id": "SIM_TEST", "seq": 6, "pitch_deg": -7.665, "yaw_deg": 154.1274, "roll_deg": 0.2003, "lat_deg": 34.00648995382836, "lon_deg": -117.99187252356231, "altitude_rel_ft": 97.7456, "ground_speed_ft_s": 47.4395, "vel_north_m_s": -6.5501, "vel_east_m_s": -6.5738, "vel_down_m_s": -0.7753, "battery_remain_pct": 73.2535}
{"t_rx_ms": 1773426446494, "run_id": "SIM_TEST", "seq": 7, "pitch_deg": 1.0081, "yaw_deg": 302.3855, "roll_deg": -14.4958, "lat_deg": 34.001561582896976, "lon_deg": -118.00317569997924, "altitude_rel_ft": 33.3507, "ground_speed_ft_s": 22.0957, "vel_north_m_s": -5.6376, "vel_east_m_s": 5.3465, "vel_down_m_s": 0.1546, "battery_remain_pct": 51.8123}
{"t_rx_ms": 1773426446594, "run_id": "SIM_TEST", "seq": 8, "pitch_deg": 8.0492, "yaw_deg": 325.9679, "roll_deg": 0.849, "lat_deg": 33.99103448046322, "lon_deg": -117.99981829949289, "altitude_rel_ft": 47.6847, "ground_speed_ft_s": 42.0638, "vel_north_m_s": 1.3885, "vel_east_m_s": 8.1723, "vel_down_m_s": 0.4923, "battery_remain_pct": 71.2289}
{"t_rx_ms": 1773426446694, "run_id": "SIM_TEST", "seq": 9, "pitch_deg": 4.7894, "yaw_deg": 173.2408, "roll_deg": -9.6032, "lat_deg": 33.998493633698345, "lon_deg": -117.99615629331474, "altitude_rel_ft": 91.7441, "ground_speed_ft_s": 12.0548, "vel_north_m_s": -8.1174, "vel_east_m_s": -2.2531, "vel_down_m_s": -0.8024, "battery_remain_pct": 56.2511}
{"t_rx_ms": 1773426446795, "run_id": "SIM_TEST", "seq": 10, "pitch_deg": 6.5058, "yaw_deg": 259.2027, "roll_deg": -7.4914, "lat_deg": 33.9937789196322, "lon_deg": -118.00426769638425, "altitude_rel_ft": 46.3258, "ground_speed_ft_s": 38.9622, "vel_north_m_s": 7.1694, "vel_east_m_s": -0.472, "vel_down_m_s": -0.7186, "battery_remain_pct": 96.3848}
{"t_rx_ms": 1773426446895, "run_id": "SIM_TEST", "seq": 11, "pitch_deg": 2.1139, "yaw_deg": 358.2396, "roll_deg": 11.7646, "lat_deg": 33.996888561132636, "lon_deg": -118.00460076033188, "altitude_rel_ft": 40.6733, "ground_speed_ft_s": 38.4683, "vel_north_m_s": 3.517, "vel_east_m_s": -0.9378, "vel_down_m_s": -0.7485, "battery_remain_pct": 51.3481}
{"t_rx_ms": 1773426446995, "run_id": "SIM_TEST", "seq": 12, "pitch_deg": 1.0448, "yaw_deg": 23.2949, "roll_deg": -6.4875, "lat_deg": 33.99541710111307, "lon_deg": -118.00807209019615, "altitude_rel_ft": 54.1567, "ground_speed_ft_s": 44.9738, "vel_north_m_s": 6.0614, "vel_east_m_s": -6.2327, "vel_down_m_s": 0.3206, "battery_remain_pct": 67.0306}
{"t_rx_ms": 1773426447096, "run_id": "SIM_TEST", "seq": 13, "pitch_deg": 7.4786, "yaw_deg": 354.9548, "roll_deg": -13.2998, "lat_deg": 33.996277863418925, "lon_deg": -117.99197212382578, "altitude_rel_ft": 30.4201, "ground_speed_ft_s": 59.6405, "vel_north_m_s": -9.8914, "vel_east_m_s": 4.3539, "vel_down_m_s": -0.0034, "battery_remain_pct": 62.725}
{"t_rx_ms": 1773426447196, "run_id": "SIM_TEST", "seq": 14, "pitch_deg": -4.5181, "yaw_deg": 242.8758, "roll_deg": -0.3824, "lat_deg": 33.995724781843144, "lon_deg": -117.99999208530843, "altitude_rel_ft": 35.6514, "ground_speed_ft_s": 37.7614, "vel_north_m_s": 0.0148, "vel_east_m_s": 2.2764, "vel_down_m_s": -0.8475, "battery_remain_pct": 67.6307}
{"t_rx_ms": 1773426447296, "run_id": "SIM_TEST", "seq": 15, "pitch_deg": -9.5351, "yaw_deg": 355.5057, "roll_deg": -12.7987, "lat_deg": 34.00687344093881, "lon_deg": -118.00643248157601, "altitude_rel_ft": 25.0192, "ground_speed_ft_s": 14.3726, "vel_north_m_s": 7.2595, "vel_east_m_s": -3.974, "vel_down_m_s": 0.2586, "battery_remain_pct": 61.3204}
{"t_rx_ms": 1773426447397, "run_id": "SIM_TEST", "seq": 16, "pitch_deg": 9.3331, "yaw_deg": 232.4481, "roll_deg": -11.618, "lat_deg": 34.00003976589703, "lon_deg": -118.0021232754907, "altitude_rel_ft": 90.3886, "ground_speed_ft_s": 54.0213, "vel_north_m_s": 5.4951, "vel_east_m_s": -1.0256, "vel_down_m_s": 0.5958, "battery_remain_pct": 94.8523}
{"t_rx_ms": 1773426447497, "run_id": "SIM_TEST", "seq": 17, "pitch_deg": -0.7077, "yaw_deg": 131.0961, "roll_deg": -0.122, "lat_deg": 33.99536762572423, "lon_deg": -117.99535858218404, "altitude_rel_ft": 26.6855, "ground_speed_ft_s": 11.1027, "vel_north_m_s": -7.8201, "vel_east_m_s": -4.441, "vel_down_m_s": -0.3593, "battery_remain_pct": 88.3562}
{"t_rx_ms": 1773426447597, "run_id": "SIM_TEST", "seq": 18, "pitch_deg": 7.4841, "yaw_deg": 65.0775, "roll_deg": 10.1704, "lat_deg": 33.992020897011386, "lon_deg": -118.00656279914634, "altitude_rel_ft": 40.5846, "ground_speed_ft_s": 6.0224, "vel_north_m_s": -6.4362, "vel_east_m_s": -8.0425, "vel_down_m_s": 0.9556, "battery_remain_pct": 50.3298}
{"t_rx_ms": 1773426447698, "run_id": "SIM_TEST", "seq": 19, "pitch_deg": -6.4761, "yaw_deg": 85.7649, "roll_deg": 2.3587, "lat_deg": 34.009416558592896, "lon_deg": -117.9940991938947, "altitude_rel_ft": 81.9107, "ground_speed_ft_s": 22.0822, "vel_north_m_s": -2.0825, "vel_east_m_s": 2.0135, "vel_down_m_s": -0.1785, "battery_remain_pct": 76.8012}
{"t_rx_ms": 1773426447798, "run_id": "SIM_TEST", "seq": 20, "pitch_deg": 2.7895, "yaw_deg": 261.7417, "roll_deg": -2.5942, "lat_deg": 34.00751205416536, "lon_deg": -118.00505239641161, "altitude_rel_ft": 65.0339, "ground_speed_ft_s": 22.9761, "vel_north_m_s": 6.5037, "vel_east_m_s": -9.736, "vel_down_m_s": 0.3752, "battery_remain_pct": 81.8215}
{"t_rx_ms": 1773426447899, "run_id": "SIM_TEST", "seq": 21, "pitch_deg": 8.3231, "yaw_deg": 267.1357, "roll_deg": 8.8762, "lat_deg": 34.009250288302816, "lon_deg": -118.00770547721503, "altitude_rel_ft": 53.1455, "ground_speed_ft_s": 37.9703, "vel_north_m_s": 0.4527, "vel_east_m_s": 8.4845, "vel_down_m_s": 0.3066, "battery_remain_pct": 73.6151}
{"t_rx_ms": 1773426447999, "run_id": "SIM_TEST", "seq": 22, "pitch_deg": 2.2251, "yaw_deg": 197.9994, "roll_deg": -14.5692, "lat_deg": 34.00312856848177, "lon_deg": -117.99222195645474, "altitude_rel_ft": 72.63, "ground_speed_ft_s": 12.1679, "vel_north_m_s": -0.4075, "vel_east_m_s": -0.6191, "vel_down_m_s": 0.5803, "battery_remain_pct": 52.4898}
{"t_rx_ms": 1773426448099, "run_id": "SIM_TEST", "seq": 23, "pitch_deg": 7.6443, "yaw_deg": 257.7321, "roll_deg": -13.8329, "lat_deg": 34.007124082007394, "lon_deg": -118.00002756716329, "altitude_rel_ft": 94.5061, "ground_speed_ft_s": 24.5656, "vel_north_m_s": 7.8174, "vel_east_m_s": -6.0923, "vel_down_m_s": -0.5606, "battery_remain_pct": 65.3129}
{"t_rx_ms": 1773426448200, "run_id": "SIM_TEST", "seq": 24, "pitch_deg": -1.6616, "yaw_deg": 12.4932, "roll_deg": 6.261, "lat_deg": 34.00533290150679, "lon_deg": -118.001320803432, "altitude_rel_ft": 20.5124, "ground_speed_ft_s": 26.6182, "vel_north_m_s": 6.7513, "vel_east_m_s": -8.8698, "vel_down_m_s": 0.9372, "battery_remain_pct": 91.1076}
{"t_rx_ms": 1773426448300, "run_id": "SIM_TEST", "seq": 25, "pitch_deg": -6.7816, "yaw_deg": 143.6076, "roll_deg": 9.6975, "lat_deg": 33.99917422764152, "lon_deg": -118.00631221501945, "altitude_rel_ft": 92.8969, "ground_speed_ft_s": 28.4494, "vel_north_m_s": -1.3574, "vel_east_m_s": 6.5095, "vel_down_m_s": 0.0099, "battery_remain_pct": 79.4785}
{"t_rx_ms": 1773426448401, "run_id": "SIM_TEST", "seq": 26, "pitch_deg": -1.7035, "yaw_deg": 234.0107, "roll_deg": -11.0098, "lat_deg": 33.99217535671226, "lon_deg": -118.00520307907804, "altitude_rel_ft": 74.1562, "ground_speed_ft_s": 44.7921, "vel_north_m_s": -7.4269, "vel_east_m_s": -7.4453, "vel_down_m_s": 0.7464, "battery_remain_pct": 89.284}
{"t_rx_ms": 1773426448501, "run_id": "SIM_TEST", "seq": 27, "pitch_deg": 0.3716, "yaw_deg": 143.0849, "roll_deg": 6.9557, "lat_deg": 34.001064450911315, "lon_deg": -118.000664043567, "altitude_rel_ft": 53.8917, "ground_speed_ft_s": 31.1992, "vel_north_m_s": -4.0734, "vel_east_m_s": 8.8468, "vel_down_m_s": -0.6552, "battery_remain_pct": 78.0065}
{"t_rx_ms": 1773426448601, "run_id": "SIM_TEST", "seq": 28, "pitch_deg": 7.3948, "yaw_deg": 111.6692, "roll_deg": 6.0049, "lat_deg": 33.99656347820656, "lon_deg": -117.9901551472209, "altitude_rel_ft": 34.5538, "ground_speed_ft_s": 42.8356, "vel_north_m_s": 9.3725, "vel_east_m_s": 4.8089, "vel_down_m_s": 0.7942, "battery_remain_pct": 81.4654}
{"t_rx_ms": 1773426448702, "run_id": "SIM_TEST", "seq": 29, "pitch_deg": 2.6954, "yaw_deg": 235.7247, "roll_deg": -14.8164, "lat_deg": 34.00943855251243, "lon_deg": -118.00797841918568, "altitude_rel_ft": 23.6537, "ground_speed_ft_s": 11.1972, "vel_north_m_s": -1.5999, "vel_east_m_s": -1.1274, "vel_down_m_s": 0.9779, "battery_remain_pct": 83.2333}
{"t_rx_ms": 1773426448802, "run_id": "SIM_TEST", "seq": 30, "pitch_deg": -7.0709, "yaw_deg": 85.3254, "roll_deg": 5.2469, "lat_deg": 33.99780855766641, "lon_deg": -118.00655042634064, "altitude_rel_ft": 76.4641, "ground_speed_ft_s": 7.7773, "vel_north_m_s": 6.8114, "vel_east_m_s": -4.2903, "vel_down_m_s": -0.1167, "battery_remain_pct": 53.1044}
{"t_rx_ms": 1773426448902, "run_id": "SIM_TEST", "seq": 31, "pitch_deg": 8.6276, "yaw_deg": 62.9427, "roll_deg": 14.6384, "lat_deg": 33.99556389970305, "lon_deg": -117.99657492471411, "altitude_rel_ft": 27.2682, "ground_speed_ft_s": 38.8413, "vel_north_m_s": 7.186, "vel_east_m_s": -1.2099, "vel_down_m_s": 0.59, "battery_remain_pct": 91.3553}
{"t_rx_ms": 1773426449003, "run_id": "SIM_TEST", "seq": 32, "pitch_deg": -1.3211, "yaw_deg": 185.9874, "roll_deg": -6.6479, "lat_deg": 34.00938815213795, "lon_deg": -118.0051828886932, "altitude_rel_ft": 59.2219, "ground_speed_ft_s": 23.4599, "vel_north_m_s": -0.541, "vel_east_m_s": 1.2595, "vel_down_m_s": -0.7065, "battery_remain_pct": 76.0834}
{"t_rx_ms": 1773426449103, "run_id": "SIM_TEST", "seq": 33, "pitch_deg": -5.9613, "yaw_deg": 28.1879, "roll_deg": -2.3495, "lat_deg": 34.001490304832984, "lon_deg": -117.99111201945612, "altitude_rel_ft": 42.4573, "ground_speed_ft_s": 51.0753, "vel_north_m_s": 1.9311, "vel_east_m_s": -5.3338, "vel_down_m_s": 0.3109, "battery_remain_pct": 73.1115}
{"t_rx_ms": 1773426449204, "run_id": "SIM_TEST", "seq": 34, "pitch_deg": 7.5294, "yaw_deg": 136.8695, "roll_deg": -4.774, "lat_deg": 33.993366369587264, "lon_deg": -117.99784609459445, "altitude_rel_ft": 24.7771, "ground_speed_ft_s": 38.891, "vel_north_m_s": -6.7491, "vel_east_m_s": 8.5145, "vel_down_m_s": -0.6988, "battery_remain_pct": 87.9877}
{"t_rx_ms": 1773426449304, "run_id": "SIM_TEST", "seq": 35, "pitch_deg": 5.2533, "yaw_deg": 326.4252, "roll_deg": 4.7296, "lat_deg": 34.00077343292302, "lon_deg": -118.00657918875564, "altitude_rel_ft": 78.9013, "ground_speed_ft_s": 48.9567, "vel_north_m_s": 2.0829, "vel_east_m_s": 6.3811, "vel_down_m_s": 0.1122, "battery_remain_pct": 86.7448}
{"t_rx_ms": 1773426449405, "run_id": "SIM_TEST", "seq": 36, "pitch_deg": -0.8943, "yaw_deg": 94.9295, "roll_deg": 0.3097, "lat_deg": 33.99628278333386, "lon_deg": -118.00747578678354, "altitude_rel_ft": 78.9194, "ground_speed_ft_s": 57.3518, "vel_north_m_s": 2.7841, "vel_east_m_s": 6.451, "vel_down_m_s": 0.6714, "battery_remain_pct": 68.1531}
{"t_rx_ms": 1773426449505, "run_id": "SIM_TEST", "seq": 37, "pitch_deg": 1.6496, "yaw_deg": 270.3094, "roll_deg": 5.9272, "lat_deg": 34.00558625820962, "lon_deg": -118.00407885345551, "altitude_rel_ft": 99.763, "ground_speed_ft_s": 12.9407, "vel_north_m_s": 5.6018, "vel_east_m_s": 6.3494, "vel_down_m_s": 0.5046, "battery_remain_pct": 59.8132}
{"t_rx_ms": 1773426449606, "run_id": "SIM_TEST", "seq": 38, "pitch_deg": 9.7833, "yaw_deg": 176.181, "roll_deg": -8.2775, "lat_deg": 33.99808106973337, "lon_deg": -117.99651274331939, "altitude_rel_ft": 63.3854, "ground_speed_ft_s": 49.5672, "vel_north_m_s": 3.8952, "vel_east_m_s": 0.0212, "vel_down_m_s": 0.5072, "battery_remain_pct": 67.4384}
{"t_rx_ms": 1773426449706, "run_id": "SIM_TEST", "seq": 39, "pitch_deg": 7.4106, "yaw_deg": 313.729, "roll_deg": -9.8856, "lat_deg": 34.00267367088155, "lon_deg": -118.00039291483635, "altitude_rel_ft": 93.3855, "ground_speed_ft_s": 11.9823, "vel_north_m_s": -1.5769, "vel_east_m_s": 2.8304, "vel_down_m_s": -0.1587, "battery_remain_pct": 99.0607}
{"t_rx_ms": 1773426449807, "run_id": "SIM_TEST", "seq": 40, "pitch_deg": 6.7731, "yaw_deg": 58.4473, "roll_deg": -8.1646, "lat_deg": 34.007570848616524, "lon_deg": -118.00006853749366, "altitude_rel_ft": 39.7579, "ground_speed_ft_s": 47.8917, "vel_north_m_s": -3.9515, "vel_east_m_s": 7.1891, "vel_down_m_s": -0.433, "battery_remain_pct": 77.4656}
{"t_rx_ms": 1773426449907, "run_id": "SIM_TEST", "seq": 41, "pitch_deg": -4.1684, "yaw_deg": 297.1025, "roll_deg": -1.1171, "lat_deg": 34.00765478982911, "lon_deg": -118.00122574043996, "altitude_rel_ft": 21.4561, "ground_speed_ft_s": 29.5592, "vel_north_m_s": 4.2544, "vel_east_m_s": 6.3995, "vel_down_m_s": 0.2051, "battery_remain_pct": 59.5486}
{"t_rx_ms": 1773426450008, "run_id": "SIM_TEST", "seq": 42, "pitch_deg": 0.0542, "yaw_deg": 216.1188, "roll_deg": -9.8354, "lat_deg": 34.00422309762727, "lon_deg": -118.00636976937925, "altitude_rel_ft": 50.4418, "ground_speed_ft_s": 54.7192, "vel_north_m_s": -3.4372, "vel_east_m_s": 6.2396, "vel_down_m_s": 0.2347, "battery_remain_pct": 94.5807}
{"t_rx_ms": 1773426450108, "run_id": "SIM_TEST", "seq": 43, "pitch_deg": 4.6837, "yaw_deg": 190.3282, "roll_deg": 7.0171, "lat_deg": 34.00386669973559, "lon_deg": -117.99324987382971, "altitude_rel_ft": 31.4271, "ground_speed_ft_s": 16.0848, "vel_north_m_s": 2.4412, "vel_east_m_s": 8.0011, "vel_down_m_s": -0.6966, "battery_remain_pct": 73.8989}
{"t_rx_ms": 1773426450210, "run_id": "SIM_TEST", "seq": 44, "pitch_deg": 0.5771, "yaw_deg": 89.4161, "roll_deg": 4.4075, "lat_deg": 33.9985181213772, "lon_deg": -117.99250326534914, "altitude_rel_ft": 70.1981, "ground_speed_ft_s": 30.2476, "vel_north_m_s": -7.4721, "vel_east_m_s": 2.1835, "vel_down_m_s": 0.886, "battery_remain_pct": 65.2468}
{"t_rx_ms": 1773426450310, "run_id": "SIM_TEST", "seq": 45, "pitch_deg": 8.6604, "yaw_deg": 15.7676, "roll_deg": -9.2241, "lat_deg": 34.00369704816902, "lon_deg": -118.00182738165441, "altitude_rel_ft": 28.893, "ground_speed_ft_s": 48.1658, "vel_north_m_s": 9.3608, "vel_east_m_s": -4.1588, "vel_down_m_s": 0.0975, "battery_remain_pct": 87.4113}
{"t_rx_ms": 1773426450410, "run_id": "SIM_TEST", "seq": 46, "pitch_deg": 0.4384, "yaw_deg": 335.1469, "roll_deg": 1.4482, "lat_deg": 33.996828200906045, "lon_deg": -117.99944542200275, "altitude_rel_ft": 72.2518, "ground_speed_ft_s": 53.6968, "vel_north_m_s": 6.651, "vel_east_m_s": -9.1361, "vel_down_m_s": -0.7643, "battery_remain_pct": 77.1485}
{"t_rx_ms": 1773426450511, "run_id": "SIM_TEST", "seq": 47, "pitch_deg": 2.2005, "yaw_deg": 314.0552, "roll_deg": -2.4682, "lat_deg": 34.002685439669456, "lon_deg": -118.00386964744908, "altitude_rel_ft": 73.3936, "ground_speed_ft_s": 15.8754, "vel_north_m_s": 0.6984, "vel_east_m_s": -2.3574, "vel_down_m_s": 0.3553, "battery_remain_pct": 93.8366}
{"t_rx_ms": 1773426450611, "run_id": "SIM_TEST", "seq": 48, "pitch_deg": 6.1628, "yaw_deg": 59.2021, "roll_deg": -2.3507, "lat_deg": 34.0023787572201, "lon_deg": -117.99258846907745, "altitude_rel_ft": 80.1417, "ground_speed_ft_s": 55.8865, "vel_north_m_s": -5.3341, "vel_east_m_s": -9.8275, "vel_down_m_s": 0.3401, "battery_remain_pct": 65.8951}
{"t_rx_ms": 1773426450711, "run_id": "SIM_TEST", "seq": 49, "pitch_deg": -6.6923, "yaw_deg": 354.9878, "roll_deg": -7.2746, "lat_deg": 33.997716239920784, "lon_deg": -117.99234206844015, "altitude_rel_ft": 75.6675, "ground_speed_ft_s": 46.379, "vel_north_m_s": -8.6523, "vel_east_m_s": 5.4727, "vel_down_m_s": 0.6286, "battery_remain_pct": 72.4698}
{"t_rx_ms": 1773426450812, "run_id": "SIM_TEST", "seq": 50, "pitch_deg": 5.6692, "yaw_deg": 166.0931, "roll_deg": -9.8181, "lat_deg": 33.992491165232316, "lon_deg": -118.00467916824697, "altitude_rel_ft": 66.2665, "ground_speed_ft_s": 26.488, "vel_north_m_s": 3.8112, "vel_east_m_s": -3.0803, "vel_down_m_s": -0.3735, "battery_remain_pct": 88.755}
{"t_rx_ms": 1773426450912, "run_id": "SIM_TEST", "seq": 51, "pitch_deg": -7.6283, "yaw_deg": 111.9813, "roll_deg": -6.9956, "lat_deg": 34.00603605876082, "lon_deg": -118.0073522297457, "altitude_rel_ft": 42.4859, "ground_speed_ft_s": 59.3856, "vel_north_m_s": -5.8313, "vel_east_m_s": 2.3043, "vel_down_m_s": 0.4519, "battery_remain_pct": 58.2369}
{"t_rx_ms": 1773426451013, "run_id": "SIM_TEST", "seq": 52, "pitch_deg": 6.9807, "yaw_deg": 160.7042, "roll_deg": -3.3316, "lat_deg": 33.997425590231714, "lon_deg": -118.00047038557175, "altitude_rel_ft": 59.2934, "ground_speed_ft_s": 30.5406, "vel_north_m_s": -0.5858, "vel_east_m_s": -1.4789, "vel_down_m_s": -0.2397, "battery_remain_pct": 92.9923}
{"t_rx_ms": 1773426451113, "run_id": "SIM_TEST", "seq": 53, "pitch_deg": -0.118, "yaw_deg": 308.9773, "roll_deg": -3.5026, "lat_deg": 34.00523205688291, "lon_deg": -117.99036405530342, "altitude_rel_ft": 68.8654, "ground_speed_ft_s": 54.0508, "vel_north_m_s": -4.535, "vel_east_m_s": -0.9494, "vel_down_m_s": -0.6663, "battery_remain_pct": 53.9974}
{"t_rx_ms": 1773426451214, "run_id": "SIM_TEST", "seq": 54, "pitch_deg": -8.6084, "yaw_deg": 108.087, "roll_deg": -2.2521, "lat_deg": 33.997040545305275, "lon_deg": -117.99937264765161, "altitude_rel_ft": 56.9516, "ground_speed_ft_s": 29.6697, "vel_north_m_s": 6.0403, "vel_east_m_s": 8.1891, "vel_down_m_s": -0.3746, "battery_remain_pct": 96.8166}
{"t_rx_ms": 1773426451314, "run_id": "SIM_TEST", "seq": 55, "pitch_deg": -5.392, "yaw_deg": 1.0562, "roll_deg": -11.3727, "lat_deg": 34.008226450791824, "lon_deg": -117.99350576116812, "altitude_rel_ft": 94.5254, "ground_speed_ft_s": 38.1521, "vel_north_m_s": -4.8944, "vel_east_m_s": -4.4783, "vel_down_m_s": 0.8548, "battery_remain_pct": 60.1426}
{"t_rx_ms": 1773426451414, "run_id": "SIM_TEST", "seq": 56, "pitch_deg": -3.3229, "yaw_deg": 310.838, "roll_deg": 1.5749, "lat_deg": 34.00274019754415, "lon_deg": -118.0007044185579, "altitude_rel_ft": 60.8333, "ground_speed_ft_s": 48.7813, "vel_north_m_s": -5.9254, "vel_east_m_s": 0.0688, "vel_down_m_s": 0.2457, "battery_remain_pct": 85.9271}
{"t_rx_ms": 1773426451515, "run_id": "SIM_TEST", "seq": 57, "pitch_deg": -5.7276, "yaw_deg": 328.9683, "roll_deg": -10.1143, "lat_deg": 34.00418676703675, "lon_deg": -118.00639330606045, "altitude_rel_ft": 34.0239, "ground_speed_ft_s": 35.8503, "vel_north_m_s": 3.5306, "vel_east_m_s": -5.2674, "vel_down_m_s": 0.1048, "battery_remain_pct": 66.7709}
{"t_rx_ms": 1773426451616, "run_id": "SIM_TEST", "seq": 58, "pitch_deg": 3.2443, "yaw_deg": 10.5059, "roll_deg": -7.5723, "lat_deg": 33.993926653186264, "lon_deg": -118.00058433831182, "altitude_rel_ft": 26.3343, "ground_speed_ft_s": 50.073, "vel_north_m_s": -2.2997, "vel_east_m_s": -8.6907, "vel_down_m_s": 0.7602, "battery_remain_pct": 54.8003}
{"t_rx_ms": 1773426451716, "run_id": "SIM_TEST", "seq": 59, "pitch_deg": 2.764, "yaw_deg": 220.0651, "roll_deg": -10.567, "lat_deg": 34.00445799861096, "lon_deg": -117.993265214132, "altitude_rel_ft": 59.6758, "ground_speed_ft_s": 49.0882, "vel_north_m_s": -8.3622, "vel_east_m_s": 8.2635, "vel_down_m_s": 0.1284, "battery_remain_pct": 55.0914}
{"t_rx_ms": 1773426451817, "run_id": "SIM_TEST", "seq": 60, "pitch_deg": 6.3136, "yaw_deg": 296.5674, "roll_deg": 12.7496, "lat_deg": 34.00249445163528, "lon_deg": -118.00583207313088, "altitude_rel_ft": 91.4638, "ground_speed_ft_s": 12.3286, "vel_north_m_s": 4.1126, "vel_east_m_s": 2.3226, "vel_down_m_s": 0.0318, "battery_remain_pct": 69.9187}
{"t_rx_ms": 1773426451917, "run_id": "SIM_TEST", "seq": 61, "pitch_deg": 5.8676, "yaw_deg": 48.0133, "roll_deg": 3.95, "lat_deg": 34.00585319777638, "lon_deg": -118.00221521793134, "altitude_rel_ft": 26.7445, "ground_speed_ft_s": 44.0099, "vel_north_m_s": 8.9263, "vel_east_m_s": -3.7309, "vel_down_m_s": 0.0996, "battery_remain_pct": 84.1403}
{"t_rx_ms": 1773426452017, "run_id": "SIM_TEST", "seq": 62, "pitch_deg": 3.6025, "yaw_deg": 284.4354, "roll_deg": -7.2001, "lat_deg": 34.00777494897916, "lon_deg": -117.99866046389681, "altitude_rel_ft": 79.9476, "ground_speed_ft_s": 23.9424, "vel_north_m_s": 5.5255, "vel_east_m_s": 5.8127, "vel_down_m_s": 0.5431, "battery_remain_pct": 85.2123}
{"t_rx_ms": 1773426452118, "run_id": "SIM_TEST", "seq": 63, "pitch_deg": -5.0673, "yaw_deg": 174.4449, "roll_deg": -5.7743, "lat_deg": 33.9915221752949, "lon_deg": -117.99482536957629, "altitude_rel_ft": 93.7164, "ground_speed_ft_s": 25.0452, "vel_north_m_s": -1.3504, "vel_east_m_s": 3.9797, "vel_down_m_s": -0.4776, "battery_remain_pct": 69.0559}
{"t_rx_ms": 1773426452218, "run_id": "SIM_TEST", "seq": 64, "pitch_deg": 0.3076, "yaw_deg": 188.121, "roll_deg": -7.9503, "lat_deg": 34.004639255875986, "lon_deg": -118.00370866272904, "altitude_rel_ft": 40.9241, "ground_speed_ft_s": 18.5604, "vel_north_m_s": 4.5064, "vel_east_m_s": 0.1203, "vel_down_m_s": -0.6195, "battery_remain_pct": 93.0467}
{"t_rx_ms": 1773426452318, "run_id": "SIM_TEST", "seq": 65, "pitch_deg": 8.1716, "yaw_deg": 251.4033, "roll_deg": 7.4016, "lat_deg": 33.99205415105514, "lon_deg": -117.99434569768796, "altitude_rel_ft": 90.6111, "ground_speed_ft_s": 8.3615, "vel_north_m_s": 1.3951, "vel_east_m_s": 8.7845, "vel_down_m_s": 0.4603, "battery_remain_pct": 73.6332}
{"t_rx_ms": 1773426452418, "run_id": "SIM_TEST", "seq": 66, "pitch_deg": -0.8056, "yaw_deg": 209.5912, "roll_deg": -9.0496, "lat_deg": 34.00919619885374, "lon_deg": -118.0026563021075, "altitude_rel_ft": 22.559, "ground_speed_ft_s": 10.3075, "vel_north_m_s": 9.436, "vel_east_m_s": 4.1854, "vel_down_m_s": 0.1962, "battery_remain_pct": 95.0577}
{"t_rx_ms": 1773426452519, "run_id": "SIM_TEST", "seq": 67, "pitch_deg": -7.2208, "yaw_deg": 252.5629, "roll_deg": -12.7812, "lat_deg": 33.99999561579599, "lon_deg": -117.99791062549389, "altitude_rel_ft": 47.842, "ground_speed_ft_s": 28.0099, "vel_north_m_s": -3.9842, "vel_east_m_s": -9.4365, "vel_down_m_s": 0.3176, "battery_remain_pct": 73.2101}
{"t_rx_ms": 1773426452619, "run_id": "SIM_TEST", "seq": 68, "pitch_deg": -5.4014, "yaw_deg": 301.3734, "roll_deg": 7.6447, "lat_deg": 34.00959194640594, "lon_deg": -118.00773829691892, "altitude_rel_ft": 92.9851, "ground_speed_ft_s": 6.4398, "vel_north_m_s": -1.7073, "vel_east_m_s": -1.8899, "vel_down_m_s": 0.7717, "battery_remain_pct": 62.919}
{"t_rx_ms": 1773426452720, "run_id": "SIM_TEST", "seq": 69, "pitch_deg": 5.8886, "yaw_deg": 210.0728, "roll_deg": -12.4091, "lat_deg": 34.00054171086165, "lon_deg": -117.99526449838234, "altitude_rel_ft": 61.6178, "ground_speed_ft_s": 42.8517, "vel_north_m_s": -8.6396, "vel_east_m_s": 8.4148, "vel_down_m_s": -0.0719, "battery_remain_pct": 57.354}
{"t_rx_ms": 1773426452821, "run_id": "SIM_TEST", "seq": 70, "pitch_deg": -4.4533, "yaw_deg": 192.3624, "roll_deg": -6.9668, "lat_deg": 33.99604399750618, "lon_deg": -118.00663665464015, "altitude_rel_ft": 24.9543, "ground_speed_ft_s": 59.961, "vel_north_m_s": 4.2779, "vel_east_m_s": 7.6172, "vel_down_m_s": -0.283, "battery_remain_pct": 55.0901}
{"t_rx_ms": 1773426452921, "run_id": "SIM_TEST", "seq": 71, "pitch_deg": -2.6849, "yaw_deg": 68.295, "roll_deg": 0.0761, "lat_deg": 34.00339385495685, "lon_deg": -117.99196849352845, "altitude_rel_ft": 89.8737, "ground_speed_ft_s": 13.0964, "vel_north_m_s": 3.7515, "vel_east_m_s": 4.9516, "vel_down_m_s": -0.4559, "battery_remain_pct": 59.5619}
{"t_rx_ms": 1773426453022, "run_id": "SIM_TEST", "seq": 72, "pitch_deg": -7.635, "yaw_deg": 303.6306, "roll_deg": -1.2432, "lat_deg": 34.00652899180864, "lon_deg": -117.99127142299506, "altitude_rel_ft": 80.2543, "ground_speed_ft_s": 21.1881, "vel_north_m_s": 5.5856, "vel_east_m_s": -0.4522, "vel_down_m_s": 0.7182, "battery_remain_pct": 97.0837}
{"t_rx_ms": 1773426453122, "run_id": "SIM_TEST", "seq": 73, "pitch_deg": 5.3764, "yaw_deg": 262.9438, "roll_deg": 13.4998, "lat_deg": 33.99740610334111, "lon_deg": -117.99177675028038, "altitude_rel_ft": 98.2944, "ground_speed_ft_s": 49.3971, "vel_north_m_s": 6.7631, "vel_east_m_s": -6.3086, "vel_down_m_s": -0.74, "battery_remain_pct": 77.4471}
{"t_rx_ms": 1773426453222, "run_id": "SIM_TEST", "seq": 74, "pitch_deg": -3.8556, "yaw_deg": 325.2337, "roll_deg": 3.8146, "lat_deg": 34.002672583685545, "lon_deg": -118.00129516794917, "altitude_rel_ft": 64.3618, "ground_speed_ft_s": 53.7667, "vel_north_m_s": -6.2424, "vel_east_m_s": 3.1449, "vel_down_m_s": 0.0073, "battery_remain_pct": 79.4286}
{"t_rx_ms": 1773426453323, "run_id": "SIM_TEST", "seq": 75, "pitch_deg": -4.6168, "yaw_deg": 354.2746, "roll_deg": 12.2353, "lat_deg": 34.00030112896199, "lon_deg": -117.99629326631492, "altitude_rel_ft": 43.6427, "ground_speed_ft_s": 32.5859, "vel_north_m_s": 5.6463, "vel_east_m_s": -0.8729, "vel_down_m_s": -0.614, "battery_remain_pct": 68.7608}
{"t_rx_ms": 1773426453423, "run_id": "SIM_TEST", "seq": 76, "pitch_deg": -2.551, "yaw_deg": 5.658, "roll_deg": -13.6357, "lat_deg": 33.99864076457878, "lon_deg": -118.00022748342994, "altitude_rel_ft": 57.9508, "ground_speed_ft_s": 12.1454, "vel_north_m_s": -4.5104, "vel_east_m_s": -6.1293, "vel_down_m_s": -0.221, "battery_remain_pct": 50.5969}
{"t_rx_ms": 1773426453523, "run_id": "SIM_TEST", "seq": 77, "pitch_deg": 6.8799, "yaw_deg": 173.1181, "roll_deg": -13.2815, "lat_deg": 34.009618532839504, "lon_deg": -117.99341418433247, "altitude_rel_ft": 76.0792, "ground_speed_ft_s": 48.5265, "vel_north_m_s": 6.6476, "vel_east_m_s": -0.3486, "vel_down_m_s": -0.0385, "battery_remain_pct": 62.8988}
{"t_rx_ms": 1773426453624, "run_id": "SIM_TEST", "seq": 78, "pitch_deg": -4.0234, "yaw_deg": 117.9813, "roll_deg": -6.9264, "lat_deg": 33.999085837678294, "lon_deg": -118.00788655678471, "altitude_rel_ft": 68.0695, "ground_speed_ft_s": 52.7201, "vel_north_m_s": 6.8445, "vel_east_m_s": 8.265, "vel_down_m_s": 0.9206, "battery_remain_pct": 63.2024}
{"t_rx_ms": 1773426453724, "run_id": "SIM_TEST", "seq": 79, "pitch_deg": 9.5469, "yaw_deg": 231.0093, "roll_deg": -14.8869, "lat_deg": 33.995839093143395, "lon_deg": -118.00442721467655, "altitude_rel_ft": 61.7243, "ground_speed_ft_s": 40.4883, "vel_north_m_s": -3.4886, "vel_east_m_s": 0.3722, "vel_down_m_s": 0.9375, "battery_remain_pct": 85.2225}
{"t_rx_ms": 1773426453825, "run_id": "SIM_TEST", "seq": 80, "pitch_deg": -6.9135, "yaw_deg": 324.5867, "roll_deg": 13.935, "lat_deg": 34.00675289419577, "lon_deg": -118.00522910427733, "altitude_rel_ft": 28.0207, "ground_speed_ft_s": 35.7694, "vel_north_m_s": -2.6677, "vel_east_m_s": -3.3333, "vel_down_m_s": -0.8247, "battery_remain_pct": 82.4627}
{"t_rx_ms": 1773426453925, "run_id": "SIM_TEST", "seq": 81, "pitch_deg": 5.4736, "yaw_deg": 14.8897, "roll_deg": 11.6459, "lat_deg": 33.990295534274395, "lon_deg": -117.99573745774083, "altitude_rel_ft": 40.2889, "ground_speed_ft_s": 26.3219, "vel_north_m_s": 7.4918, "vel_east_m_s": -7.3024, "vel_down_m_s": -0.845, "battery_remain_pct": 95.4978}
{"t_rx_ms": 1773426454025, "run_id": "SIM_TEST", "seq": 82, "pitch_deg": 9.0389, "yaw_deg": 329.1491, "roll_deg": -1.7415, "lat_deg": 34.00010432523921, "lon_deg": -118.00902184670757, "altitude_rel_ft": 78.7157, "ground_speed_ft_s": 52.5166, "vel_north_m_s": 9.371, "vel_east_m_s": 6.5974, "vel_down_m_s": 0.7251, "battery_remain_pct": 50.6876}
{"t_rx_ms": 1773426454126, "run_id": "SIM_TEST", "seq": 83, "pitch_deg": 0.3863, "yaw_deg": 158.217, "roll_deg": 6.7491, "lat_deg": 34.00553198560676, "lon_deg": -118.00732094843416, "altitude_rel_ft": 70.0149, "ground_speed_ft_s": 54.2009, "vel_north_m_s": 8.7424, "vel_east_m_s": 3.3852, "vel_down_m_s": 0.1367, "battery_remain_pct": 50.4119}
{"t_rx_ms": 1773426454226, "run_id": "SIM_TEST", "seq": 84, "pitch_deg": 8.6707, "yaw_deg": 358.5836, "roll_deg": -1.978, "lat_deg": 33.99998679478959, "lon_deg": -117.99696843716498, "altitude_rel_ft": 87.6011, "ground_speed_ft_s": 27.8656, "vel_north_m_s": 2.2237, "vel_east_m_s": 2.6113, "vel_down_m_s": -0.7871, "battery_remain_pct": 84.9494}
{"t_rx_ms": 1773426454326, "run_id": "SIM_TEST", "seq": 85, "pitch_deg": -0.7139, "yaw_deg": 134.5647, "roll_deg": -0.6981, "lat_deg": 33.995710652108095, "lon_deg": -118.0020130057325, "altitude_rel_ft": 22.5217, "ground_speed_ft_s": 19.1089, "vel_north_m_s": -9.7019, "vel_east_m_s": -2.1126, "vel_down_m_s": -0.0727, "battery_remain_pct": 51.2538}
{"t_rx_ms": 1773426454426, "run_id": "SIM_TEST", "seq": 86, "pitch_deg": -5.0461, "yaw_deg": 304.3782, "roll_deg": 8.1115, "lat_deg": 34.00286225786013, "lon_deg": -117.99529571725287, "altitude_rel_ft": 29.7625, "ground_speed_ft_s": 31.386, "vel_north_m_s": 6.0419, "vel_east_m_s": -9.9789, "vel_down_m_s": -0.098, "battery_remain_pct": 57.9793}
{"t_rx_ms": 1773426454527, "run_id": "SIM_TEST", "seq": 87, "pitch_deg": 9.0329, "yaw_deg": 64.6928, "roll_deg": 7.3182, "lat_deg": 34.00830529681468, "lon_deg": -117.99609834608756, "altitude_rel_ft": 30.5, "ground_speed_ft_s": 5.6622, "vel_north_m_s": -8.6595, "vel_east_m_s": -2.9112, "vel_down_m_s": -0.7464, "battery_remain_pct": 60.5074}
{"t_rx_ms": 1773426454627, "run_id": "SIM_TEST", "seq": 88, "pitch_deg": -1.4822, "yaw_deg": 56.7096, "roll_deg": 5.7624, "lat_deg": 34.00244568731529, "lon_deg": -118.00396803388941, "altitude_rel_ft": 98.3251, "ground_speed_ft_s": 22.0643, "vel_north_m_s": 4.5735, "vel_east_m_s": -3.8187, "vel_down_m_s": -0.6175, "battery_remain_pct": 92.0028}
{"t_rx_ms": 1773426454727, "run_id": "SIM_TEST", "seq": 89, "pitch_deg": 2.0531, "yaw_deg": 31.6, "roll_deg": -4.1589, "lat_deg": 34.008987005793834, "lon_deg": -118.00916467248287, "altitude_rel_ft": 56.7109, "ground_speed_ft_s": 18.0477, "vel_north_m_s": -5.0766, "vel_east_m_s": -8.8293, "vel_down_m_s": 0.4492, "battery_remain_pct": 95.5754}
{"t_rx_ms": 1773426454827, "run_id": "SIM_TEST", "seq": 90, "pitch_deg": 9.8355, "yaw_deg": 255.6594, "roll_deg": -4.1771, "lat_deg": 33.999309663847754, "lon_deg": -117.99466172825451, "altitude_rel_ft": 77.3663, "ground_speed_ft_s": 52.7539, "vel_north_m_s": -1.9327, "vel_east_m_s": 7.0294, "vel_down_m_s": 0.1932, "battery_remain_pct": 51.7405}
{"t_rx_ms": 1773426454928, "run_id": "SIM_TEST", "seq": 91, "pitch_deg": 3.8855, "yaw_deg": 272.5856, "roll_deg": 3.5388, "lat_deg": 33.996706824207685, "lon_deg": -117.99673492778898, "altitude_rel_ft": 91.5314, "ground_speed_ft_s": 46.7828, "vel_north_m_s": -9.643, "vel_east_m_s": 5.6627, "vel_down_m_s": -0.2505, "battery_remain_pct": 61.0785}
{"t_rx_ms": 1773426455028, "run_id": "SIM_TEST", "seq": 92, "pitch_deg": 0.5825, "yaw_deg": 131.6769, "roll_deg": -10.9212, "lat_deg": 33.99550903252485, "lon_deg": -118.00460122549376, "altitude_rel_ft": 82.0873, "ground_speed_ft_s": 52.1245, "vel_north_m_s": -5.0704, "vel_east_m_s": -4.5243, "vel_down_m_s": 0.4183, "battery_remain_pct": 87.9381}
{"t_rx_ms": 1773426455128, "run_id": "SIM_TEST", "seq": 93, "pitch_deg": -6.7532, "yaw_deg": 274.8671, "roll_deg": -1.5009, "lat_deg": 34.00630970813199, "lon_deg": -117.99270572638217, "altitude_rel_ft": 54.8117, "ground_speed_ft_s": 45.3203, "vel_north_m_s": -0.3587, "vel_east_m_s": 7.1692, "vel_down_m_s": 0.6849, "battery_remain_pct": 70.4107}
{"t_rx_ms": 1773426455229, "run_id": "SIM_TEST", "seq": 94, "pitch_deg": -8.9613, "yaw_deg": 130.5415, "roll_deg": 12.4467, "lat_deg": 34.008439814893805, "lon_deg": -117.99145629398113, "altitude_rel_ft": 90.9002, "ground_speed_ft_s": 21.4271, "vel_north_m_s": -3.1413, "vel_east_m_s": -3.0739, "vel_down_m_s": 0.093, "battery_remain_pct": 57.0346}
{"t_rx_ms": 1773426455329, "run_id": "SIM_TEST", "seq": 95, "pitch_deg": -1.5142, "yaw_deg": 352.8387, "roll_deg": 5.6813, "lat_deg": 33.99341473492059, "lon_deg": -118.00095762299411, "altitude_rel_ft": 61.744, "ground_speed_ft_s": 8.0802, "vel_north_m_s": 7.2223, "vel_east_m_s": -8.4695, "vel_down_m_s": 0.9479, "battery_remain_pct": 69.2179}
{"t_rx_ms": 1773426455429, "run_id": "SIM_TEST", "seq": 96, "pitch_deg": -9.3225, "yaw_deg": 282.001, "roll_deg": -2.4168, "lat_deg": 34.00530329465175, "lon_deg": -118.00666166852668, "altitude_rel_ft": 33.2035, "ground_speed_ft_s": 34.7912, "vel_north_m_s": -9.9763, "vel_east_m_s": 7.5179, "vel_down_m_s": -0.6328, "battery_remain_pct": 60.3243}
{"t_rx_ms": 1773426455529, "run_id": "SIM_TEST", "seq": 97, "pitch_deg": 1.2777, "yaw_deg": 105.8974, "roll_deg": 2.1693, "lat_deg": 33.99838664313208, "lon_deg": -117.99537223888429, "altitude_rel_ft": 77.6294, "ground_speed_ft_s": 26.6472, "vel_north_m_s": 2.7585, "vel_east_m_s": -5.3224, "vel_down_m_s": -0.1828, "battery_remain_pct": 76.7637}
{"t_rx_ms": 1773426455630, "run_id": "SIM_TEST", "seq": 98, "pitch_deg": -2.5581, "yaw_deg": 85.067, "roll_deg": -3.7079, "lat_deg": 34.00641870480746, "lon_deg": -117.99810506516151, "altitude_rel_ft": 62.7556, "ground_speed_ft_s": 58.3407, "vel_north_m_s": -8.2435, "vel_east_m_s": -3.781, "vel_down_m_s": -0.6412, "battery_remain_pct": 91.4204}
{"t_rx_ms": 1773426455730, "run_id": "SIM_TEST", "seq": 99, "pitch_deg": 9.2719, "yaw_deg": 227.1325, "roll_deg": 6.0436, "lat_deg": 33.99123503394651, "lon_deg": -118.00327421930727, "altitude_rel_ft": 66.8165, "ground_speed_ft_s": 24.2233, "vel_north_m_s": -4.0691, "vel_east_m_s": 9.08, "vel_down_m_s": -0.7176, "battery_remain_pct": 98.853}
{"t_rx_ms": 1773426455830, "run_id": "SIM_TEST", "seq": 100, "pitch_deg": 4.2661, "yaw_deg": 329.7855, "roll_deg": -3.6941, "lat_deg": 33.99799642992599, "lon_deg": -117.99058314327851, "altitude_rel_ft": 31.3821, "ground_speed_ft_s": 37.363, "vel_north_m_s": 4.4016, "vel_east_m_s": -8.1637, "vel_down_m_s": 0.414, "battery_remain_pct": 79.8679}
{"t_rx_ms": 1773426455930, "run_id": "SIM_TEST", "seq": 101, "pitch_deg": -7.0363, "yaw_deg": 55.4653, "roll_deg": -13.4162, "lat_deg": 34.00137422644423, "lon_deg": -117.99088118548995, "altitude_rel_ft": 39.1114, "ground_speed_ft_s": 7.9558, "vel_north_m_s": 0.5366, "vel_east_m_s": -8.0403, "vel_down_m_s": -0.9719, "battery_remain_pct": 71.3004}
{"t_rx_ms": 1773426456031, "run_id": "SIM_TEST", "seq": 102, "pitch_deg": -9.0709, "yaw_deg": 219.2838, "roll_deg": -0.7856, "lat_deg": 33.996488190234466, "lon_deg": -118.00309899413745, "altitude_rel_ft": 72.9311, "ground_speed_ft_s": 17.9837, "vel_north_m_s": -3.3344, "vel_east_m_s": -8.8448, "vel_down_m_s": -0.7134, "battery_remain_pct": 66.0095}
{"t_rx_ms": 1773426456131, "run_id": "SIM_TEST", "seq": 103, "pitch_deg": 6.1346, "yaw_deg": 183.0447, "roll_deg": 6.6173, "lat_deg": 33.99732767386519, "lon_deg": -117.99282845143546, "altitude_rel_ft": 82.698, "ground_speed_ft_s": 51.697, "vel_north_m_s": 9.6892, "vel_east_m_s": 7.7492, "vel_down_m_s": -0.086, "battery_remain_pct": 67.4827}
{"t_rx_ms": 1773426456231, "run_id": "SIM_TEST", "seq": 104, "pitch_deg": -8.512, "yaw_deg": 65.2519, "roll_deg": -9.1739, "lat_deg": 33.998292752114104, "lon_deg": -118.00445529042824, "altitude_rel_ft": 80.9797, "ground_speed_ft_s": 10.7662, "vel_north_m_s": -0.8297, "vel_east_m_s": -3.1244, "vel_down_m_s": -0.9078, "battery_remain_pct": 80.921}
{"t_rx_ms": 1773426456331, "run_id": "SIM_TEST", "seq": 105, "pitch_deg": 2.8421, "yaw_deg": 277.3317, "roll_deg": -0.3397, "lat_deg": 33.99080340812669, "lon_deg": -117.99757047442498, "altitude_rel_ft": 98.0566, "ground_speed_ft_s": 56.5217, "vel_north_m_s": -0.8161, "vel_east_m_s": -3.9415, "vel_down_m_s": 0.1337, "battery_remain_pct": 57.2432}
{"t_rx_ms": 1773426456432, "run_id": "SIM_TEST", "seq": 106, "pitch_deg": 1.3491, "yaw_deg": 75.4972, "roll_deg": 2.8972, "lat_deg": 34.008873623086714, "lon_deg": -118.00607618489384, "altitude_rel_ft": 43.964, "ground_speed_ft_s": 44.281, "vel_north_m_s": -8.2136, "vel_east_m_s": 3.8789, "vel_down_m_s": 0.7138, "battery_remain_pct": 77.0463}
{"t_rx_ms": 1773426456532, "run_id": "SIM_TEST", "seq": 107, "pitch_deg": 9.0948, "yaw_deg": 172.7842, "roll_deg": -5.8539, "lat_deg": 33.997614738579955, "lon_deg": -118.00887849898297, "altitude_rel_ft": 42.1448, "ground_speed_ft_s": 42.7225, "vel_north_m_s": 9.3872, "vel_east_m_s": -5.5064, "vel_down_m_s": 0.4772, "battery_remain_pct": 74.0235}
{"t_rx_ms": 1773426456632, "run_id": "SIM_TEST", "seq": 108, "pitch_deg": 8.9485, "yaw_deg": 267.6985, "roll_deg": 3.132, "lat_deg": 33.99634398427631, "lon_deg": -118.00770830354088, "altitude_rel_ft": 56.7294, "ground_speed_ft_s": 14.729, "vel_north_m_s": 6.7747, "vel_east_m_s": -6.9284, "vel_down_m_s": -0.3332, "battery_remain_pct": 89.0551}
{"t_rx_ms": 1773426456733, "run_id": "SIM_TEST", "seq": 109, "pitch_deg": 7.6225, "yaw_deg": 16.2876, "roll_deg": 7.4845, "lat_deg": 33.995277516681725, "lon_deg": -118.00366403920613, "altitude_rel_ft": 46.2937, "ground_speed_ft_s": 15.3473, "vel_north_m_s": -0.4513, "vel_east_m_s": -3.8296, "vel_down_m_s": -0.6519, "battery_remain_pct": 63.5354}
{"t_rx_ms": 1773426456833, "run_id": "SIM_TEST", "seq": 110, "pitch_deg": 0.6591, "yaw_deg": 335.5219, "roll_deg": -11.8347, "lat_deg": 33.99992374537092, "lon_deg": -117.99712375229524, "altitude_rel_ft": 61.1611, "ground_speed_ft_s": 36.9893, "vel_north_m_s": 1.8222, "vel_east_m_s": -4.5211, "vel_down_m_s": 0.7587, "battery_remain_pct": 82.2026}
{"t_rx_ms": 1773426456933, "run_id": "SIM_TEST", "seq": 111, "pitch_deg": 4.769, "yaw_deg": 30.3936, "roll_deg": 6.1875, "lat_deg": 34.0019516087892, "lon_deg": -117.99660072208704, "altitude_rel_ft": 86.2505, "ground_speed_ft_s": 19.7286, "vel_north_m_s": 4.0062, "vel_east_m_s": 6.2196, "vel_down_m_s": -0.9422, "battery_remain_pct": 70.4078}
{"t_rx_ms": 1773426457034, "run_id": "SIM_TEST", "seq": 112, "pitch_deg": 1.6404, "yaw_deg": 156.0338, "roll_deg": -0.7134, "lat_deg": 34.00593193382113, "lon_deg": -118.00248761671938, "altitude_rel_ft": 20.4826, "ground_speed_ft_s": 26.9657, "vel_north_m_s": -2.4231, "vel_east_m_s": -9.768, "vel_down_m_s": -0.0031, "battery_remain_pct": 69.1068}
{"t_rx_ms": 1773426457134, "run_id": "SIM_TEST", "seq": 113, "pitch_deg": -0.2768, "yaw_deg": 1.6113, "roll_deg": 4.2104, "lat_deg": 33.99687712186385, "lon_deg": -118.00063865186647, "altitude_rel_ft": 28.4628, "ground_speed_ft_s": 11.4934, "vel_north_m_s": -1.4595, "vel_east_m_s": -2.1337, "vel_down_m_s": 0.1991, "battery_remain_pct": 70.4879}
{"t_rx_ms": 1773426457235, "run_id": "SIM_TEST", "seq": 114, "pitch_deg": -1.1721, "yaw_deg": 97.8946, "roll_deg": 12.6304, "lat_deg": 33.99114036729497, "lon_deg": -118.00182027325978, "altitude_rel_ft": 79.4451, "ground_speed_ft_s": 23.1527, "vel_north_m_s": -2.602, "vel_east_m_s": 3.9761, "vel_down_m_s": 0.9738, "battery_remain_pct": 92.7196}
{"t_rx_ms": 1773426457335, "run_id": "SIM_TEST", "seq": 115, "pitch_deg": -1.4539, "yaw_deg": 299.8386, "roll_deg": -6.3011, "lat_deg": 34.003256573874076, "lon_deg": -118.00655956922077, "altitude_rel_ft": 29.8669, "ground_speed_ft_s": 34.3398, "vel_north_m_s": 5.0866, "vel_east_m_s": -0.5961, "vel_down_m_s": -0.5235, "battery_remain_pct": 72.8894}
{"t_rx_ms": 1773426457435, "run_id": "SIM_TEST", "seq": 116, "pitch_deg": 6.3447, "yaw_deg": 282.1774, "roll_deg": 5.9364, "lat_deg": 33.99086858375701, "lon_deg": -118.00172932793755, "altitude_rel_ft": 31.0334, "ground_speed_ft_s": 52.7429, "vel_north_m_s": 4.3225, "vel_east_m_s": -8.2505, "vel_down_m_s": 0.0855, "battery_remain_pct": 76.8541}
{"t_rx_ms": 1773426457535, "run_id": "SIM_TEST", "seq": 117, "pitch_deg": 2.2673, "yaw_deg": 239.6004, "roll_deg": -2.3657, "lat_deg": 34.009629328917676, "lon_deg": -118.00613287120913, "altitude_rel_ft": 27.6536, "ground_speed_ft_s": 58.759, "vel_north_m_s": 9.0894, "vel_east_m_s": -5.8667, "vel_down_m_s": -0.4965, "battery_remain_pct": 93.2496}
{"t_rx_ms": 1773426457636, "run_id": "SIM_TEST", "seq": 118, "pitch_deg": -5.9687, "yaw_deg": 204.0188, "roll_deg": -13.1012, "lat_deg": 34.00156212176075, "lon_deg": -118.00547347050703, "altitude_rel_ft": 39.7487, "ground_speed_ft_s": 45.4438, "vel_north_m_s": 0.4789, "vel_east_m_s": -7.5171, "vel_down_m_s": 0.9857, "battery_remain_pct": 63.4236}
{"t_rx_ms": 1773426457736, "run_id": "SIM_TEST", "seq": 119, "pitch_deg": -2.7116, "yaw_deg": 88.1728, "roll_deg": 5.1301, "lat_deg": 33.99668584437322, "lon_deg": -117.99993045044076, "altitude_rel_ft": 76.9348, "ground_speed_ft_s": 47.9199, "vel_north_m_s": 6.5719, "vel_east_m_s": -5.5592, "vel_down_m_s": 0.4641, "battery_remain_pct": 83.6511}
{"t_rx_ms": 1773426457836, "run_id": "SIM_TEST", "seq": 120, "pitch_deg": 7.9084, "yaw_deg": 348.8142, "roll_deg": -9.3681, "lat_deg": 33.998737547673656, "lon_deg": -118.00821205655755, "altitude_rel_ft": 23.4352, "ground_speed_ft_s": 46.2845, "vel_north_m_s": 4.9424, "vel_east_m_s": 8.854, "vel_down_m_s": -0.366, "battery_remain_pct": 87.8196}
{"t_rx_ms": 1773426457936, "run_id": "SIM_TEST", "seq": 121, "pitch_deg": 7.2973, "yaw_deg": 288.7987, "roll_deg": 10.1787, "lat_deg": 34.00102556996554, "lon_deg": -118.00635782863574, "altitude_rel_ft": 92.1966, "ground_speed_ft_s": 59.0182, "vel_north_m_s": 8.8362, "vel_east_m_s": 8.2744, "vel_down_m_s": -0.3563, "battery_remain_pct": 56.3386}
{"t_rx_ms": 1773426458036, "run_id": "SIM_TEST", "seq": 122, "pitch_deg": -7.202, "yaw_deg": 46.9962, "roll_deg": -11.7722, "lat_deg": 34.00615236486044, "lon_deg": -117.99971889582443, "altitude_rel_ft": 36.1443, "ground_speed_ft_s": 7.7038, "vel_north_m_s": -9.81, "vel_east_m_s": 6.9042, "vel_down_m_s": -0.3238, "battery_remain_pct": 80.1839}
{"t_rx_ms": 1773426458137, "run_id": "SIM_TEST", "seq": 123, "pitch_deg": -1.1521, "yaw_deg": 34.7701, "roll_deg": -11.1962, "lat_deg": 34.0022835851311, "lon_deg": -118.00197798543171, "altitude_rel_ft": 39.6685, "ground_speed_ft_s": 20.3974, "vel_north_m_s": -4.103, "vel_east_m_s": -1.4536, "vel_down_m_s": 0.8792, "battery_remain_pct": 65.5731}
{"t_rx_ms": 1773426458237, "run_id": "SIM_TEST", "seq": 124, "pitch_deg": -6.9851, "yaw_deg": 220.7785, "roll_deg": -8.4209, "lat_deg": 33.99600904159376, "lon_deg": -118.00061468004407, "altitude_rel_ft": 33.3056, "ground_speed_ft_s": 39.7269, "vel_north_m_s": 8.9827, "vel_east_m_s": 4.362, "vel_down_m_s": 0.0853, "battery_remain_pct": 70.4041}
{"t_rx_ms": 1773426458337, "run_id": "SIM_TEST", "seq": 125, "pitch_deg": -4.1673, "yaw_deg": 300.214, "roll_deg": -10.6634, "lat_deg": 34.00872092866307, "lon_deg": -117.99011096021053, "altitude_rel_ft": 76.3357, "ground_speed_ft_s": 7.8186, "vel_north_m_s": 1.1192, "vel_east_m_s": -8.5535, "vel_down_m_s": 0.3638, "battery_remain_pct": 70.9828}
{"t_rx_ms": 1773426458438, "run_id": "SIM_TEST", "seq": 126, "pitch_deg": -4.6618, "yaw_deg": 217.4299, "roll_deg": -4.5722, "lat_deg": 34.00278714317817, "lon_deg": -117.99132872096925, "altitude_rel_ft": 42.269, "ground_speed_ft_s": 38.6984, "vel_north_m_s": -8.0614, "vel_east_m_s": -4.2364, "vel_down_m_s": -0.268, "battery_remain_pct": 81.3434}
{"t_rx_ms": 1773426458538, "run_id": "SIM_TEST", "seq": 127, "pitch_deg": -2.2242, "yaw_deg": 259.1229, "roll_deg": 12.3139, "lat_deg": 33.997875189197316, "lon_deg": -118.008979895248, "altitude_rel_ft": 27.3541, "ground_speed_ft_s": 7.592, "vel_north_m_s": -9.3685, "vel_east_m_s": 6.8954, "vel_down_m_s": -0.2228, "battery_remain_pct": 82.0592}
{"t_rx_ms": 1773426458638, "run_id": "SIM_TEST", "seq": 128, "pitch_deg": -5.0065, "yaw_deg": 324.2762, "roll_deg": -10.752, "lat_deg": 34.00512871874675, "lon_deg": -117.99523766420785, "altitude_rel_ft": 59.2569, "ground_speed_ft_s": 10.7617, "vel_north_m_s": -8.4368, "vel_east_m_s": 6.3819, "vel_down_m_s": -0.2606, "battery_remain_pct": 90.7637}
{"t_rx_ms": 1773426458738, "run_id": "SIM_TEST", "seq": 129, "pitch_deg": -0.7233, "yaw_deg": 104.825, "roll_deg": 2.25, "lat_deg": 33.99387693685486, "lon_deg": -117.99979289474888, "altitude_rel_ft": 97.5554, "ground_speed_ft_s": 25.1025, "vel_north_m_s": -2.0999, "vel_east_m_s": 2.8276, "vel_down_m_s": 0.1897, "battery_remain_pct": 52.6328}
{"t_rx_ms": 1773426458839, "run_id": "SIM_TEST", "seq": 130, "pitch_deg": 8.8102, "yaw_deg": 277.9627, "roll_deg": 2.3751, "lat_deg": 33.99840386134784, "lon_deg": -118.00909879825534, "altitude_rel_ft": 58.9943, "ground_speed_ft_s": 48.6078, "vel_north_m_s": 1.5091, "vel_east_m_s": -5.4226, "vel_down_m_s": 0.1292, "battery_remain_pct": 59.3253}
{"t_rx_ms": 1773426458939, "run_id": "SIM_TEST", "seq": 131, "pitch_deg": -9.6543, "yaw_deg": 43.6511, "roll_deg": 3.2997, "lat_deg": 33.997659251473756, "lon_deg": -118.00051279838242, "altitude_rel_ft": 64.6146, "ground_speed_ft_s": 5.3265, "vel_north_m_s": 8.2567, "vel_east_m_s": 3.6651, "vel_down_m_s": 0.8052, "battery_remain_pct": 96.8166}
{"t_rx_ms": 1773426459040, "run_id": "SIM_TEST", "seq": 132, "pitch_deg": -6.1806, "yaw_deg": 307.4088, "roll_deg": -10.1225, "lat_deg": 33.9974960301702, "lon_deg": -117.99865616529682, "altitude_rel_ft": 67.5967, "ground_speed_ft_s": 43.3637, "vel_north_m_s": 2.7513, "vel_east_m_s": 9.3772, "vel_down_m_s": 0.5125, "battery_remain_pct": 60.6214}
{"t_rx_ms": 1773426459140, "run_id": "SIM_TEST", "seq": 133, "pitch_deg": 8.9641, "yaw_deg": 69.0301, "roll_deg": -7.7513, "lat_deg": 33.9929488974121, "lon_deg": -118.00805841385495, "altitude_rel_ft": 25.8122, "ground_speed_ft_s": 50.883, "vel_north_m_s": -5.5411, "vel_east_m_s": 8.3216, "vel_down_m_s": -0.7661, "battery_remain_pct": 64.4216}
{"t_rx_ms": 1773426459240, "run_id": "SIM_TEST", "seq": 134, "pitch_deg": -5.9703, "yaw_deg": 153.4068, "roll_deg": -2.2306, "lat_deg": 33.99840475363413, "lon_deg": -117.99902810347133, "altitude_rel_ft": 92.9034, "ground_speed_ft_s": 40.3145, "vel_north_m_s": 0.3796, "vel_east_m_s": -7.1957, "vel_down_m_s": -0.5065, "battery_remain_pct": 68.7945}
{"t_rx_ms": 1773426459341, "run_id": "SIM_TEST", "seq": 135, "pitch_deg": -3.7481, "yaw_deg": 341.827, "roll_deg": 3.5747, "lat_deg": 34.00832566247823, "lon_deg": -118.00314846183308, "altitude_rel_ft": 33.5543, "ground_speed_ft_s": 20.5155, "vel_north_m_s": 8.0003, "vel_east_m_s": 3.9216, "vel_down_m_s": -0.8613, "battery_remain_pct": 91.4515}
{"t_rx_ms": 1773426459441, "run_id": "SIM_TEST", "seq": 136, "pitch_deg": -8.3012, "yaw_deg": 227.7214, "roll_deg": -3.6191, "lat_deg": 34.0037413110871, "lon_deg": -117.99055670956038, "altitude_rel_ft": 82.0669, "ground_speed_ft_s": 13.6743, "vel_north_m_s": 9.2301, "vel_east_m_s": 9.9843, "vel_down_m_s": 0.1094, "battery_remain_pct": 63.5318}
{"t_rx_ms": 1773426459541, "run_id": "SIM_TEST", "seq": 137, "pitch_deg": -7.0432, "yaw_deg": 296.1101, "roll_deg": 11.9435, "lat_deg": 34.00545890239449, "lon_deg": -118.00485258281299, "altitude_rel_ft": 94.6736, "ground_speed_ft_s": 58.5031, "vel_north_m_s": -7.022, "vel_east_m_s": -6.9311, "vel_down_m_s": 0.9766, "battery_remain_pct": 78.0769}
{"t_rx_ms": 1773426459641, "run_id": "SIM_TEST", "seq": 138, "pitch_deg": 6.479, "yaw_deg": 115.3449, "roll_deg": -6.9771, "lat_deg": 33.99189699177948, "lon_deg": -117.99909820095691, "altitude_rel_ft": 80.6477, "ground_speed_ft_s": 37.9916, "vel_north_m_s": -7.9317, "vel_east_m_s": -6.5541, "vel_down_m_s": -0.3219, "battery_remain_pct": 83.1544}
{"t_rx_ms": 1773426459742, "run_id": "SIM_TEST", "seq": 139, "pitch_deg": 2.4956, "yaw_deg": 272.3354, "roll_deg": -4.5329, "lat_deg": 34.00134324393217, "lon_deg": -117.99473055786244, "altitude_rel_ft": 62.2922, "ground_speed_ft_s": 47.9286, "vel_north_m_s": 8.9712, "vel_east_m_s": -9.102, "vel_down_m_s": 0.5992, "battery_remain_pct": 86.0444}
{"t_rx_ms": 1773426459842, "run_id": "SIM_TEST", "seq": 140, "pitch_deg": -3.9351, "yaw_deg": 323.7925, "roll_deg": -10.2379, "lat_deg": 33.9967216036228, "lon_deg": -117.99167905767275, "altitude_rel_ft": 54.861, "ground_speed_ft_s": 47.9984, "vel_north_m_s": -3.8877, "vel_east_m_s": 0.4782, "vel_down_m_s": -0.0688, "battery_remain_pct": 53.1651}
{"t_rx_ms": 1773426459942, "run_id": "SIM_TEST", "seq": 141, "pitch_deg": -5.1526, "yaw_deg": 82.5322, "roll_deg": -5.1895, "lat_deg": 33.999873158627636, "lon_deg": -118.0071150472222, "altitude_rel_ft": 74.0043, "ground_speed_ft_s": 44.6723, "vel_north_m_s": 6.6902, "vel_east_m_s": -4.1129, "vel_down_m_s": -0.9969, "battery_remain_pct": 53.6097}
{"t_rx_ms": 1773426460042, "run_id": "SIM_TEST", "seq": 142, "pitch_deg": -0.6218, "yaw_deg": 50.8853, "roll_deg": 8.3641, "lat_deg": 34.005426756013776, "lon_deg": -118.00401797076873, "altitude_rel_ft": 27.8223, "ground_speed_ft_s": 8.8356, "vel_north_m_s": -4.8238, "vel_east_m_s": 3.8782, "vel_down_m_s": -0.8755, "battery_remain_pct": 81.251}
{"t_rx_ms": 1773426460143, "run_id": "SIM_TEST", "seq": 143, "pitch_deg": 6.1575, "yaw_deg": 338.1969, "roll_deg": -10.9872, "lat_deg": 33.99691028919553, "lon_deg": -118.00224543996649, "altitude_rel_ft": 84.6208, "ground_speed_ft_s": 25.7689, "vel_north_m_s": 0.0661, "vel_east_m_s": -3.3778, "vel_down_m_s": -0.356, "battery_remain_pct": 71.9395}
{"t_rx_ms": 1773426460243, "run_id": "SIM_TEST", "seq": 144, "pitch_deg": -9.2477, "yaw_deg": 44.5522, "roll_deg": 6.4949, "lat_deg": 34.0051083748956, "lon_deg": -117.99704563306763, "altitude_rel_ft": 54.3789, "ground_speed_ft_s": 21.5538, "vel_north_m_s": -0.2182, "vel_east_m_s": -1.8846, "vel_down_m_s": -0.1338, "battery_remain_pct": 83.3253}
{"t_rx_ms": 1773426460343, "run_id": "SIM_TEST", "seq": 145, "pitch_deg": 8.8278, "yaw_deg": 134.7497, "roll_deg": 14.9795, "lat_deg": 33.992775529901444, "lon_deg": -117.99062940806046, "altitude_rel_ft": 29.3205, "ground_speed_ft_s": 28.4712, "vel_north_m_s": -6.9655, "vel_east_m_s": 0.9018, "vel_down_m_s": -0.5607, "battery_remain_pct": 56.6992}
{"t_rx_ms": 1773426460443, "run_id": "SIM_TEST", "seq": 146, "pitch_deg": 4.8585, "yaw_deg": 108.0554, "roll_deg": 8.5002, "lat_deg": 33.99384464006116, "lon_deg": -117.99315199484887, "altitude_rel_ft": 76.7966, "ground_speed_ft_s": 45.9261, "vel_north_m_s": 8.0994, "vel_east_m_s": 0.2875, "vel_down_m_s": -0.8761, "battery_remain_pct": 51.6437}
{"t_rx_ms": 1773426460543, "run_id": "SIM_TEST", "seq": 147, "pitch_deg": 5.7192, "yaw_deg": 281.8905, "roll_deg": 7.0849, "lat_deg": 33.99723095141095, "lon_deg": -117.99430551236568, "altitude_rel_ft": 54.0135, "ground_speed_ft_s": 59.4383, "vel_north_m_s": 5.8811, "vel_east_m_s": 5.5746, "vel_down_m_s": 0.5502, "battery_remain_pct": 52.6299}
{"t_rx_ms": 1773426460644, "run_id": "SIM_TEST", "seq": 148, "pitch_deg": 5.3238, "yaw_deg": 237.2466, "roll_deg": 13.6585, "lat_deg": 34.00975408928511, "lon_deg": -117.9986244992125, "altitude_rel_ft": 42.5955, "ground_speed_ft_s": 41.766, "vel_north_m_s": -1.3728, "vel_east_m_s": 8.4326, "vel_down_m_s": -0.445, "battery_remain_pct": 51.2562}
{"t_rx_ms": 1773426460744, "run_id": "SIM_TEST", "seq": 149, "pitch_deg": -9.2137, "yaw_deg": 357.2136, "roll_deg": 5.9359, "lat_deg": 33.998135290662866, "lon_deg": -118.00841063329086, "altitude_rel_ft": 38.8251, "ground_speed_ft_s": 16.543, "vel_north_m_s": 2.5431, "vel_east_m_s": 4.0562, "vel_down_m_s": 0.0709, "battery_remain_pct": 75.0644}
{"t_rx_ms": 1773426460844, "run_id": "SIM_TEST", "seq": 150, "pitch_deg": 5.0995, "yaw_deg": 35.914, "roll_deg": 3.3893, "lat_deg": 33.99251366179467, "lon_deg": -117.99344946738934, "altitude_rel_ft": 60.3721, "ground_speed_ft_s": 48.8565, "vel_north_m_s": -1.2454, "vel_east_m_s": 0.0869, "vel_down_m_s": 0.5057, "battery_remain_pct": 73.3621}
{"t_rx_ms": 1773426460945, "run_id": "SIM_TEST", "seq": 151, "pitch_deg": 5.8156, "yaw_deg": 180.7939, "roll_deg": -13.7267, "lat_deg": 33.99052306529983, "lon_deg": -117.99694309237661, "altitude_rel_ft": 41.6868, "ground_speed_ft_s": 9.0002, "vel_north_m_s": 0.446, "vel_east_m_s": 1.5741, "vel_down_m_s": -0.1477, "battery_remain_pct": 62.045}
{"t_rx_ms": 1773426461045, "run_id": "SIM_TEST", "seq": 152, "pitch_deg": -0.5503, "yaw_deg": 15.9642, "roll_deg": -14.1481, "lat_deg": 34.00325534762422, "lon_deg": -118.00287834857023, "altitude_rel_ft": 22.7287, "ground_speed_ft_s": 16.5633, "vel_north_m_s": 5.4981, "vel_east_m_s": 6.731, "vel_down_m_s": -0.7082, "battery_remain_pct": 84.9435}
{"t_rx_ms": 1773426461145, "run_id": "SIM_TEST", "seq": 153, "pitch_deg": 6.3602, "yaw_deg": 189.508, "roll_deg": -7.9469, "lat_deg": 34.00897953178295, "lon_deg": -117.99044326765815, "altitude_rel_ft": 29.251, "ground_speed_ft_s": 20.7964, "vel_north_m_s": -9.2948, "vel_east_m_s": -6.2318, "vel_down_m_s": 0.7796, "battery_remain_pct": 51.4194}
{"t_rx_ms": 1773426461245, "run_id": "SIM_TEST", "seq": 154, "pitch_deg": 8.2466, "yaw_deg": 28.0642, "roll_deg": -1.1534, "lat_deg": 34.00999038836509, "lon_deg": -117.99949049366654, "altitude_rel_ft": 32.5543, "ground_speed_ft_s": 51.219, "vel_north_m_s": 3.8858, "vel_east_m_s": -7.3308, "vel_down_m_s": 0.7936, "battery_remain_pct": 61.6189}
{"t_rx_ms": 1773426461346, "run_id": "SIM_TEST", "seq": 155, "pitch_deg": -3.4348, "yaw_deg": 249.8935, "roll_deg": -4.2971, "lat_deg": 34.000888907179196, "lon_deg": -118.00658615858006, "altitude_rel_ft": 78.2778, "ground_speed_ft_s": 25.776, "vel_north_m_s": 0.4347, "vel_east_m_s": 6.0064, "vel_down_m_s": -0.4912, "battery_remain_pct": 62.1541}
{"t_rx_ms": 1773426461446, "run_id": "SIM_TEST", "seq": 156, "pitch_deg": 5.34, "yaw_deg": 120.8381, "roll_deg": -12.2457, "lat_deg": 33.99376073505242, "lon_deg": -118.00530478504263, "altitude_rel_ft": 60.5275, "ground_speed_ft_s": 21.1276, "vel_north_m_s": 8.8595, "vel_east_m_s": -1.6262, "vel_down_m_s": -0.2447, "battery_remain_pct": 51.9195}
{"t_rx_ms": 1773426461546, "run_id": "SIM_TEST", "seq": 157, "pitch_deg": -9.1871, "yaw_deg": 323.8246, "roll_deg": 8.8609, "lat_deg": 34.00431524775895, "lon_deg": -118.00140230625703, "altitude_rel_ft": 24.8405, "ground_speed_ft_s": 33.4147, "vel_north_m_s": -4.8436, "vel_east_m_s": 2.1102, "vel_down_m_s": -0.0897, "battery_remain_pct": 73.9067}
{"t_rx_ms": 1773426461646, "run_id": "SIM_TEST", "seq": 158, "pitch_deg": -1.5676, "yaw_deg": 155.3639, "roll_deg": -1.989, "lat_deg": 34.00542810632102, "lon_deg": -118.00373570982886, "altitude_rel_ft": 41.5568, "ground_speed_ft_s": 56.0488, "vel_north_m_s": -9.0047, "vel_east_m_s": 2.9205, "vel_down_m_s": 0.6535, "battery_remain_pct": 60.3023}
{"t_rx_ms": 1773426461747, "run_id": "SIM_TEST", "seq": 159, "pitch_deg": -9.4676, "yaw_deg": 283.2726, "roll_deg": -4.9452, "lat_deg": 34.002559122555034, "lon_deg": -118.00076983716345, "altitude_rel_ft": 94.1523, "ground_speed_ft_s": 21.0328, "vel_north_m_s": -5.1509, "vel_east_m_s": 1.7935, "vel_down_m_s": -0.7338, "battery_remain_pct": 65.9097}
{"t_rx_ms": 1773426461847, "run_id": "SIM_TEST", "seq": 160, "pitch_deg": -1.9057, "yaw_deg": 167.885, "roll_deg": -2.2975, "lat_deg": 34.00151490366565, "lon_deg": -117.99252713826748, "altitude_rel_ft": 83.3691, "ground_speed_ft_s": 26.804, "vel_north_m_s": 1.4233, "vel_east_m_s": 7.3658, "vel_down_m_s": 0.6526, "battery_remain_pct": 70.3059}
{"t_rx_ms": 1773426461947, "run_id": "SIM_TEST", "seq": 161, "pitch_deg": -9.167, "yaw_deg": 269.9331, "roll_deg": -11.8191, "lat_deg": 33.991785833943354, "lon_deg": -118.00892423003188, "altitude_rel_ft": 49.3412, "ground_speed_ft_s": 46.5939, "vel_north_m_s": 5.4299, "vel_east_m_s": -3.5037, "vel_down_m_s": 0.4696, "battery_remain_pct": 79.1187}
{"t_rx_ms": 1773426462048, "run_id": "SIM_TEST", "seq": 162, "pitch_deg": -2.5042, "yaw_deg": 194.9391, "roll_deg": 5.1536, "lat_deg": 33.99342899289161, "lon_deg": -118.00487921689103, "altitude_rel_ft": 92.0844, "ground_speed_ft_s": 22.4695, "vel_north_m_s": 7.829, "vel_east_m_s": -6.9836, "vel_down_m_s": -0.1716, "battery_remain_pct": 86.7891}
{"t_rx_ms": 1773426462148, "run_id": "SIM_TEST", "seq": 163, "pitch_deg": -8.5568, "yaw_deg": 174.6222, "roll_deg": -10.789, "lat_deg": 34.00343399327776, "lon_deg": -118.00739309773999, "altitude_rel_ft": 77.1041, "ground_speed_ft_s": 48.7716, "vel_north_m_s": 1.0008, "vel_east_m_s": -0.0944, "vel_down_m_s": 0.024, "battery_remain_pct": 54.6982}
{"t_rx_ms": 1773426462248, "run_id": "SIM_TEST", "seq": 164, "pitch_deg": -8.1919, "yaw_deg": 7.8754, "roll_deg": 3.3716, "lat_deg": 33.99760817361564, "lon_deg": -118.0042069756655, "altitude_rel_ft": 44.1544, "ground_speed_ft_s": 12.3144, "vel_north_m_s": -3.7991, "vel_east_m_s": -1.5726, "vel_down_m_s": -0.3629, "battery_remain_pct": 80.9739}
{"t_rx_ms": 1773426462348, "run_id": "SIM_TEST", "seq": 165, "pitch_deg": -5.6014, "yaw_deg": 333.0386, "roll_deg": 10.5567, "lat_deg": 33.991281082698634, "lon_deg": -117.99397218098191, "altitude_rel_ft": 77.3131, "ground_speed_ft_s": 19.8466, "vel_north_m_s": -6.1202, "vel_east_m_s": 2.1521, "vel_down_m_s": 0.5869, "battery_remain_pct": 78.5652}
{"t_rx_ms": 1773426462449, "run_id": "SIM_TEST", "seq": 166, "pitch_deg": -7.5157, "yaw_deg": 183.3673, "roll_deg": -11.3318, "lat_deg": 34.00410567437949, "lon_deg": -118.00523009608439, "altitude_rel_ft": 50.3052, "ground_speed_ft_s": 30.5466, "vel_north_m_s": 5.817, "vel_east_m_s": 0.8002, "vel_down_m_s": -0.4117, "battery_remain_pct": 73.9431}
{"t_rx_ms": 1773426462549, "run_id": "SIM_TEST", "seq": 167, "pitch_deg": 1.2694, "yaw_deg": 210.3357, "roll_deg": 10.3651, "lat_deg": 34.003010000242085, "lon_deg": -117.99300049539887, "altitude_rel_ft": 44.5824, "ground_speed_ft_s": 11.8696, "vel_north_m_s": -6.9629, "vel_east_m_s": 5.3665, "vel_down_m_s": -0.3757, "battery_remain_pct": 99.1015}
{"t_rx_ms": 1773426462649, "run_id": "SIM_TEST", "seq": 168, "pitch_deg": 8.0482, "yaw_deg": 342.9231, "roll_deg": -9.7672, "lat_deg": 33.99657646674339, "lon_deg": -117.9976909748372, "altitude_rel_ft": 74.2451, "ground_speed_ft_s": 25.2842, "vel_north_m_s": -5.1509, "vel_east_m_s": 3.5905, "vel_down_m_s": 0.3695, "battery_remain_pct": 86.0314}
{"t_rx_ms": 1773426462749, "run_id": "SIM_TEST", "seq": 169, "pitch_deg": -2.8929, "yaw_deg": 39.9724, "roll_deg": -5.2275, "lat_deg": 33.99680899888977, "lon_deg": -117.99851914057687, "altitude_rel_ft": 56.9862, "ground_speed_ft_s": 32.63, "vel_north_m_s": -6.562, "vel_east_m_s": 7.4019, "vel_down_m_s": 0.4039, "battery_remain_pct": 60.5946}
{"t_rx_ms": 1773426462850, "run_id": "SIM_TEST", "seq": 170, "pitch_deg": -1.515, "yaw_deg": 189.8858, "roll_deg": 0.873, "lat_deg": 34.00880753792719, "lon_deg": -118.00127456776524, "altitude_rel_ft": 91.3288, "ground_speed_ft_s": 6.3207, "vel_north_m_s": -3.2045, "vel_east_m_s": 8.251, "vel_down_m_s": -0.1538, "battery_remain_pct": 89.8848}
{"t_rx_ms": 1773426462950, "run_id": "SIM_TEST", "seq": 171, "pitch_deg": -7.5886, "yaw_deg": 330.5756, "roll_deg": -11.7424, "lat_deg": 34.00217558910555, "lon_deg": -117.99058895179965, "altitude_rel_ft": 71.1118, "ground_speed_ft_s": 26.0968, "vel_north_m_s": -1.3273, "vel_east_m_s": -8.3553, "vel_down_m_s": 0.5689, "battery_remain_pct": 87.9733}
