{"t_rx_ms": 1773435199027, "run_id": "20260313_135209", "seq": 0, "pitch_deg": 5.3266, "yaw_deg": 82.0815, "roll_deg": 1.5861, "lat_deg": 34.0441697, "lon_deg": -117.8147288, "altitude_rel_ft": 0.269, "ground_speed_ft_s": 2.1576, "vel_north_m_s": 0.31, "vel_east_m_s": 0.58, "vel_down_m_s": 0.0, "battery_remain_pct": 9900.0}
{"t_rx_ms": 1773435199224, "run_id": "20260313_135209", "seq": 1, "pitch_deg": 5.3266, "yaw_deg": 82.0815, "roll_deg": 1.5861, "lat_deg": 34.0441697, "lon_deg": -117.8147288, "altitude_rel_ft": 0.269, "ground_speed_ft_s": 2.1576, "vel_north_m_s": 0.31, "vel_east_m_s": 0.58, "vel_down_m_s": 0.0, "battery_remain_pct": 9900.0}
{"t_rx_ms": 1773435199427, "run_id": "20260313_135209", "seq": 2, "pitch_deg": 5.3266, "yaw_deg": 82.0815, "roll_deg": 1.5861, "lat_deg": 34.0441697, "lon_deg": -117.8147288, "altitude_rel_ft": 0.269, "ground_speed_ft_s": 2.1576, "vel_north_m_s": 0.31, "vel_east_m_s": 0.58, "vel_down_m_s": 0.0, "battery_remain_pct": 9900.0}
{"t_rx_ms": 1773435199628, "run_id": "20260313_135209", "seq": 3, "pitch_deg": 5.2598, "yaw_deg": 81.989, "roll_deg": 0.88, "lat_deg": 34.044172599999996, "lon_deg": -117.8147218, "altitude_rel_ft": -0.1903, "ground_speed_ft_s": 2.6132, "vel_north_m_s": 0.38, "vel_east_m_s": 0.7, "vel_down_m_s": -0.03, "battery_remain_pct": 9900.0}
{"t_rx_ms": 1773435199829, "run_id": "20260313_135209", "seq": 4, "pitch_deg": 5.2598, "yaw_deg": 81.989, "roll_deg": 0.88, "lat_deg": 34.044172599999996, "lon_deg": -117.8147218, "altitude_rel_ft": -0.1903, "ground_speed_ft_s": 2.6132, "vel_north_m_s": 0.38, "vel_east_m_s": 0.7, "vel_down_m_s": -0.03, "battery_remain_pct": 9900.0}
{"t_rx_ms": 1773435200029, "run_id": "20260313_135209", "seq": 5, "pitch_deg": 5.2598, "yaw_deg": 81.989, "roll_deg": 0.88, "lat_deg": 34.044172599999996, "lon_deg": -117.8147218, "altitude_rel_ft": -0.1903, "ground_speed_ft_s": 2.6132, "vel_north_m_s": 0.38, "vel_east_m_s": 0.7, "vel_down_m_s": -0.03, "battery_remain_pct": 9900.0}
{"t_rx_ms": 1773435200231, "run_id": "20260313_135209", "seq": 6, "pitch_deg": 5.2598, "yaw_deg": 81.989, "roll_deg": 0.88, "lat_deg": 34.044172599999996, "lon_deg": -117.8147218, "altitude_rel_ft": -0.1903, "ground_speed_ft_s": 2.6132, "vel_north_m_s": 0.38, "vel_east_m_s": 0.7, "vel_down_m_s": -0.03, "battery_remain_pct": 9900.0}
{"t_rx_ms": 1773435200431, "run_id": "20260313_135209", "seq": 7, "pitch_deg": 5.2598, "yaw_deg": 81.989, "roll_deg": 0.88, "lat_deg": 34.044172599999996, "lon_deg": -117.8147218, "altitude_rel_ft": -0.1903, "ground_speed_ft_s": 2.6132, "vel_north_m_s": 0.38, "vel_east_m_s": 0.7, "vel_down_m_s": -0.03, "battery_remain_pct": 9900.0}
{"t_rx_ms": 1773435200632, "run_id": "20260313_135209", "seq": 8, "pitch_deg": 5.58, "yaw_deg": 81.9749, "roll_deg": 0.5231, "lat_deg": 34.0441766, "lon_deg": -117.8147113, "altitude_rel_ft": 0.0558, "ground_speed_ft_s": 3.4051, "vel_north_m_s": 0.44, "vel_east_m_s": 0.94, "vel_down_m_s": -0.03, "battery_remain_pct": 9900.0}
{"t_rx_ms": 1773435200832, "run_id": "20260313_135209", "seq": 9, "pitch_deg": 5.58, "yaw_deg": 81.9749, "roll_deg": 0.5231, "lat_deg": 34.0441766, "lon_deg": -117.8147113, "altitude_rel_ft": 0.0558, "ground_speed_ft_s": 3.4051, "vel_north_m_s": 0.44, "vel_east_m_s": 0.94, "vel_down_m_s": -0.03, "battery_remain_pct": 9900.0}
{"t_rx_ms": 1773435201032, "run_id": "20260313_135209", "seq": 10, "pitch_deg": 5.58, "yaw_deg": 81.9749, "roll_deg": 0.5231, "lat_deg": 34.0441766, "lon_deg": -117.8147113, "altitude_rel_ft": 0.0558, "ground_speed_ft_s": 3.4051, "vel_north_m_s": 0.44, "vel_east_m_s": 0.94, "vel_down_m_s": -0.03, "battery_remain_pct": 9900.0}
{"t_rx_ms": 1773435201233, "run_id": "20260313_135209", "seq": 11, "pitch_deg": 5.58, "yaw_deg": 81.9749, "roll_deg": 0.5231, "lat_deg": 34.0441766, "lon_deg": -117.8147113, "altitude_rel_ft": 0.0558, "ground_speed_ft_s": 3.4051, "vel_north_m_s": 0.44, "vel_east_m_s": 0.94, "vel_down_m_s": -0.03, "battery_remain_pct": 9900.0}
{"t_rx_ms": 1773435201434, "run_id": "20260313_135209", "seq": 12, "pitch_deg": 5.58, "yaw_deg": 81.9749, "roll_deg": 0.5231, "lat_deg": 34.0441766, "lon_deg": -117.8147113, "altitude_rel_ft": 0.0558, "ground_speed_ft_s": 3.4051, "vel_north_m_s": 0.44, "vel_east_m_s": 0.94, "vel_down_m_s": -0.03, "battery_remain_pct": 9900.0}
{"t_rx_ms": 1773435201634, "run_id": "20260313_135209", "seq": 13, "pitch_deg": 4.423, "yaw_deg": 82.0168, "roll_deg": 0.8863, "lat_deg": 34.0441813, "lon_deg": -117.81470039999999, "altitude_rel_ft": -0.0853, "ground_speed_ft_s": 3.8676, "vel_north_m_s": 0.64, "vel_east_m_s": 0.99, "vel_down_m_s": -0.05, "battery_remain_pct": 9900.0}
{"t_rx_ms": 1773435201834, "run_id": "20260313_135209", "seq": 14, "pitch_deg": 4.423, "yaw_deg": 82.0168, "roll_deg": 0.8863, "lat_deg": 34.0441813, "lon_deg": -117.81470039999999, "altitude_rel_ft": -0.0853, "ground_speed_ft_s": 3.8676, "vel_north_m_s": 0.64, "vel_east_m_s": 0.99, "vel_down_m_s": -0.05, "battery_remain_pct": 9900.0}
{"t_rx_ms": 1773435202035, "run_id": "20260313_135209", "seq": 15, "pitch_deg": 4.423, "yaw_deg": 82.0168, "roll_deg": 0.8863, "lat_deg": 34.0441813, "lon_deg": -117.81470039999999, "altitude_rel_ft": -0.0853, "ground_speed_ft_s": 3.8676, "vel_north_m_s": 0.64, "vel_east_m_s": 0.99, "vel_down_m_s": -0.05, "battery_remain_pct": 9900.0}
{"t_rx_ms": 1773435202235, "run_id": "20260313_135209", "seq": 16, "pitch_deg": 4.423, "yaw_deg": 82.0168, "roll_deg": 0.8863, "lat_deg": 34.0441813, "lon_deg": -117.81470039999999, "altitude_rel_ft": -0.0853, "ground_speed_ft_s": 3.8676, "vel_north_m_s": 0.64, "vel_east_m_s": 0.99, "vel_down_m_s": -0.05, "battery_remain_pct": 9900.0}
{"t_rx_ms": 1773435202436, "run_id": "20260313_135209", "seq": 17, "pitch_deg": 4.423, "yaw_deg": 82.0168, "roll_deg": 0.8863, "lat_deg": 34.0441813, "lon_deg": -117.81470039999999, "altitude_rel_ft": -0.0853, "ground_speed_ft_s": 3.8676, "vel_north_m_s": 0.64, "vel_east_m_s": 0.99, "vel_down_m_s": -0.05, "battery_remain_pct": 9900.0}
{"t_rx_ms": 1773435202636, "run_id": "20260313_135209", "seq": 18, "pitch_deg": 5.898, "yaw_deg": 82.1687, "roll_deg": 0.7225, "lat_deg": 34.0441851, "lon_deg": -117.8146883, "altitude_rel_ft": 0.5676, "ground_speed_ft_s": 3.5275, "vel_north_m_s": 0.34, "vel_east_m_s": 1.02, "vel_down_m_s": 0.0, "battery_remain_pct": 9900.0}
{"t_rx_ms": 1773435202837, "run_id": "20260313_135209", "seq": 19, "pitch_deg": 5.898, "yaw_deg": 82.1687, "roll_deg": 0.7225, "lat_deg": 34.0441851, "lon_deg": -117.8146883, "altitude_rel_ft": 0.5676, "ground_speed_ft_s": 3.5275, "vel_north_m_s": 0.34, "vel_east_m_s": 1.02, "vel_down_m_s": 0.0, "battery_remain_pct": 9900.0}
{"t_rx_ms": 1773435203037, "run_id": "20260313_135209", "seq": 20, "pitch_deg": 5.898, "yaw_deg": 82.1687, "roll_deg": 0.7225, "lat_deg": 34.0441851, "lon_deg": -117.8146883, "altitude_rel_ft": 0.5676, "ground_speed_ft_s": 3.5275, "vel_north_m_s": 0.34, "vel_east_m_s": 1.02, "vel_down_m_s": 0.0, "battery_remain_pct": 9900.0}
{"t_rx_ms": 1773435203238, "run_id": "20260313_135209", "seq": 21, "pitch_deg": 5.898, "yaw_deg": 82.1687, "roll_deg": 0.7225, "lat_deg": 34.0441851, "lon_deg": -117.8146883, "altitude_rel_ft": 0.5676, "ground_speed_ft_s": 3.5275, "vel_north_m_s": 0.34, "vel_east_m_s": 1.02, "vel_down_m_s": 0.0, "battery_remain_pct": 9900.0}
{"t_rx_ms": 1773435203438, "run_id": "20260313_135209", "seq": 22, "pitch_deg": 5.898, "yaw_deg": 82.1687, "roll_deg": 0.7225, "lat_deg": 34.0441851, "lon_deg": -117.8146883, "altitude_rel_ft": 0.5676, "ground_speed_ft_s": 3.5275, "vel_north_m_s": 0.34, "vel_east_m_s": 1.02, "vel_down_m_s": 0.0, "battery_remain_pct": 9900.0}
{"t_rx_ms": 1773435203643, "run_id": "20260313_135209", "seq": 23, "pitch_deg": 6.6781, "yaw_deg": 82.3364, "roll_deg": 0.6359, "lat_deg": 34.0441886, "lon_deg": -117.8146798, "altitude_rel_ft": 0.1444, "ground_speed_ft_s": 2.7294, "vel_north_m_s": 0.36, "vel_east_m_s": 0.75, "vel_down_m_s": 0.02, "battery_remain_pct": 9900.0}
{"t_rx_ms": 1773435203844, "run_id": "20260313_135209", "seq": 24, "pitch_deg": 6.6781, "yaw_deg": 82.3364, "roll_deg": 0.6359, "lat_deg": 34.0441886, "lon_deg": -117.8146798, "altitude_rel_ft": 0.1444, "ground_speed_ft_s": 2.7294, "vel_north_m_s": 0.36, "vel_east_m_s": 0.75, "vel_down_m_s": 0.02, "battery_remain_pct": 9900.0}
{"t_rx_ms": 1773435204045, "run_id": "20260313_135209", "seq": 25, "pitch_deg": 6.6781, "yaw_deg": 82.3364, "roll_deg": 0.6359, "lat_deg": 34.0441886, "lon_deg": -117.8146798, "altitude_rel_ft": 0.1444, "ground_speed_ft_s": 2.7294, "vel_north_m_s": 0.36, "vel_east_m_s": 0.75, "vel_down_m_s": 0.02, "battery_remain_pct": 9900.0}
{"t_rx_ms": 1773435204245, "run_id": "20260313_135209", "seq": 26, "pitch_deg": 6.6781, "yaw_deg": 82.3364, "roll_deg": 0.6359, "lat_deg": 34.0441886, "lon_deg": -117.8146798, "altitude_rel_ft": 0.1444, "ground_speed_ft_s": 2.7294, "vel_north_m_s": 0.36, "vel_east_m_s": 0.75, "vel_down_m_s": 0.02, "battery_remain_pct": 9900.0}
{"t_rx_ms": 1773435204447, "run_id": "20260313_135209", "seq": 27, "pitch_deg": 6.8308, "yaw_deg": 82.4732, "roll_deg": 0.5737, "lat_deg": 34.0441886, "lon_deg": -117.8146798, "altitude_rel_ft": 0.1444, "ground_speed_ft_s": 2.7294, "vel_north_m_s": 0.36, "vel_east_m_s": 0.75, "vel_down_m_s": 0.02, "battery_remain_pct": 9900.0}
{"t_rx_ms": 1773435204647, "run_id": "20260313_135209", "seq": 28, "pitch_deg": 6.8308, "yaw_deg": 82.4732, "roll_deg": 0.5737, "lat_deg": 34.044191399999995, "lon_deg": -117.8146707, "altitude_rel_ft": -0.1345, "ground_speed_ft_s": 2.8536, "vel_north_m_s": 0.26, "vel_east_m_s": 0.83, "vel_down_m_s": 0.01, "battery_remain_pct": 9900.0}
{"t_rx_ms": 1773435204847, "run_id": "20260313_135209", "seq": 29, "pitch_deg": 6.8308, "yaw_deg": 82.4732, "roll_deg": 0.5737, "lat_deg": 34.044191399999995, "lon_deg": -117.8146707, "altitude_rel_ft": -0.1345, "ground_speed_ft_s": 2.8536, "vel_north_m_s": 0.26, "vel_east_m_s": 0.83, "vel_down_m_s": 0.01, "battery_remain_pct": 9900.0}
{"t_rx_ms": 1773435205048, "run_id": "20260313_135209", "seq": 30, "pitch_deg": 6.8308, "yaw_deg": 82.4732, "roll_deg": 0.5737, "lat_deg": 34.044191399999995, "lon_deg": -117.8146707, "altitude_rel_ft": -0.1345, "ground_speed_ft_s": 2.8536, "vel_north_m_s": 0.26, "vel_east_m_s": 0.83, "vel_down_m_s": 0.01, "battery_remain_pct": 9900.0}
{"t_rx_ms": 1773435205248, "run_id": "20260313_135209", "seq": 31, "pitch_deg": 6.8308, "yaw_deg": 82.4732, "roll_deg": 0.5737, "lat_deg": 34.044191399999995, "lon_deg": -117.8146707, "altitude_rel_ft": -0.1345, "ground_speed_ft_s": 2.8536, "vel_north_m_s": 0.26, "vel_east_m_s": 0.83, "vel_down_m_s": 0.01, "battery_remain_pct": 9900.0}
{"t_rx_ms": 1773435205450, "run_id": "20260313_135209", "seq": 32, "pitch_deg": 7.1521, "yaw_deg": 82.4721, "roll_deg": 0.4154, "lat_deg": 34.044194399999995, "lon_deg": -117.8146622, "altitude_rel_ft": -0.1345, "ground_speed_ft_s": 2.8647, "vel_north_m_s": 0.3, "vel_east_m_s": 0.82, "vel_down_m_s": 0.0, "battery_remain_pct": 9900.0}
{"t_rx_ms": 1773435205652, "run_id": "20260313_135209", "seq": 33, "pitch_deg": 7.1521, "yaw_deg": 82.4721, "roll_deg": 0.4154, "lat_deg": 34.044194399999995, "lon_deg": -117.8146622, "altitude_rel_ft": -0.1345, "ground_speed_ft_s": 2.8647, "vel_north_m_s": 0.3, "vel_east_m_s": 0.82, "vel_down_m_s": 0.0, "battery_remain_pct": 9900.0}
{"t_rx_ms": 1773435205853, "run_id": "20260313_135209", "seq": 34, "pitch_deg": 7.1521, "yaw_deg": 82.4721, "roll_deg": 0.4154, "lat_deg": 34.044194399999995, "lon_deg": -117.8146622, "altitude_rel_ft": -0.1345, "ground_speed_ft_s": 2.8647, "vel_north_m_s": 0.3, "vel_east_m_s": 0.82, "vel_down_m_s": 0.0, "battery_remain_pct": 9900.0}
{"t_rx_ms": 1773435206054, "run_id": "20260313_135209", "seq": 35, "pitch_deg": 7.1521, "yaw_deg": 82.4721, "roll_deg": 0.4154, "lat_deg": 34.044194399999995, "lon_deg": -117.8146622, "altitude_rel_ft": -0.1345, "ground_speed_ft_s": 2.8647, "vel_north_m_s": 0.3, "vel_east_m_s": 0.82, "vel_down_m_s": 0.0, "battery_remain_pct": 9900.0}
{"t_rx_ms": 1773435206255, "run_id": "20260313_135209", "seq": 36, "pitch_deg": 7.1521, "yaw_deg": 82.4721, "roll_deg": 0.4154, "lat_deg": 34.044194399999995, "lon_deg": -117.8146622, "altitude_rel_ft": -0.1345, "ground_speed_ft_s": 2.8647, "vel_north_m_s": 0.3, "vel_east_m_s": 0.82, "vel_down_m_s": 0.0, "battery_remain_pct": 9900.0}
{"t_rx_ms": 1773435206456, "run_id": "20260313_135209", "seq": 37, "pitch_deg": 7.3323, "yaw_deg": 82.2454, "roll_deg": 0.9288, "lat_deg": 34.0441985, "lon_deg": -117.81465299999999, "altitude_rel_ft": 0.2986, "ground_speed_ft_s": 2.9668, "vel_north_m_s": 0.49, "vel_east_m_s": 0.76, "vel_down_m_s": 0.07, "battery_remain_pct": 9900.0}
{"t_rx_ms": 1773435206657, "run_id": "20260313_135209", "seq": 38, "pitch_deg": 7.3323, "yaw_deg": 82.2454, "roll_deg": 0.9288, "lat_deg": 34.0441985, "lon_deg": -117.81465299999999, "altitude_rel_ft": 0.2986, "ground_speed_ft_s": 2.9668, "vel_north_m_s": 0.49, "vel_east_m_s": 0.76, "vel_down_m_s": 0.07, "battery_remain_pct": 9900.0}
{"t_rx_ms": 1773435206858, "run_id": "20260313_135209", "seq": 39, "pitch_deg": 7.3323, "yaw_deg": 82.2454, "roll_deg": 0.9288, "lat_deg": 34.0441985, "lon_deg": -117.81465299999999, "altitude_rel_ft": 0.2986, "ground_speed_ft_s": 2.9668, "vel_north_m_s": 0.49, "vel_east_m_s": 0.76, "vel_down_m_s": 0.07, "battery_remain_pct": 9900.0}
{"t_rx_ms": 1773435207059, "run_id": "20260313_135209", "seq": 40, "pitch_deg": 7.3323, "yaw_deg": 82.2454, "roll_deg": 0.9288, "lat_deg": 34.0441985, "lon_deg": -117.81465299999999, "altitude_rel_ft": 0.2986, "ground_speed_ft_s": 2.9668, "vel_north_m_s": 0.49, "vel_east_m_s": 0.76, "vel_down_m_s": 0.07, "battery_remain_pct": 9900.0}
{"t_rx_ms": 1773435207260, "run_id": "20260313_135209", "seq": 41, "pitch_deg": 7.3323, "yaw_deg": 82.2454, "roll_deg": 0.9288, "lat_deg": 34.0441985, "lon_deg": -117.81465299999999, "altitude_rel_ft": 0.2986, "ground_speed_ft_s": 2.9668, "vel_north_m_s": 0.49, "vel_east_m_s": 0.76, "vel_down_m_s": 0.07, "battery_remain_pct": 9900.0}
{"t_rx_ms": 1773435207460, "run_id": "20260313_135209", "seq": 42, "pitch_deg": 7.5079, "yaw_deg": 82.1453, "roll_deg": 0.9263, "lat_deg": 34.044201099999995, "lon_deg": -117.81464559999999, "altitude_rel_ft": -0.1148, "ground_speed_ft_s": 2.26, "vel_north_m_s": 0.32, "vel_east_m_s": 0.61, "vel_down_m_s": 0.01, "battery_remain_pct": 9900.0}
{"t_rx_ms": 1773435207661, "run_id": "20260313_135209", "seq": 43, "pitch_deg": 7.5079, "yaw_deg": 82.1453, "roll_deg": 0.9263, "lat_deg": 34.044201099999995, "lon_deg": -117.81464559999999, "altitude_rel_ft": -0.1148, "ground_speed_ft_s": 2.26, "vel_north_m_s": 0.32, "vel_east_m_s": 0.61, "vel_down_m_s": 0.01, "battery_remain_pct": 9900.0}
{"t_rx_ms": 1773435207862, "run_id": "20260313_135209", "seq": 44, "pitch_deg": 7.5079, "yaw_deg": 82.1453, "roll_deg": 0.9263, "lat_deg": 34.044201099999995, "lon_deg": -117.81464559999999, "altitude_rel_ft": -0.1148, "ground_speed_ft_s": 2.26, "vel_north_m_s": 0.32, "vel_east_m_s": 0.61, "vel_down_m_s": 0.01, "battery_remain_pct": 9900.0}
{"t_rx_ms": 1773435208066, "run_id": "20260313_135209", "seq": 45, "pitch_deg": 7.5079, "yaw_deg": 82.1453, "roll_deg": 0.9263, "lat_deg": 34.044201099999995, "lon_deg": -117.81464559999999, "altitude_rel_ft": -0.1148, "ground_speed_ft_s": 2.26, "vel_north_m_s": 0.32, "vel_east_m_s": 0.61, "vel_down_m_s": 0.01, "battery_remain_pct": 9900.0}
{"t_rx_ms": 1773435208266, "run_id": "20260313_135209", "seq": 46, "pitch_deg": 7.5079, "yaw_deg": 82.1453, "roll_deg": 0.9263, "lat_deg": 34.044201099999995, "lon_deg": -117.81464559999999, "altitude_rel_ft": -0.1148, "ground_speed_ft_s": 2.26, "vel_north_m_s": 0.32, "vel_east_m_s": 0.61, "vel_down_m_s": 0.01, "battery_remain_pct": 9900.0}
{"t_rx_ms": 1773435208466, "run_id": "20260313_135209", "seq": 47, "pitch_deg": 8.0842, "yaw_deg": 82.069, "roll_deg": 0.5105, "lat_deg": 34.0442033, "lon_deg": -117.8146393, "altitude_rel_ft": 0.0066, "ground_speed_ft_s": 2.1933, "vel_north_m_s": 0.25, "vel_east_m_s": 0.62, "vel_down_m_s": 0.03, "battery_remain_pct": 9900.0}
{"t_rx_ms": 1773435208667, "run_id": "20260313_135209", "seq": 48, "pitch_deg": 8.0842, "yaw_deg": 82.069, "roll_deg": 0.5105, "lat_deg": 34.0442033, "lon_deg": -117.8146393, "altitude_rel_ft": 0.0066, "ground_speed_ft_s": 2.1933, "vel_north_m_s": 0.25, "vel_east_m_s": 0.62, "vel_down_m_s": 0.03, "battery_remain_pct": 9900.0}
{"t_rx_ms": 1773435208867, "run_id": "20260313_135209", "seq": 49, "pitch_deg": 8.0842, "yaw_deg": 82.069, "roll_deg": 0.5105, "lat_deg": 34.0442033, "lon_deg": -117.8146393, "altitude_rel_ft": 0.0066, "ground_speed_ft_s": 2.1933, "vel_north_m_s": 0.25, "vel_east_m_s": 0.62, "vel_down_m_s": 0.03, "battery_remain_pct": 9900.0}
{"t_rx_ms": 1773435209068, "run_id": "20260313_135209", "seq": 50, "pitch_deg": 8.0842, "yaw_deg": 82.069, "roll_deg": 0.5105, "lat_deg": 34.0442033, "lon_deg": -117.8146393, "altitude_rel_ft": 0.0066, "ground_speed_ft_s": 2.1933, "vel_north_m_s": 0.25, "vel_east_m_s": 0.62, "vel_down_m_s": 0.03, "battery_remain_pct": 9900.0}
{"t_rx_ms": 1773435209269, "run_id": "20260313_135209", "seq": 51, "pitch_deg": 8.0842, "yaw_deg": 82.069, "roll_deg": 0.5105, "lat_deg": 34.0442033, "lon_deg": -117.8146393, "altitude_rel_ft": 0.0066, "ground_speed_ft_s": 2.1933, "vel_north_m_s": 0.25, "vel_east_m_s": 0.62, "vel_down_m_s": 0.03, "battery_remain_pct": 9900.0}
{"t_rx_ms": 1773435209470, "run_id": "20260313_135209", "seq": 52, "pitch_deg": 7.9082, "yaw_deg": 81.8399, "roll_deg": 0.8626, "lat_deg": 34.0442063, "lon_deg": -117.81463169999999, "altitude_rel_ft": 0.2887, "ground_speed_ft_s": 2.4735, "vel_north_m_s": 0.28, "vel_east_m_s": 0.7, "vel_down_m_s": 0.04, "battery_remain_pct": 9900.0}
{"t_rx_ms": 1773435209670, "run_id": "20260313_135209", "seq": 53, "pitch_deg": 7.9082, "yaw_deg": 81.8399, "roll_deg": 0.8626, "lat_deg": 34.0442063, "lon_deg": -117.81463169999999, "altitude_rel_ft": 0.2887, "ground_speed_ft_s": 2.4735, "vel_north_m_s": 0.28, "vel_east_m_s": 0.7, "vel_down_m_s": 0.04, "battery_remain_pct": 9900.0}
{"t_rx_ms": 1773435209871, "run_id": "20260313_135209", "seq": 54, "pitch_deg": 7.9082, "yaw_deg": 81.8399, "roll_deg": 0.8626, "lat_deg": 34.0442063, "lon_deg": -117.81463169999999, "altitude_rel_ft": 0.2887, "ground_speed_ft_s": 2.4735, "vel_north_m_s": 0.28, "vel_east_m_s": 0.7, "vel_down_m_s": 0.04, "battery_remain_pct": 9900.0}
{"t_rx_ms": 1773435210072, "run_id": "20260313_135209", "seq": 55, "pitch_deg": 7.9082, "yaw_deg": 81.8399, "roll_deg": 0.8626, "lat_deg": 34.0442063, "lon_deg": -117.81463169999999, "altitude_rel_ft": 0.2887, "ground_speed_ft_s": 2.4735, "vel_north_m_s": 0.28, "vel_east_m_s": 0.7, "vel_down_m_s": 0.04, "battery_remain_pct": 9900.0}
{"t_rx_ms": 1773435210272, "run_id": "20260313_135209", "seq": 56, "pitch_deg": 7.9082, "yaw_deg": 81.8399, "roll_deg": 0.8626, "lat_deg": 34.0442063, "lon_deg": -117.81463169999999, "altitude_rel_ft": 0.2887, "ground_speed_ft_s": 2.4735, "vel_north_m_s": 0.28, "vel_east_m_s": 0.7, "vel_down_m_s": 0.04, "battery_remain_pct": 9900.0}
{"t_rx_ms": 1773435210474, "run_id": "20260313_135209", "seq": 57, "pitch_deg": 7.7488, "yaw_deg": 81.7529, "roll_deg": 0.8238, "lat_deg": 34.0442095, "lon_deg": -117.81462479999999, "altitude_rel_ft": 0.105, "ground_speed_ft_s": 2.4685, "vel_north_m_s": 0.3, "vel_east_m_s": 0.69, "vel_down_m_s": 0.01, "battery_remain_pct": 9900.0}
{"t_rx_ms": 1773435210675, "run_id": "20260313_135209", "seq": 58, "pitch_deg": 7.7488, "yaw_deg": 81.7529, "roll_deg": 0.8238, "lat_deg": 34.0442095, "lon_deg": -117.81462479999999, "altitude_rel_ft": 0.105, "ground_speed_ft_s": 2.4685, "vel_north_m_s": 0.3, "vel_east_m_s": 0.69, "vel_down_m_s": 0.01, "battery_remain_pct": 9900.0}
{"t_rx_ms": 1773435210875, "run_id": "20260313_135209", "seq": 59, "pitch_deg": 7.7488, "yaw_deg": 81.7529, "roll_deg": 0.8238, "lat_deg": 34.0442095, "lon_deg": -117.81462479999999, "altitude_rel_ft": 0.105, "ground_speed_ft_s": 2.4685, "vel_north_m_s": 0.3, "vel_east_m_s": 0.69, "vel_down_m_s": 0.01, "battery_remain_pct": 9900.0}
{"t_rx_ms": 1773435211076, "run_id": "20260313_135209", "seq": 60, "pitch_deg": 7.7488, "yaw_deg": 81.7529, "roll_deg": 0.8238, "lat_deg": 34.0442095, "lon_deg": -117.81462479999999, "altitude_rel_ft": 0.105, "ground_speed_ft_s": 2.4685, "vel_north_m_s": 0.3, "vel_east_m_s": 0.69, "vel_down_m_s": 0.01, "battery_remain_pct": 9900.0}
{"t_rx_ms": 1773435211276, "run_id": "20260313_135209", "seq": 61, "pitch_deg": 7.7488, "yaw_deg": 81.7529, "roll_deg": 0.8238, "lat_deg": 34.0442095, "lon_deg": -117.81462479999999, "altitude_rel_ft": 0.105, "ground_speed_ft_s": 2.4685, "vel_north_m_s": 0.3, "vel_east_m_s": 0.69, "vel_down_m_s": 0.01, "battery_remain_pct": 9900.0}
{"t_rx_ms": 1773435211477, "run_id": "20260313_135209", "seq": 62, "pitch_deg": 6.9271, "yaw_deg": 81.6265, "roll_deg": 1.0669, "lat_deg": 34.0442131, "lon_deg": -117.8146149, "altitude_rel_ft": 0.4035, "ground_speed_ft_s": 3.4485, "vel_north_m_s": 0.38, "vel_east_m_s": 0.98, "vel_down_m_s": -0.07, "battery_remain_pct": 9900.0}
{"t_rx_ms": 1773435211678, "run_id": "20260313_135209", "seq": 63, "pitch_deg": 6.9271, "yaw_deg": 81.6265, "roll_deg": 1.0669, "lat_deg": 34.0442131, "lon_deg": -117.8146149, "altitude_rel_ft": 0.4035, "ground_speed_ft_s": 3.4485, "vel_north_m_s": 0.38, "vel_east_m_s": 0.98, "vel_down_m_s": -0.07, "battery_remain_pct": 9900.0}
{"t_rx_ms": 1773435211878, "run_id": "20260313_135209", "seq": 64, "pitch_deg": 6.9271, "yaw_deg": 81.6265, "roll_deg": 1.0669, "lat_deg": 34.0442131, "lon_deg": -117.8146149, "altitude_rel_ft": 0.4035, "ground_speed_ft_s": 3.4485, "vel_north_m_s": 0.38, "vel_east_m_s": 0.98, "vel_down_m_s": -0.07, "battery_remain_pct": 9900.0}
{"t_rx_ms": 1773435212078, "run_id": "20260313_135209", "seq": 65, "pitch_deg": 6.9271, "yaw_deg": 81.6265, "roll_deg": 1.0669, "lat_deg": 34.0442131, "lon_deg": -117.8146149, "altitude_rel_ft": 0.4035, "ground_speed_ft_s": 3.4485, "vel_north_m_s": 0.38, "vel_east_m_s": 0.98, "vel_down_m_s": -0.07, "battery_remain_pct": 9900.0}
{"t_rx_ms": 1773435212279, "run_id": "20260313_135209", "seq": 66, "pitch_deg": 6.9271, "yaw_deg": 81.6265, "roll_deg": 1.0669, "lat_deg": 34.0442131, "lon_deg": -117.8146149, "altitude_rel_ft": 0.4035, "ground_speed_ft_s": 3.4485, "vel_north_m_s": 0.38, "vel_east_m_s": 0.98, "vel_down_m_s": -0.07, "battery_remain_pct": 9900.0}
{"t_rx_ms": 1773435212481, "run_id": "20260313_135209", "seq": 67, "pitch_deg": 6.7886, "yaw_deg": 81.6727, "roll_deg": 0.5216, "lat_deg": 34.0442173, "lon_deg": -117.8146051, "altitude_rel_ft": 0.3543, "ground_speed_ft_s": 3.5214, "vel_north_m_s": 0.48, "vel_east_m_s": 0.96, "vel_down_m_s": 0.06, "battery_remain_pct": 9900.0}
{"t_rx_ms": 1773435212681, "run_id": "20260313_135209", "seq": 68, "pitch_deg": 6.7886, "yaw_deg": 81.6727, "roll_deg": 0.5216, "lat_deg": 34.0442173, "lon_deg": -117.8146051, "altitude_rel_ft": 0.3543, "ground_speed_ft_s": 3.5214, "vel_north_m_s": 0.48, "vel_east_m_s": 0.96, "vel_down_m_s": 0.06, "battery_remain_pct": 9900.0}
{"t_rx_ms": 1773435212882, "run_id": "20260313_135209", "seq": 69, "pitch_deg": 6.7886, "yaw_deg": 81.6727, "roll_deg": 0.5216, "lat_deg": 34.0442173, "lon_deg": -117.8146051, "altitude_rel_ft": 0.3543, "ground_speed_ft_s": 3.5214, "vel_north_m_s": 0.48, "vel_east_m_s": 0.96, "vel_down_m_s": 0.06, "battery_remain_pct": 9900.0}
{"t_rx_ms": 1773435213084, "run_id": "20260313_135209", "seq": 70, "pitch_deg": 6.7886, "yaw_deg": 81.6727, "roll_deg": 0.5216, "lat_deg": 34.0442173, "lon_deg": -117.8146051, "altitude_rel_ft": 0.3543, "ground_speed_ft_s": 3.5214, "vel_north_m_s": 0.48, "vel_east_m_s": 0.96, "vel_down_m_s": 0.06, "battery_remain_pct": 9900.0}
{"t_rx_ms": 1773435213285, "run_id": "20260313_135209", "seq": 71, "pitch_deg": 6.7886, "yaw_deg": 81.6727, "roll_deg": 0.5216, "lat_deg": 34.0442173, "lon_deg": -117.8146051, "altitude_rel_ft": 0.3543, "ground_speed_ft_s": 3.5214, "vel_north_m_s": 0.48, "vel_east_m_s": 0.96, "vel_down_m_s": 0.06, "battery_remain_pct": 9900.0}
{"t_rx_ms": 1773435213485, "run_id": "20260313_135209", "seq": 72, "pitch_deg": 5.8171, "yaw_deg": 81.4778, "roll_deg": 0.6681, "lat_deg": 34.0442223, "lon_deg": -117.8145926, "altitude_rel_ft": 0.771, "ground_speed_ft_s": 4.2575, "vel_north_m_s": 0.54, "vel_east_m_s": 1.18, "vel_down_m_s": -0.06, "battery_remain_pct": 9900.0}
{"t_rx_ms": 1773435213686, "run_id": "20260313_135209", "seq": 73, "pitch_deg": 5.8171, "yaw_deg": 81.4778, "roll_deg": 0.6681, "lat_deg": 34.0442223, "lon_deg": -117.8145926, "altitude_rel_ft": 0.771, "ground_speed_ft_s": 4.2575, "vel_north_m_s": 0.54, "vel_east_m_s": 1.18, "vel_down_m_s": -0.06, "battery_remain_pct": 9900.0}
{"t_rx_ms": 1773435213887, "run_id": "20260313_135209", "seq": 74, "pitch_deg": 5.8171, "yaw_deg": 81.4778, "roll_deg": 0.6681, "lat_deg": 34.0442223, "lon_deg": -117.8145926, "altitude_rel_ft": 0.771, "ground_speed_ft_s": 4.2575, "vel_north_m_s": 0.54, "vel_east_m_s": 1.18, "vel_down_m_s": -0.06, "battery_remain_pct": 9900.0}
{"t_rx_ms": 1773435214087, "run_id": "20260313_135209", "seq": 75, "pitch_deg": 5.8171, "yaw_deg": 81.4778, "roll_deg": 0.6681, "lat_deg": 34.0442223, "lon_deg": -117.8145926, "altitude_rel_ft": 0.771, "ground_speed_ft_s": 4.2575, "vel_north_m_s": 0.54, "vel_east_m_s": 1.18, "vel_down_m_s": -0.06, "battery_remain_pct": 9900.0}
{"t_rx_ms": 1773435214288, "run_id": "20260313_135209", "seq": 76, "pitch_deg": 5.8171, "yaw_deg": 81.4778, "roll_deg": 0.6681, "lat_deg": 34.0442223, "lon_deg": -117.8145926, "altitude_rel_ft": 0.771, "ground_speed_ft_s": 4.2575, "vel_north_m_s": 0.54, "vel_east_m_s": 1.18, "vel_down_m_s": -0.06, "battery_remain_pct": 9900.0}
{"t_rx_ms": 1773435214489, "run_id": "20260313_135209", "seq": 77, "pitch_deg": 5.4785, "yaw_deg": 80.9583, "roll_deg": 1.4335, "lat_deg": 34.0442277, "lon_deg": -117.81457999999999, "altitude_rel_ft": -0.3445, "ground_speed_ft_s": 4.299, "vel_north_m_s": 0.59, "vel_east_m_s": 1.17, "vel_down_m_s": 0.02, "battery_remain_pct": 9900.0}
{"t_rx_ms": 1773435214690, "run_id": "20260313_135209", "seq": 78, "pitch_deg": 5.4785, "yaw_deg": 80.9583, "roll_deg": 1.4335, "lat_deg": 34.0442277, "lon_deg": -117.81457999999999, "altitude_rel_ft": -0.3445, "ground_speed_ft_s": 4.299, "vel_north_m_s": 0.59, "vel_east_m_s": 1.17, "vel_down_m_s": 0.02, "battery_remain_pct": 9900.0}
{"t_rx_ms": 1773435214891, "run_id": "20260313_135209", "seq": 79, "pitch_deg": 5.4785, "yaw_deg": 80.9583, "roll_deg": 1.4335, "lat_deg": 34.0442277, "lon_deg": -117.81457999999999, "altitude_rel_ft": -0.3445, "ground_speed_ft_s": 4.299, "vel_north_m_s": 0.59, "vel_east_m_s": 1.17, "vel_down_m_s": 0.02, "battery_remain_pct": 9900.0}
{"t_rx_ms": 1773435215091, "run_id": "20260313_135209", "seq": 80, "pitch_deg": 5.4785, "yaw_deg": 80.9583, "roll_deg": 1.4335, "lat_deg": 34.0442277, "lon_deg": -117.81457999999999, "altitude_rel_ft": -0.3445, "ground_speed_ft_s": 4.299, "vel_north_m_s": 0.59, "vel_east_m_s": 1.17, "vel_down_m_s": 0.02, "battery_remain_pct": 9900.0}
{"t_rx_ms": 1773435215293, "run_id": "20260313_135209", "seq": 81, "pitch_deg": 5.4785, "yaw_deg": 80.9583, "roll_deg": 1.4335, "lat_deg": 34.0442277, "lon_deg": -117.81457999999999, "altitude_rel_ft": -0.3445, "ground_speed_ft_s": 4.299, "vel_north_m_s": 0.59, "vel_east_m_s": 1.17, "vel_down_m_s": 0.02, "battery_remain_pct": 9900.0}
{"t_rx_ms": 1773435215493, "run_id": "20260313_135209", "seq": 82, "pitch_deg": 5.8818, "yaw_deg": 80.6357, "roll_deg": 0.9657, "lat_deg": 34.044233, "lon_deg": -117.814567, "altitude_rel_ft": 0.0853, "ground_speed_ft_s": 4.2698, "vel_north_m_s": 0.59, "vel_east_m_s": 1.16, "vel_down_m_s": -0.07, "battery_remain_pct": 9900.0}
{"t_rx_ms": 1773435215693, "run_id": "20260313_135209", "seq": 83, "pitch_deg": 5.8818, "yaw_deg": 80.6357, "roll_deg": 0.9657, "lat_deg": 34.044233, "lon_deg": -117.814567, "altitude_rel_ft": 0.0853, "ground_speed_ft_s": 4.2698, "vel_north_m_s": 0.59, "vel_east_m_s": 1.16, "vel_down_m_s": -0.07, "battery_remain_pct": 9900.0}
{"t_rx_ms": 1773435215894, "run_id": "20260313_135209", "seq": 84, "pitch_deg": 5.8818, "yaw_deg": 80.6357, "roll_deg": 0.9657, "lat_deg": 34.044233, "lon_deg": -117.814567, "altitude_rel_ft": 0.0853, "ground_speed_ft_s": 4.2698, "vel_north_m_s": 0.59, "vel_east_m_s": 1.16, "vel_down_m_s": -0.07, "battery_remain_pct": 9900.0}
{"t_rx_ms": 1773435216095, "run_id": "20260313_135209", "seq": 85, "pitch_deg": 5.8818, "yaw_deg": 80.6357, "roll_deg": 0.9657, "lat_deg": 34.044233, "lon_deg": -117.814567, "altitude_rel_ft": 0.0853, "ground_speed_ft_s": 4.2698, "vel_north_m_s": 0.59, "vel_east_m_s": 1.16, "vel_down_m_s": -0.07, "battery_remain_pct": 9900.0}
{"t_rx_ms": 1773435216295, "run_id": "20260313_135209", "seq": 86, "pitch_deg": 5.8818, "yaw_deg": 80.6357, "roll_deg": 0.9657, "lat_deg": 34.044233, "lon_deg": -117.814567, "altitude_rel_ft": 0.0853, "ground_speed_ft_s": 4.2698, "vel_north_m_s": 0.59, "vel_east_m_s": 1.16, "vel_down_m_s": -0.07, "battery_remain_pct": 9900.0}
{"t_rx_ms": 1773435216501, "run_id": "20260313_135209", "seq": 87, "pitch_deg": 4.9944, "yaw_deg": 80.1642, "roll_deg": 0.8985, "lat_deg": 34.044238899999996, "lon_deg": -117.8145538, "altitude_rel_ft": 0.3642, "ground_speed_ft_s": 4.5538, "vel_north_m_s": 0.68, "vel_east_m_s": 1.21, "vel_down_m_s": 0.01, "battery_remain_pct": 9900.0}
{"t_rx_ms": 1773435216699, "run_id": "20260313_135209", "seq": 88, "pitch_deg": 4.9944, "yaw_deg": 80.1642, "roll_deg": 0.8985, "lat_deg": 34.044238899999996, "lon_deg": -117.8145538, "altitude_rel_ft": 0.3642, "ground_speed_ft_s": 4.5538, "vel_north_m_s": 0.68, "vel_east_m_s": 1.21, "vel_down_m_s": 0.01, "battery_remain_pct": 9900.0}
{"t_rx_ms": 1773435216899, "run_id": "20260313_135209", "seq": 89, "pitch_deg": 4.9944, "yaw_deg": 80.1642, "roll_deg": 0.8985, "lat_deg": 34.044238899999996, "lon_deg": -117.8145538, "altitude_rel_ft": 0.3642, "ground_speed_ft_s": 4.5538, "vel_north_m_s": 0.68, "vel_east_m_s": 1.21, "vel_down_m_s": 0.01, "battery_remain_pct": 9900.0}
{"t_rx_ms": 1773435217100, "run_id": "20260313_135209", "seq": 90, "pitch_deg": 4.9944, "yaw_deg": 80.1642, "roll_deg": 0.8985, "lat_deg": 34.044238899999996, "lon_deg": -117.8145538, "altitude_rel_ft": 0.3642, "ground_speed_ft_s": 4.5538, "vel_north_m_s": 0.68, "vel_east_m_s": 1.21, "vel_down_m_s": 0.01, "battery_remain_pct": 9900.0}
{"t_rx_ms": 1773435217300, "run_id": "20260313_135209", "seq": 91, "pitch_deg": 4.9944, "yaw_deg": 80.1642, "roll_deg": 0.8985, "lat_deg": 34.044238899999996, "lon_deg": -117.8145538, "altitude_rel_ft": 0.3642, "ground_speed_ft_s": 4.5538, "vel_north_m_s": 0.68, "vel_east_m_s": 1.21, "vel_down_m_s": 0.01, "battery_remain_pct": 9900.0}
{"t_rx_ms": 1773435217501, "run_id": "20260313_135209", "seq": 92, "pitch_deg": 5.6848, "yaw_deg": 79.5641, "roll_deg": 0.7868, "lat_deg": 34.0442446, "lon_deg": -117.8145387, "altitude_rel_ft": 0.7218, "ground_speed_ft_s": 5.14, "vel_north_m_s": 0.64, "vel_east_m_s": 1.43, "vel_down_m_s": 0.01, "battery_remain_pct": 9900.0}
{"t_rx_ms": 1773435217702, "run_id": "20260313_135209", "seq": 93, "pitch_deg": 5.6848, "yaw_deg": 79.5641, "roll_deg": 0.7868, "lat_deg": 34.0442446, "lon_deg": -117.8145387, "altitude_rel_ft": 0.7218, "ground_speed_ft_s": 5.14, "vel_north_m_s": 0.64, "vel_east_m_s": 1.43, "vel_down_m_s": 0.01, "battery_remain_pct": 9900.0}
{"t_rx_ms": 1773435217903, "run_id": "20260313_135209", "seq": 94, "pitch_deg": 5.6848, "yaw_deg": 79.5641, "roll_deg": 0.7868, "lat_deg": 34.0442446, "lon_deg": -117.8145387, "altitude_rel_ft": 0.7218, "ground_speed_ft_s": 5.14, "vel_north_m_s": 0.64, "vel_east_m_s": 1.43, "vel_down_m_s": 0.01, "battery_remain_pct": 9900.0}
{"t_rx_ms": 1773435218103, "run_id": "20260313_135209", "seq": 95, "pitch_deg": 5.6848, "yaw_deg": 79.5641, "roll_deg": 0.7868, "lat_deg": 34.0442446, "lon_deg": -117.8145387, "altitude_rel_ft": 0.7218, "ground_speed_ft_s": 5.14, "vel_north_m_s": 0.64, "vel_east_m_s": 1.43, "vel_down_m_s": 0.01, "battery_remain_pct": 9900.0}
{"t_rx_ms": 1773435218303, "run_id": "20260313_135209", "seq": 96, "pitch_deg": 5.6848, "yaw_deg": 79.5641, "roll_deg": 0.7868, "lat_deg": 34.0442446, "lon_deg": -117.8145387, "altitude_rel_ft": 0.7218, "ground_speed_ft_s": 5.14, "vel_north_m_s": 0.64, "vel_east_m_s": 1.43, "vel_down_m_s": 0.01, "battery_remain_pct": 9900.0}
{"t_rx_ms": 1773435218504, "run_id": "20260313_135209", "seq": 97, "pitch_deg": 5.8141, "yaw_deg": 79.0564, "roll_deg": 0.5162, "lat_deg": 34.0442517, "lon_deg": -117.814523, "altitude_rel_ft": 0.3182, "ground_speed_ft_s": 5.313, "vel_north_m_s": 0.76, "vel_east_m_s": 1.43, "vel_down_m_s": 0.03, "battery_remain_pct": 9900.0}
{"t_rx_ms": 1773435218704, "run_id": "20260313_135209", "seq": 98, "pitch_deg": 5.8141, "yaw_deg": 79.0564, "roll_deg": 0.5162, "lat_deg": 34.0442517, "lon_deg": -117.814523, "altitude_rel_ft": 0.3182, "ground_speed_ft_s": 5.313, "vel_north_m_s": 0.76, "vel_east_m_s": 1.43, "vel_down_m_s": 0.03, "battery_remain_pct": 9900.0}
{"t_rx_ms": 1773435218905, "run_id": "20260313_135209", "seq": 99, "pitch_deg": 5.8141, "yaw_deg": 79.0564, "roll_deg": 0.5162, "lat_deg": 34.0442517, "lon_deg": -117.814523, "altitude_rel_ft": 0.3182, "ground_speed_ft_s": 5.313, "vel_north_m_s": 0.76, "vel_east_m_s": 1.43, "vel_down_m_s": 0.03, "battery_remain_pct": 9900.0}
{"t_rx_ms": 1773435219106, "run_id": "20260313_135209", "seq": 100, "pitch_deg": 5.8141, "yaw_deg": 79.0564, "roll_deg": 0.5162, "lat_deg": 34.0442517, "lon_deg": -117.814523, "altitude_rel_ft": 0.3182, "ground_speed_ft_s": 5.313, "vel_north_m_s": 0.76, "vel_east_m_s": 1.43, "vel_down_m_s": 0.03, "battery_remain_pct": 9900.0}
{"t_rx_ms": 1773435219306, "run_id": "20260313_135209", "seq": 101, "pitch_deg": 5.8141, "yaw_deg": 79.0564, "roll_deg": 0.5162, "lat_deg": 34.0442517, "lon_deg": -117.814523, "altitude_rel_ft": 0.3182, "ground_speed_ft_s": 5.313, "vel_north_m_s": 0.76, "vel_east_m_s": 1.43, "vel_down_m_s": 0.03, "battery_remain_pct": 9900.0}
{"t_rx_ms": 1773435219507, "run_id": "20260313_135209", "seq": 102, "pitch_deg": 5.5054, "yaw_deg": 78.598, "roll_deg": 1.0191, "lat_deg": 34.0442585, "lon_deg": -117.8145069, "altitude_rel_ft": 1.0794, "ground_speed_ft_s": 5.4731, "vel_north_m_s": 0.73, "vel_east_m_s": 1.5, "vel_down_m_s": 0.02, "battery_remain_pct": 9900.0}
{"t_rx_ms": 1773435219707, "run_id": "20260313_135209", "seq": 103, "pitch_deg": 5.5054, "yaw_deg": 78.598, "roll_deg": 1.0191, "lat_deg": 34.0442585, "lon_deg": -117.8145069, "altitude_rel_ft": 1.0794, "ground_speed_ft_s": 5.4731, "vel_north_m_s": 0.73, "vel_east_m_s": 1.5, "vel_down_m_s": 0.02, "battery_remain_pct": 9900.0}
{"t_rx_ms": 1773435219908, "run_id": "20260313_135209", "seq": 104, "pitch_deg": 5.5054, "yaw_deg": 78.598, "roll_deg": 1.0191, "lat_deg": 34.0442585, "lon_deg": -117.8145069, "altitude_rel_ft": 1.0794, "ground_speed_ft_s": 5.4731, "vel_north_m_s": 0.73, "vel_east_m_s": 1.5, "vel_down_m_s": 0.02, "battery_remain_pct": 9900.0}
{"t_rx_ms": 1773435220108, "run_id": "20260313_135209", "seq": 105, "pitch_deg": 5.5054, "yaw_deg": 78.598, "roll_deg": 1.0191, "lat_deg": 34.0442585, "lon_deg": -117.8145069, "altitude_rel_ft": 1.0794, "ground_speed_ft_s": 5.4731, "vel_north_m_s": 0.73, "vel_east_m_s": 1.5, "vel_down_m_s": 0.02, "battery_remain_pct": 9900.0}
{"t_rx_ms": 1773435220309, "run_id": "20260313_135209", "seq": 106, "pitch_deg": 5.5054, "yaw_deg": 78.598, "roll_deg": 1.0191, "lat_deg": 34.0442585, "lon_deg": -117.8145069, "altitude_rel_ft": 1.0794, "ground_speed_ft_s": 5.4731, "vel_north_m_s": 0.73, "vel_east_m_s": 1.5, "vel_down_m_s": 0.02, "battery_remain_pct": 9900.0}
{"t_rx_ms": 1773435220509, "run_id": "20260313_135209", "seq": 107, "pitch_deg": 5.0489, "yaw_deg": 78.2964, "roll_deg": 0.4615, "lat_deg": 34.0442655, "lon_deg": -117.8144911, "altitude_rel_ft": 0.8169, "ground_speed_ft_s": 5.4175, "vel_north_m_s": 0.79, "vel_east_m_s": 1.45, "vel_down_m_s": -0.04, "battery_remain_pct": 9900.0}
{"t_rx_ms": 1773435220710, "run_id": "20260313_135209", "seq": 108, "pitch_deg": 5.0489, "yaw_deg": 78.2964, "roll_deg": 0.4615, "lat_deg": 34.0442655, "lon_deg": -117.8144911, "altitude_rel_ft": 0.8169, "ground_speed_ft_s": 5.4175, "vel_north_m_s": 0.79, "vel_east_m_s": 1.45, "vel_down_m_s": -0.04, "battery_remain_pct": 9900.0}
{"t_rx_ms": 1773435220911, "run_id": "20260313_135209", "seq": 109, "pitch_deg": 5.0489, "yaw_deg": 78.2964, "roll_deg": 0.4615, "lat_deg": 34.0442655, "lon_deg": -117.8144911, "altitude_rel_ft": 0.8169, "ground_speed_ft_s": 5.4175, "vel_north_m_s": 0.79, "vel_east_m_s": 1.45, "vel_down_m_s": -0.04, "battery_remain_pct": 9900.0}
{"t_rx_ms": 1773435221111, "run_id": "20260313_135209", "seq": 110, "pitch_deg": 5.0489, "yaw_deg": 78.2964, "roll_deg": 0.4615, "lat_deg": 34.0442655, "lon_deg": -117.8144911, "altitude_rel_ft": 0.8169, "ground_speed_ft_s": 5.4175, "vel_north_m_s": 0.79, "vel_east_m_s": 1.45, "vel_down_m_s": -0.04, "battery_remain_pct": 9900.0}
{"t_rx_ms": 1773435221312, "run_id": "20260313_135209", "seq": 111, "pitch_deg": 5.0489, "yaw_deg": 78.2964, "roll_deg": 0.4615, "lat_deg": 34.0442655, "lon_deg": -117.8144911, "altitude_rel_ft": 0.8169, "ground_speed_ft_s": 5.4175, "vel_north_m_s": 0.79, "vel_east_m_s": 1.45, "vel_down_m_s": -0.04, "battery_remain_pct": 9900.0}
{"t_rx_ms": 1773435221512, "run_id": "20260313_135209", "seq": 112, "pitch_deg": 5.1389, "yaw_deg": 78.0015, "roll_deg": -0.3521, "lat_deg": 34.0442742, "lon_deg": -117.814471, "altitude_rel_ft": 0.4724, "ground_speed_ft_s": 6.7647, "vel_north_m_s": 0.95, "vel_east_m_s": 1.83, "vel_down_m_s": -0.01, "battery_remain_pct": 9900.0}
{"t_rx_ms": 1773435221713, "run_id": "20260313_135209", "seq": 113, "pitch_deg": 5.1389, "yaw_deg": 78.0015, "roll_deg": -0.3521, "lat_deg": 34.0442742, "lon_deg": -117.814471, "altitude_rel_ft": 0.4724, "ground_speed_ft_s": 6.7647, "vel_north_m_s": 0.95, "vel_east_m_s": 1.83, "vel_down_m_s": -0.01, "battery_remain_pct": 9900.0}
{"t_rx_ms": 1773435221914, "run_id": "20260313_135209", "seq": 114, "pitch_deg": 5.1389, "yaw_deg": 78.0015, "roll_deg": -0.3521, "lat_deg": 34.0442742, "lon_deg": -117.814471, "altitude_rel_ft": 0.4724, "ground_speed_ft_s": 6.7647, "vel_north_m_s": 0.95, "vel_east_m_s": 1.83, "vel_down_m_s": -0.01, "battery_remain_pct": 9900.0}
{"t_rx_ms": 1773435222114, "run_id": "20260313_135209", "seq": 115, "pitch_deg": 5.1389, "yaw_deg": 78.0015, "roll_deg": -0.3521, "lat_deg": 34.0442742, "lon_deg": -117.814471, "altitude_rel_ft": 0.4724, "ground_speed_ft_s": 6.7647, "vel_north_m_s": 0.95, "vel_east_m_s": 1.83, "vel_down_m_s": -0.01, "battery_remain_pct": 9900.0}
{"t_rx_ms": 1773435222315, "run_id": "20260313_135209", "seq": 116, "pitch_deg": 5.1389, "yaw_deg": 78.0015, "roll_deg": -0.3521, "lat_deg": 34.0442742, "lon_deg": -117.814471, "altitude_rel_ft": 0.4724, "ground_speed_ft_s": 6.7647, "vel_north_m_s": 0.95, "vel_east_m_s": 1.83, "vel_down_m_s": -0.01, "battery_remain_pct": 9900.0}
{"t_rx_ms": 1773435222515, "run_id": "20260313_135209", "seq": 117, "pitch_deg": 5.8936, "yaw_deg": 77.7482, "roll_deg": -0.5414, "lat_deg": 34.0442837, "lon_deg": -117.8144494, "altitude_rel_ft": 1.1942, "ground_speed_ft_s": 7.24, "vel_north_m_s": 1.07, "vel_east_m_s": 1.93, "vel_down_m_s": -0.05, "battery_remain_pct": 9900.0}
{"t_rx_ms": 1773435222716, "run_id": "20260313_135209", "seq": 118, "pitch_deg": 5.8936, "yaw_deg": 77.7482, "roll_deg": -0.5414, "lat_deg": 34.0442837, "lon_deg": -117.8144494, "altitude_rel_ft": 1.1942, "ground_speed_ft_s": 7.24, "vel_north_m_s": 1.07, "vel_east_m_s": 1.93, "vel_down_m_s": -0.05, "battery_remain_pct": 9900.0}
{"t_rx_ms": 1773435222916, "run_id": "20260313_135209", "seq": 119, "pitch_deg": 5.8936, "yaw_deg": 77.7482, "roll_deg": -0.5414, "lat_deg": 34.0442837, "lon_deg": -117.8144494, "altitude_rel_ft": 1.1942, "ground_speed_ft_s": 7.24, "vel_north_m_s": 1.07, "vel_east_m_s": 1.93, "vel_down_m_s": -0.05, "battery_remain_pct": 9900.0}
{"t_rx_ms": 1773435223117, "run_id": "20260313_135209", "seq": 120, "pitch_deg": 5.8936, "yaw_deg": 77.7482, "roll_deg": -0.5414, "lat_deg": 34.0442837, "lon_deg": -117.8144494, "altitude_rel_ft": 1.1942, "ground_speed_ft_s": 7.24, "vel_north_m_s": 1.07, "vel_east_m_s": 1.93, "vel_down_m_s": -0.05, "battery_remain_pct": 9900.0}
{"t_rx_ms": 1773435223318, "run_id": "20260313_135209", "seq": 121, "pitch_deg": 5.8936, "yaw_deg": 77.7482, "roll_deg": -0.5414, "lat_deg": 34.0442837, "lon_deg": -117.8144494, "altitude_rel_ft": 1.1942, "ground_speed_ft_s": 7.24, "vel_north_m_s": 1.07, "vel_east_m_s": 1.93, "vel_down_m_s": -0.05, "battery_remain_pct": 9900.0}
{"t_rx_ms": 1773435223519, "run_id": "20260313_135209", "seq": 122, "pitch_deg": 5.4578, "yaw_deg": 77.9184, "roll_deg": 0.2342, "lat_deg": 34.044294, "lon_deg": -117.8144257, "altitude_rel_ft": 1.0007, "ground_speed_ft_s": 8.4088, "vel_north_m_s": 1.19, "vel_east_m_s": 2.27, "vel_down_m_s": -0.06, "battery_remain_pct": 9900.0}
{"t_rx_ms": 1773435223719, "run_id": "20260313_135209", "seq": 123, "pitch_deg": 5.4578, "yaw_deg": 77.9184, "roll_deg": 0.2342, "lat_deg": 34.044294, "lon_deg": -117.8144257, "altitude_rel_ft": 1.0007, "ground_speed_ft_s": 8.4088, "vel_north_m_s": 1.19, "vel_east_m_s": 2.27, "vel_down_m_s": -0.06, "battery_remain_pct": 9900.0}
{"t_rx_ms": 1773435223920, "run_id": "20260313_135209", "seq": 124, "pitch_deg": 5.4578, "yaw_deg": 77.9184, "roll_deg": 0.2342, "lat_deg": 34.044294, "lon_deg": -117.8144257, "altitude_rel_ft": 1.0007, "ground_speed_ft_s": 8.4088, "vel_north_m_s": 1.19, "vel_east_m_s": 2.27, "vel_down_m_s": -0.06, "battery_remain_pct": 9900.0}
{"t_rx_ms": 1773435224120, "run_id": "20260313_135209", "seq": 125, "pitch_deg": 5.4578, "yaw_deg": 77.9184, "roll_deg": 0.2342, "lat_deg": 34.044294, "lon_deg": -117.8144257, "altitude_rel_ft": 1.0007, "ground_speed_ft_s": 8.4088, "vel_north_m_s": 1.19, "vel_east_m_s": 2.27, "vel_down_m_s": -0.06, "battery_remain_pct": 9900.0}
{"t_rx_ms": 1773435224321, "run_id": "20260313_135209", "seq": 126, "pitch_deg": 5.4578, "yaw_deg": 77.9184, "roll_deg": 0.2342, "lat_deg": 34.044294, "lon_deg": -117.8144257, "altitude_rel_ft": 1.0007, "ground_speed_ft_s": 8.4088, "vel_north_m_s": 1.19, "vel_east_m_s": 2.27, "vel_down_m_s": -0.06, "battery_remain_pct": 9900.0}
{"t_rx_ms": 1773435224521, "run_id": "20260313_135209", "seq": 127, "pitch_deg": 4.4947, "yaw_deg": 81.1973, "roll_deg": 0.3471, "lat_deg": 34.0443042, "lon_deg": -117.8143995, "altitude_rel_ft": 1.3091, "ground_speed_ft_s": 8.7244, "vel_north_m_s": 1.08, "vel_east_m_s": 2.43, "vel_down_m_s": 0.01, "battery_remain_pct": 9900.0}
{"t_rx_ms": 1773435224722, "run_id": "20260313_135209", "seq": 128, "pitch_deg": 4.4947, "yaw_deg": 81.1973, "roll_deg": 0.3471, "lat_deg": 34.0443042, "lon_deg": -117.8143995, "altitude_rel_ft": 1.3091, "ground_speed_ft_s": 8.7244, "vel_north_m_s": 1.08, "vel_east_m_s": 2.43, "vel_down_m_s": 0.01, "battery_remain_pct": 9900.0}
{"t_rx_ms": 1773435224922, "run_id": "20260313_135209", "seq": 129, "pitch_deg": 4.4947, "yaw_deg": 81.1973, "roll_deg": 0.3471, "lat_deg": 34.0443042, "lon_deg": -117.8143995, "altitude_rel_ft": 1.3091, "ground_speed_ft_s": 8.7244, "vel_north_m_s": 1.08, "vel_east_m_s": 2.43, "vel_down_m_s": 0.01, "battery_remain_pct": 9900.0}
{"t_rx_ms": 1773435225123, "run_id": "20260313_135209", "seq": 130, "pitch_deg": 4.4947, "yaw_deg": 81.1973, "roll_deg": 0.3471, "lat_deg": 34.0443042, "lon_deg": -117.8143995, "altitude_rel_ft": 1.3091, "ground_speed_ft_s": 8.7244, "vel_north_m_s": 1.08, "vel_east_m_s": 2.43, "vel_down_m_s": 0.01, "battery_remain_pct": 9900.0}
{"t_rx_ms": 1773435225324, "run_id": "20260313_135209", "seq": 131, "pitch_deg": 4.4947, "yaw_deg": 81.1973, "roll_deg": 0.3471, "lat_deg": 34.0443042, "lon_deg": -117.8143995, "altitude_rel_ft": 1.3091, "ground_speed_ft_s": 8.7244, "vel_north_m_s": 1.08, "vel_east_m_s": 2.43, "vel_down_m_s": 0.01, "battery_remain_pct": 9900.0}
{"t_rx_ms": 1773435225525, "run_id": "20260313_135209", "seq": 132, "pitch_deg": 3.6982, "yaw_deg": 87.9479, "roll_deg": -1.0684, "lat_deg": 34.0443123, "lon_deg": -117.8143707, "altitude_rel_ft": 1.3583, "ground_speed_ft_s": 9.5256, "vel_north_m_s": 0.87, "vel_east_m_s": 2.77, "vel_down_m_s": -0.1, "battery_remain_pct": 9900.0}
{"t_rx_ms": 1773435225725, "run_id": "20260313_135209", "seq": 133, "pitch_deg": 3.6982, "yaw_deg": 87.9479, "roll_deg": -1.0684, "lat_deg": 34.0443123, "lon_deg": -117.8143707, "altitude_rel_ft": 1.3583, "ground_speed_ft_s": 9.5256, "vel_north_m_s": 0.87, "vel_east_m_s": 2.77, "vel_down_m_s": -0.1, "battery_remain_pct": 9900.0}
{"t_rx_ms": 1773435225926, "run_id": "20260313_135209", "seq": 134, "pitch_deg": 3.6982, "yaw_deg": 87.9479, "roll_deg": -1.0684, "lat_deg": 34.0443123, "lon_deg": -117.8143707, "altitude_rel_ft": 1.3583, "ground_speed_ft_s": 9.5256, "vel_north_m_s": 0.87, "vel_east_m_s": 2.77, "vel_down_m_s": -0.1, "battery_remain_pct": 9900.0}
{"t_rx_ms": 1773435226127, "run_id": "20260313_135209", "seq": 135, "pitch_deg": 3.6982, "yaw_deg": 87.9479, "roll_deg": -1.0684, "lat_deg": 34.0443123, "lon_deg": -117.8143707, "altitude_rel_ft": 1.3583, "ground_speed_ft_s": 9.5256, "vel_north_m_s": 0.87, "vel_east_m_s": 2.77, "vel_down_m_s": -0.1, "battery_remain_pct": 9900.0}
{"t_rx_ms": 1773435226328, "run_id": "20260313_135209", "seq": 136, "pitch_deg": 3.6982, "yaw_deg": 87.9479, "roll_deg": -1.0684, "lat_deg": 34.0443123, "lon_deg": -117.8143707, "altitude_rel_ft": 1.3583, "ground_speed_ft_s": 9.5256, "vel_north_m_s": 0.87, "vel_east_m_s": 2.77, "vel_down_m_s": -0.1, "battery_remain_pct": 9900.0}
{"t_rx_ms": 1773435226529, "run_id": "20260313_135209", "seq": 137, "pitch_deg": 5.8562, "yaw_deg": 84.4335, "roll_deg": -0.4971, "lat_deg": 34.0443162, "lon_deg": -117.8143357, "altitude_rel_ft": 1.8209, "ground_speed_ft_s": 10.9167, "vel_north_m_s": 0.34, "vel_east_m_s": 3.31, "vel_down_m_s": -0.15, "battery_remain_pct": 9900.0}
{"t_rx_ms": 1773435226730, "run_id": "20260313_135209", "seq": 138, "pitch_deg": 5.8562, "yaw_deg": 84.4335, "roll_deg": -0.4971, "lat_deg": 34.0443162, "lon_deg": -117.8143357, "altitude_rel_ft": 1.8209, "ground_speed_ft_s": 10.9167, "vel_north_m_s": 0.34, "vel_east_m_s": 3.31, "vel_down_m_s": -0.15, "battery_remain_pct": 9900.0}
{"t_rx_ms": 1773435226930, "run_id": "20260313_135209", "seq": 139, "pitch_deg": 5.8562, "yaw_deg": 84.4335, "roll_deg": -0.4971, "lat_deg": 34.0443162, "lon_deg": -117.8143357, "altitude_rel_ft": 1.8209, "ground_speed_ft_s": 10.9167, "vel_north_m_s": 0.34, "vel_east_m_s": 3.31, "vel_down_m_s": -0.15, "battery_remain_pct": 9900.0}
{"t_rx_ms": 1773435227130, "run_id": "20260313_135209", "seq": 140, "pitch_deg": 5.8562, "yaw_deg": 84.4335, "roll_deg": -0.4971, "lat_deg": 34.0443162, "lon_deg": -117.8143357, "altitude_rel_ft": 1.8209, "ground_speed_ft_s": 10.9167, "vel_north_m_s": 0.34, "vel_east_m_s": 3.31, "vel_down_m_s": -0.15, "battery_remain_pct": 9900.0}
{"t_rx_ms": 1773435227333, "run_id": "20260313_135209", "seq": 141, "pitch_deg": 5.8562, "yaw_deg": 84.4335, "roll_deg": -0.4971, "lat_deg": 34.0443162, "lon_deg": -117.8143357, "altitude_rel_ft": 1.8209, "ground_speed_ft_s": 10.9167, "vel_north_m_s": 0.34, "vel_east_m_s": 3.31, "vel_down_m_s": -0.15, "battery_remain_pct": 9900.0}
{"t_rx_ms": 1773435227533, "run_id": "20260313_135209", "seq": 142, "pitch_deg": 5.2127, "yaw_deg": 96.1216, "roll_deg": -0.03, "lat_deg": 34.044314899999996, "lon_deg": -117.81429729999999, "altitude_rel_ft": 0.6365, "ground_speed_ft_s": 11.7983, "vel_north_m_s": -0.21, "vel_east_m_s": 3.59, "vel_down_m_s": -0.03, "battery_remain_pct": 9900.0}
{"t_rx_ms": 1773435227733, "run_id": "20260313_135209", "seq": 143, "pitch_deg": 5.2127, "yaw_deg": 96.1216, "roll_deg": -0.03, "lat_deg": 34.044314899999996, "lon_deg": -117.81429729999999, "altitude_rel_ft": 0.6365, "ground_speed_ft_s": 11.7983, "vel_north_m_s": -0.21, "vel_east_m_s": 3.59, "vel_down_m_s": -0.03, "battery_remain_pct": 9900.0}
{"t_rx_ms": 1773435227934, "run_id": "20260313_135209", "seq": 144, "pitch_deg": 5.2127, "yaw_deg": 96.1216, "roll_deg": -0.03, "lat_deg": 34.044314899999996, "lon_deg": -117.81429729999999, "altitude_rel_ft": 0.6365, "ground_speed_ft_s": 11.7983, "vel_north_m_s": -0.21, "vel_east_m_s": 3.59, "vel_down_m_s": -0.03, "battery_remain_pct": 9900.0}
{"t_rx_ms": 1773435228134, "run_id": "20260313_135209", "seq": 145, "pitch_deg": 5.2127, "yaw_deg": 96.1216, "roll_deg": -0.03, "lat_deg": 34.044314899999996, "lon_deg": -117.81429729999999, "altitude_rel_ft": 0.6365, "ground_speed_ft_s": 11.7983, "vel_north_m_s": -0.21, "vel_east_m_s": 3.59, "vel_down_m_s": -0.03, "battery_remain_pct": 9900.0}
{"t_rx_ms": 1773435228335, "run_id": "20260313_135209", "seq": 146, "pitch_deg": 5.2127, "yaw_deg": 96.1216, "roll_deg": -0.03, "lat_deg": 34.044314899999996, "lon_deg": -117.81429729999999, "altitude_rel_ft": 0.6365, "ground_speed_ft_s": 11.7983, "vel_north_m_s": -0.21, "vel_east_m_s": 3.59, "vel_down_m_s": -0.03, "battery_remain_pct": 9900.0}
{"t_rx_ms": 1773435228535, "run_id": "20260313_135209", "seq": 147, "pitch_deg": 3.4414, "yaw_deg": 108.9213, "roll_deg": 2.016, "lat_deg": 34.0443061, "lon_deg": -117.8142582, "altitude_rel_ft": 0.2297, "ground_speed_ft_s": 12.2116, "vel_north_m_s": -1.15, "vel_east_m_s": 3.54, "vel_down_m_s": 0.04, "battery_remain_pct": 9900.0}
{"t_rx_ms": 1773435228736, "run_id": "20260313_135209", "seq": 148, "pitch_deg": 3.4414, "yaw_deg": 108.9213, "roll_deg": 2.016, "lat_deg": 34.0443061, "lon_deg": -117.8142582, "altitude_rel_ft": 0.2297, "ground_speed_ft_s": 12.2116, "vel_north_m_s": -1.15, "vel_east_m_s": 3.54, "vel_down_m_s": 0.04, "battery_remain_pct": 9900.0}
{"t_rx_ms": 1773435228937, "run_id": "20260313_135209", "seq": 149, "pitch_deg": 3.4414, "yaw_deg": 108.9213, "roll_deg": 2.016, "lat_deg": 34.0443061, "lon_deg": -117.8142582, "altitude_rel_ft": 0.2297, "ground_speed_ft_s": 12.2116, "vel_north_m_s": -1.15, "vel_east_m_s": 3.54, "vel_down_m_s": 0.04, "battery_remain_pct": 9900.0}
{"t_rx_ms": 1773435229137, "run_id": "20260313_135209", "seq": 150, "pitch_deg": 3.4414, "yaw_deg": 108.9213, "roll_deg": 2.016, "lat_deg": 34.0443061, "lon_deg": -117.8142582, "altitude_rel_ft": 0.2297, "ground_speed_ft_s": 12.2116, "vel_north_m_s": -1.15, "vel_east_m_s": 3.54, "vel_down_m_s": 0.04, "battery_remain_pct": 9900.0}
{"t_rx_ms": 1773435229338, "run_id": "20260313_135209", "seq": 151, "pitch_deg": 3.4414, "yaw_deg": 108.9213, "roll_deg": 2.016, "lat_deg": 34.0443061, "lon_deg": -117.8142582, "altitude_rel_ft": 0.2297, "ground_speed_ft_s": 12.2116, "vel_north_m_s": -1.15, "vel_east_m_s": 3.54, "vel_down_m_s": 0.04, "battery_remain_pct": 9900.0}
{"t_rx_ms": 1773435229541, "run_id": "20260313_135209", "seq": 152, "pitch_deg": 1.1219, "yaw_deg": 122.6132, "roll_deg": 3.0435, "lat_deg": 34.0442888, "lon_deg": -117.81421929999999, "altitude_rel_ft": 0.9449, "ground_speed_ft_s": 13.915, "vel_north_m_s": -2.21, "vel_east_m_s": 3.62, "vel_down_m_s": 0.06, "battery_remain_pct": 9900.0}
{"t_rx_ms": 1773435229742, "run_id": "20260313_135209", "seq": 153, "pitch_deg": 1.1219, "yaw_deg": 122.6132, "roll_deg": 3.0435, "lat_deg": 34.0442888, "lon_deg": -117.81421929999999, "altitude_rel_ft": 0.9449, "ground_speed_ft_s": 13.915, "vel_north_m_s": -2.21, "vel_east_m_s": 3.62, "vel_down_m_s": 0.06, "battery_remain_pct": 9900.0}
{"t_rx_ms": 1773435229943, "run_id": "20260313_135209", "seq": 154, "pitch_deg": 1.1219, "yaw_deg": 122.6132, "roll_deg": 3.0435, "lat_deg": 34.0442888, "lon_deg": -117.81421929999999, "altitude_rel_ft": 0.9449, "ground_speed_ft_s": 13.915, "vel_north_m_s": -2.21, "vel_east_m_s": 3.62, "vel_down_m_s": 0.06, "battery_remain_pct": 9900.0}
{"t_rx_ms": 1773435230143, "run_id": "20260313_135209", "seq": 155, "pitch_deg": 1.1219, "yaw_deg": 122.6132, "roll_deg": 3.0435, "lat_deg": 34.0442888, "lon_deg": -117.81421929999999, "altitude_rel_ft": 0.9449, "ground_speed_ft_s": 13.915, "vel_north_m_s": -2.21, "vel_east_m_s": 3.62, "vel_down_m_s": 0.06, "battery_remain_pct": 9900.0}
{"t_rx_ms": 1773435230344, "run_id": "20260313_135209", "seq": 156, "pitch_deg": 1.1219, "yaw_deg": 122.6132, "roll_deg": 3.0435, "lat_deg": 34.0442888, "lon_deg": -117.81421929999999, "altitude_rel_ft": 0.9449, "ground_speed_ft_s": 13.915, "vel_north_m_s": -2.21, "vel_east_m_s": 3.62, "vel_down_m_s": 0.06, "battery_remain_pct": 9900.0}
{"t_rx_ms": 1773435230544, "run_id": "20260313_135209", "seq": 157, "pitch_deg": 1.6772, "yaw_deg": 130.4184, "roll_deg": 3.5566, "lat_deg": 34.0442627, "lon_deg": -117.81418, "altitude_rel_ft": 1.0499, "ground_speed_ft_s": 15.5262, "vel_north_m_s": -3.0, "vel_east_m_s": 3.66, "vel_down_m_s": 0.05, "battery_remain_pct": 9900.0}
{"t_rx_ms": 1773435230745, "run_id": "20260313_135209", "seq": 158, "pitch_deg": 1.6772, "yaw_deg": 130.4184, "roll_deg": 3.5566, "lat_deg": 34.0442627, "lon_deg": -117.81418, "altitude_rel_ft": 1.0499, "ground_speed_ft_s": 15.5262, "vel_north_m_s": -3.0, "vel_east_m_s": 3.66, "vel_down_m_s": 0.05, "battery_remain_pct": 9900.0}
{"t_rx_ms": 1773435230946, "run_id": "20260313_135209", "seq": 159, "pitch_deg": 1.6772, "yaw_deg": 130.4184, "roll_deg": 3.5566, "lat_deg": 34.0442627, "lon_deg": -117.81418, "altitude_rel_ft": 1.0499, "ground_speed_ft_s": 15.5262, "vel_north_m_s": -3.0, "vel_east_m_s": 3.66, "vel_down_m_s": 0.05, "battery_remain_pct": 9900.0}
{"t_rx_ms": 1773435231147, "run_id": "20260313_135209", "seq": 160, "pitch_deg": 1.6772, "yaw_deg": 130.4184, "roll_deg": 3.5566, "lat_deg": 34.0442627, "lon_deg": -117.81418, "altitude_rel_ft": 1.0499, "ground_speed_ft_s": 15.5262, "vel_north_m_s": -3.0, "vel_east_m_s": 3.66, "vel_down_m_s": 0.05, "battery_remain_pct": 9900.0}
{"t_rx_ms": 1773435231347, "run_id": "20260313_135209", "seq": 161, "pitch_deg": 1.6772, "yaw_deg": 130.4184, "roll_deg": 3.5566, "lat_deg": 34.0442627, "lon_deg": -117.81418, "altitude_rel_ft": 1.0499, "ground_speed_ft_s": 15.5262, "vel_north_m_s": -3.0, "vel_east_m_s": 3.66, "vel_down_m_s": 0.05, "battery_remain_pct": 9900.0}
{"t_rx_ms": 1773435231548, "run_id": "20260313_135209", "seq": 162, "pitch_deg": 1.477, "yaw_deg": 131.1954, "roll_deg": 3.201, "lat_deg": 34.0442312, "lon_deg": -117.8141347, "altitude_rel_ft": 1.6765, "ground_speed_ft_s": 18.4494, "vel_north_m_s": -3.6, "vel_east_m_s": 4.32, "vel_down_m_s": 0.08, "battery_remain_pct": 9900.0}
{"t_rx_ms": 1773435231748, "run_id": "20260313_135209", "seq": 163, "pitch_deg": 1.477, "yaw_deg": 131.1954, "roll_deg": 3.201, "lat_deg": 34.0442312, "lon_deg": -117.8141347, "altitude_rel_ft": 1.6765, "ground_speed_ft_s": 18.4494, "vel_north_m_s": -3.6, "vel_east_m_s": 4.32, "vel_down_m_s": 0.08, "battery_remain_pct": 9900.0}
{"t_rx_ms": 1773435231949, "run_id": "20260313_135209", "seq": 164, "pitch_deg": 1.477, "yaw_deg": 131.1954, "roll_deg": 3.201, "lat_deg": 34.0442312, "lon_deg": -117.8141347, "altitude_rel_ft": 1.6765, "ground_speed_ft_s": 18.4494, "vel_north_m_s": -3.6, "vel_east_m_s": 4.32, "vel_down_m_s": 0.08, "battery_remain_pct": 9900.0}
{"t_rx_ms": 1773435232149, "run_id": "20260313_135209", "seq": 165, "pitch_deg": 1.477, "yaw_deg": 131.1954, "roll_deg": 3.201, "lat_deg": 34.0442312, "lon_deg": -117.8141347, "altitude_rel_ft": 1.6765, "ground_speed_ft_s": 18.4494, "vel_north_m_s": -3.6, "vel_east_m_s": 4.32, "vel_down_m_s": 0.08, "battery_remain_pct": 9900.0}
{"t_rx_ms": 1773435232350, "run_id": "20260313_135209", "seq": 166, "pitch_deg": 1.477, "yaw_deg": 131.1954, "roll_deg": 3.201, "lat_deg": 34.0442312, "lon_deg": -117.8141347, "altitude_rel_ft": 1.6765, "ground_speed_ft_s": 18.4494, "vel_north_m_s": -3.6, "vel_east_m_s": 4.32, "vel_down_m_s": 0.08, "battery_remain_pct": 9900.0}
{"t_rx_ms": 1773435232551, "run_id": "20260313_135209", "seq": 167, "pitch_deg": 1.926, "yaw_deg": 131.3803, "roll_deg": 2.504, "lat_deg": 34.0441971, "lon_deg": -117.81408599999999, "altitude_rel_ft": -1.04, "ground_speed_ft_s": 19.7185, "vel_north_m_s": -3.88, "vel_east_m_s": 4.59, "vel_down_m_s": 0.06, "battery_remain_pct": 9900.0}
{"t_rx_ms": 1773435232751, "run_id": "20260313_135209", "seq": 168, "pitch_deg": 1.926, "yaw_deg": 131.3803, "roll_deg": 2.504, "lat_deg": 34.0441971, "lon_deg": -117.81408599999999, "altitude_rel_ft": -1.04, "ground_speed_ft_s": 19.7185, "vel_north_m_s": -3.88, "vel_east_m_s": 4.59, "vel_down_m_s": 0.06, "battery_remain_pct": 9900.0}
{"t_rx_ms": 1773435232952, "run_id": "20260313_135209", "seq": 169, "pitch_deg": 1.926, "yaw_deg": 131.3803, "roll_deg": 2.504, "lat_deg": 34.0441971, "lon_deg": -117.81408599999999, "altitude_rel_ft": -1.04, "ground_speed_ft_s": 19.7185, "vel_north_m_s": -3.88, "vel_east_m_s": 4.59, "vel_down_m_s": 0.06, "battery_remain_pct": 9900.0}
{"t_rx_ms": 1773435233152, "run_id": "20260313_135209", "seq": 170, "pitch_deg": 1.926, "yaw_deg": 131.3803, "roll_deg": 2.504, "lat_deg": 34.0441971, "lon_deg": -117.81408599999999, "altitude_rel_ft": -1.04, "ground_speed_ft_s": 19.7185, "vel_north_m_s": -3.88, "vel_east_m_s": 4.59, "vel_down_m_s": 0.06, "battery_remain_pct": 9900.0}
{"t_rx_ms": 1773435233353, "run_id": "20260313_135209", "seq": 171, "pitch_deg": 1.926, "yaw_deg": 131.3803, "roll_deg": 2.504, "lat_deg": 34.0441971, "lon_deg": -117.81408599999999, "altitude_rel_ft": -1.04, "ground_speed_ft_s": 19.7185, "vel_north_m_s": -3.88, "vel_east_m_s": 4.59, "vel_down_m_s": 0.06, "battery_remain_pct": 9900.0}
{"t_rx_ms": 1773435233553, "run_id": "20260313_135209", "seq": 172, "pitch_deg": 0.5808, "yaw_deg": 130.9644, "roll_deg": 3.3103, "lat_deg": 34.044159199999996, "lon_deg": -117.8140322, "altitude_rel_ft": -1.0302, "ground_speed_ft_s": 21.3408, "vel_north_m_s": -4.22, "vel_east_m_s": 4.95, "vel_down_m_s": 0.03, "battery_remain_pct": 9900.0}
{"t_rx_ms": 1773435233754, "run_id": "20260313_135209", "seq": 173, "pitch_deg": 0.5808, "yaw_deg": 130.9644, "roll_deg": 3.3103, "lat_deg": 34.044159199999996, "lon_deg": -117.8140322, "altitude_rel_ft": -1.0302, "ground_speed_ft_s": 21.3408, "vel_north_m_s": -4.22, "vel_east_m_s": 4.95, "vel_down_m_s": 0.03, "battery_remain_pct": 9900.0}
{"t_rx_ms": 1773435233955, "run_id": "20260313_135209", "seq": 174, "pitch_deg": 0.5808, "yaw_deg": 130.9644, "roll_deg": 3.3103, "lat_deg": 34.044159199999996, "lon_deg": -117.8140322, "altitude_rel_ft": -1.0302, "ground_speed_ft_s": 21.3408, "vel_north_m_s": -4.22, "vel_east_m_s": 4.95, "vel_down_m_s": 0.03, "battery_remain_pct": 9900.0}
{"t_rx_ms": 1773435234155, "run_id": "20260313_135209", "seq": 175, "pitch_deg": 0.5808, "yaw_deg": 130.9644, "roll_deg": 3.3103, "lat_deg": 34.044159199999996, "lon_deg": -117.8140322, "altitude_rel_ft": -1.0302, "ground_speed_ft_s": 21.3408, "vel_north_m_s": -4.22, "vel_east_m_s": 4.95, "vel_down_m_s": 0.03, "battery_remain_pct": 9900.0}
{"t_rx_ms": 1773435234356, "run_id": "20260313_135209", "seq": 176, "pitch_deg": 0.5808, "yaw_deg": 130.9644, "roll_deg": 3.3103, "lat_deg": 34.044159199999996, "lon_deg": -117.8140322, "altitude_rel_ft": -1.0302, "ground_speed_ft_s": 21.3408, "vel_north_m_s": -4.22, "vel_east_m_s": 4.95, "vel_down_m_s": 0.03, "battery_remain_pct": 9900.0}
{"t_rx_ms": 1773435234557, "run_id": "20260313_135209", "seq": 177, "pitch_deg": 2.2968, "yaw_deg": 130.2285, "roll_deg": 3.736, "lat_deg": 34.0441204, "lon_deg": -117.813976, "altitude_rel_ft": -1.0203, "ground_speed_ft_s": 21.9234, "vel_north_m_s": -4.27, "vel_east_m_s": 5.14, "vel_down_m_s": 0.04, "battery_remain_pct": 9900.0}
{"t_rx_ms": 1773435234758, "run_id": "20260313_135209", "seq": 178, "pitch_deg": 2.2968, "yaw_deg": 130.2285, "roll_deg": 3.736, "lat_deg": 34.0441204, "lon_deg": -117.813976, "altitude_rel_ft": -1.0203, "ground_speed_ft_s": 21.9234, "vel_north_m_s": -4.27, "vel_east_m_s": 5.14, "vel_down_m_s": 0.04, "battery_remain_pct": 9900.0}
{"t_rx_ms": 1773435234958, "run_id": "20260313_135209", "seq": 179, "pitch_deg": 2.2968, "yaw_deg": 130.2285, "roll_deg": 3.736, "lat_deg": 34.0441204, "lon_deg": -117.813976, "altitude_rel_ft": -1.0203, "ground_speed_ft_s": 21.9234, "vel_north_m_s": -4.27, "vel_east_m_s": 5.14, "vel_down_m_s": 0.04, "battery_remain_pct": 9900.0}
