{"run_id": "20260417_140805", "kraken_seq": 197, "telemetry_seq": 87, "t_rx_ms": 1776460238373, "dt_ms": -19, "doa_deg": 243.0, "confidence_0_1": 0.3651532158255577, "lat_deg": 34.0407082, "lon_deg": -117.8154689, "altitude_rel_ft": -0.5315, "yaw_deg": -27.7517, "pitch_deg": 10.4733, "roll_deg": -67.9818, "ground_speed_ft_s": 0.0656, "vel_north_m_s": 0.02, "vel_east_m_s": 0.0, "vel_down_m_s": 0.01, "usable_for_triangulation": false, "t_gcs_rx_ms": 1776460242476}
{"run_id": "20260417_140805", "kraken_seq": 198, "telemetry_seq": 89, "t_rx_ms": 1776460238675, "dt_ms": 80, "doa_deg": 242.0, "confidence_0_1": 0.36011070013046265, "lat_deg": 34.0407082, "lon_deg": -117.8154691, "altitude_rel_ft": -0.5906, "yaw_deg": -27.9408, "pitch_deg": 10.4619, "roll_deg": -67.8449, "ground_speed_ft_s": 0.0328, "vel_north_m_s": 0.01, "vel_east_m_s": 0.0, "vel_down_m_s": 0.02, "usable_for_triangulation": false, "t_gcs_rx_ms": 1776460243223}
{"run_id": "20260417_140805", "kraken_seq": 199, "telemetry_seq": 92, "t_rx_ms": 1776460239286, "dt_ms": 76, "doa_deg": 240.0, "confidence_0_1": 0.35848021507263184, "lat_deg": 34.0407082, "lon_deg": -117.8154691, "altitude_rel_ft": -0.5906, "yaw_deg": -27.9408, "pitch_deg": 10.4619, "roll_deg": -67.8449, "ground_speed_ft_s": 0.0328, "vel_north_m_s": 0.01, "vel_east_m_s": 0.0, "vel_down_m_s": 0.02, "usable_for_triangulation": false, "t_gcs_rx_ms": 1776460243556}
{"run_id": "20260417_140805", "kraken_seq": 200, "telemetry_seq": 94, "t_rx_ms": 1776460239690, "dt_ms": 75, "doa_deg": 241.0, "confidence_0_1": 0.3634008392691612, "lat_deg": 34.0407082, "lon_deg": -117.81546929999999, "altitude_rel_ft": -0.6496, "yaw_deg": -27.6888, "pitch_deg": 10.1885, "roll_deg": -68.3653, "ground_speed_ft_s": 0.0328, "vel_north_m_s": 0.0, "vel_east_m_s": -0.01, "vel_down_m_s": 0.02, "usable_for_triangulation": false, "t_gcs_rx_ms": 1776460244172}
{"run_id": "20260417_140805", "kraken_seq": 201, "telemetry_seq": 95, "t_rx_ms": 1776460239998, "dt_ms": -29, "doa_deg": 238.0, "confidence_0_1": 0.4217938706278801, "lat_deg": 34.0407082, "lon_deg": -117.81546929999999, "altitude_rel_ft": -0.6496, "yaw_deg": -27.6888, "pitch_deg": 10.1885, "roll_deg": -68.3653, "ground_speed_ft_s": 0.0328, "vel_north_m_s": 0.0, "vel_east_m_s": -0.01, "vel_down_m_s": 0.02, "usable_for_triangulation": false, "t_gcs_rx_ms": 1776460244507}
{"run_id": "20260417_140805", "kraken_seq": 202, "telemetry_seq": 97, "t_rx_ms": 1776460240505, "dt_ms": -133, "doa_deg": 238.0, "confidence_0_1": 0.5093778669834137, "lat_deg": 34.0407082, "lon_deg": -117.81546929999999, "altitude_rel_ft": -0.6496, "yaw_deg": -27.6888, "pitch_deg": 10.1885, "roll_deg": -68.3653, "ground_speed_ft_s": 0.0328, "vel_north_m_s": 0.0, "vel_east_m_s": -0.01, "vel_down_m_s": 0.02, "usable_for_triangulation": false, "t_gcs_rx_ms": 1776460245118}
{"run_id": "20260417_140805", "kraken_seq": 203, "telemetry_seq": 100, "t_rx_ms": 1776460240910, "dt_ms": 67, "doa_deg": 238.0, "confidence_0_1": 0.45370835810899734, "lat_deg": 34.0407082, "lon_deg": -117.81546949999999, "altitude_rel_ft": -0.082, "yaw_deg": -28.4186, "pitch_deg": 10.5344, "roll_deg": -67.5277, "ground_speed_ft_s": 0.0328, "vel_north_m_s": 0.0, "vel_east_m_s": -0.01, "vel_down_m_s": 0.02, "usable_for_triangulation": false, "t_gcs_rx_ms": 1776460245451}
{"run_id": "20260417_140805", "kraken_seq": 204, "telemetry_seq": 103, "t_rx_ms": 1776460241637, "dt_ms": -55, "doa_deg": 240.0, "confidence_0_1": 0.4802572727203369, "lat_deg": 34.0407082, "lon_deg": -117.81546949999999, "altitude_rel_ft": -0.082, "yaw_deg": -28.4186, "pitch_deg": 10.5344, "roll_deg": -67.5277, "ground_speed_ft_s": 0.0328, "vel_north_m_s": 0.0, "vel_east_m_s": -0.01, "vel_down_m_s": 0.02, "usable_for_triangulation": false, "t_gcs_rx_ms": 1776460246286}
{"run_id": "20260417_140805", "kraken_seq": 205, "telemetry_seq": 105, "t_rx_ms": 1776460241950, "dt_ms": 36, "doa_deg": 243.0, "confidence_0_1": 0.42271506041288376, "lat_deg": 34.0407082, "lon_deg": -117.8154697, "altitude_rel_ft": -0.1214, "yaw_deg": -27.3641, "pitch_deg": 11.1012, "roll_deg": -66.562, "ground_speed_ft_s": 0.0, "vel_north_m_s": 0.0, "vel_east_m_s": 0.0, "vel_down_m_s": 0.01, "usable_for_triangulation": false, "t_gcs_rx_ms": 1776460246533}
{"run_id": "20260417_140805", "kraken_seq": 206, "telemetry_seq": 106, "t_rx_ms": 1776460242254, "dt_ms": -68, "doa_deg": 244.0, "confidence_0_1": 0.3635046258568764, "lat_deg": 34.0407082, "lon_deg": -117.8154697, "altitude_rel_ft": -0.1214, "yaw_deg": -27.3641, "pitch_deg": 11.1012, "roll_deg": -66.562, "ground_speed_ft_s": 0.0, "vel_north_m_s": 0.0, "vel_east_m_s": 0.0, "vel_down_m_s": 0.01, "usable_for_triangulation": false, "t_gcs_rx_ms": 1776460247270}
{"run_id": "20260417_140805", "kraken_seq": 207, "telemetry_seq": 109, "t_rx_ms": 1776460242762, "dt_ms": 27, "doa_deg": 244.0, "confidence_0_1": 0.3648519143462181, "lat_deg": 34.0407082, "lon_deg": -117.8154697, "altitude_rel_ft": -0.1345, "yaw_deg": -28.626, "pitch_deg": 11.7512, "roll_deg": -62.6928, "ground_speed_ft_s": 0.0656, "vel_north_m_s": 0.0, "vel_east_m_s": -0.02, "vel_down_m_s": 0.02, "usable_for_triangulation": false, "t_gcs_rx_ms": 1776460247558}
{"run_id": "20260417_140805", "kraken_seq": 208, "telemetry_seq": 111, "t_rx_ms": 1776460243177, "dt_ms": 18, "doa_deg": 243.0, "confidence_0_1": 0.3559906408190727, "lat_deg": 34.0407082, "lon_deg": -117.8154697, "altitude_rel_ft": -0.1345, "yaw_deg": -28.626, "pitch_deg": 11.7512, "roll_deg": -62.6928, "ground_speed_ft_s": 0.0656, "vel_north_m_s": 0.0, "vel_east_m_s": -0.02, "vel_down_m_s": 0.02, "usable_for_triangulation": false, "t_gcs_rx_ms": 1776460248207}
{"run_id": "20260417_140805", "kraken_seq": 209, "telemetry_seq": 112, "t_rx_ms": 1776460243491, "dt_ms": -95, "doa_deg": 243.0, "confidence_0_1": 0.3504737839102745, "lat_deg": 34.0407082, "lon_deg": -117.8154697, "altitude_rel_ft": -0.1345, "yaw_deg": -28.626, "pitch_deg": 11.7512, "roll_deg": -62.6928, "ground_speed_ft_s": 0.0656, "vel_north_m_s": 0.0, "vel_east_m_s": -0.02, "vel_down_m_s": 0.02, "usable_for_triangulation": false, "t_gcs_rx_ms": 1776460248445}
{"run_id": "20260417_140805", "kraken_seq": 210, "telemetry_seq": 114, "t_rx_ms": 1776460243896, "dt_ms": -80, "doa_deg": 243.0, "confidence_0_1": 0.3501676395535469, "lat_deg": 34.0407082, "lon_deg": -117.8154699, "altitude_rel_ft": -0.1837, "yaw_deg": -29.0534, "pitch_deg": 11.8244, "roll_deg": -63.9426, "ground_speed_ft_s": 0.0656, "vel_north_m_s": 0.0, "vel_east_m_s": -0.02, "vel_down_m_s": 0.04, "usable_for_triangulation": false, "t_gcs_rx_ms": 1776460249147}
{"run_id": "20260417_140805", "kraken_seq": 211, "telemetry_seq": 117, "t_rx_ms": 1776460244406, "dt_ms": 15, "doa_deg": 243.0, "confidence_0_1": 0.349428690969944, "lat_deg": 34.0407082, "lon_deg": -117.8154699, "altitude_rel_ft": -0.1837, "yaw_deg": -29.0534, "pitch_deg": 11.8244, "roll_deg": -63.9426, "ground_speed_ft_s": 0.0656, "vel_north_m_s": 0.0, "vel_east_m_s": -0.02, "vel_down_m_s": 0.04, "usable_for_triangulation": false, "t_gcs_rx_ms": 1776460249325}
{"run_id": "20260417_140805", "kraken_seq": 212, "telemetry_seq": 120, "t_rx_ms": 1776460245116, "dt_ms": -37, "doa_deg": 242.0, "confidence_0_1": 0.35053156316280365, "lat_deg": 34.0407083, "lon_deg": -117.81546999999999, "altitude_rel_ft": -0.1837, "yaw_deg": -29.279, "pitch_deg": 11.9726, "roll_deg": -64.4256, "ground_speed_ft_s": 0.0656, "vel_north_m_s": 0.0, "vel_east_m_s": -0.02, "vel_down_m_s": 0.01, "usable_for_triangulation": false, "t_gcs_rx_ms": 1776460249851}
{"run_id": "20260417_140805", "kraken_seq": 213, "telemetry_seq": 122, "t_rx_ms": 1776460245428, "dt_ms": 55, "doa_deg": 242.0, "confidence_0_1": 0.34009505063295364, "lat_deg": 34.0407083, "lon_deg": -117.81546999999999, "altitude_rel_ft": -0.1837, "yaw_deg": -29.279, "pitch_deg": 11.9726, "roll_deg": -64.4256, "ground_speed_ft_s": 0.0656, "vel_north_m_s": 0.0, "vel_east_m_s": -0.02, "vel_down_m_s": 0.01, "usable_for_triangulation": false, "t_gcs_rx_ms": 1776460250300}
{"run_id": "20260417_140805", "kraken_seq": 214, "telemetry_seq": 124, "t_rx_ms": 1776460245836, "dt_ms": 51, "doa_deg": 243.0, "confidence_0_1": 0.31993042677640915, "lat_deg": 34.0407083, "lon_deg": -117.8154699, "altitude_rel_ft": -0.2428, "yaw_deg": -29.1731, "pitch_deg": 12.0815, "roll_deg": -64.8353, "ground_speed_ft_s": 0.0328, "vel_north_m_s": 0.0, "vel_east_m_s": -0.01, "vel_down_m_s": 0.01, "usable_for_triangulation": false, "t_gcs_rx_ms": 1776460250823}
{"run_id": "20260417_140805", "kraken_seq": 215, "telemetry_seq": 127, "t_rx_ms": 1776460246447, "dt_ms": 51, "doa_deg": 243.0, "confidence_0_1": 0.3194340690970421, "lat_deg": 34.0407083, "lon_deg": -117.8154699, "altitude_rel_ft": -0.2428, "yaw_deg": -29.1731, "pitch_deg": 12.0815, "roll_deg": -64.8353, "ground_speed_ft_s": 0.0328, "vel_north_m_s": 0.0, "vel_east_m_s": -0.01, "vel_down_m_s": 0.01, "usable_for_triangulation": false, "t_gcs_rx_ms": 1776460251232}
{"run_id": "20260417_140805", "kraken_seq": 216, "telemetry_seq": 128, "t_rx_ms": 1776460246657, "dt_ms": 41, "doa_deg": 243.0, "confidence_0_1": 0.3078841604292393, "lat_deg": 34.0407085, "lon_deg": -117.8154699, "altitude_rel_ft": 0.0295, "yaw_deg": -29.3518, "pitch_deg": 12.0443, "roll_deg": -65.1544, "ground_speed_ft_s": 0.0, "vel_north_m_s": 0.0, "vel_east_m_s": 0.0, "vel_down_m_s": 0.0, "usable_for_triangulation": false, "t_gcs_rx_ms": 1776460251625}
{"run_id": "20260417_140805", "kraken_seq": 217, "telemetry_seq": 131, "t_rx_ms": 1776460247364, "dt_ms": -64, "doa_deg": 242.0, "confidence_0_1": 0.3103310987353325, "lat_deg": 34.0407085, "lon_deg": -117.8154699, "altitude_rel_ft": 0.0295, "yaw_deg": -29.3518, "pitch_deg": 12.0443, "roll_deg": -65.1544, "ground_speed_ft_s": 0.0, "vel_north_m_s": 0.0, "vel_east_m_s": 0.0, "vel_down_m_s": 0.0, "usable_for_triangulation": false, "t_gcs_rx_ms": 1776460252297}
{"run_id": "20260417_140805", "kraken_seq": 218, "telemetry_seq": 132, "t_rx_ms": 1776460247569, "dt_ms": -67, "doa_deg": 242.0, "confidence_0_1": 0.31762365251779556, "lat_deg": 34.0407085, "lon_deg": -117.8154699, "altitude_rel_ft": 0.0295, "yaw_deg": -29.3518, "pitch_deg": 12.0443, "roll_deg": -65.1544, "ground_speed_ft_s": 0.0, "vel_north_m_s": 0.0, "vel_east_m_s": 0.0, "vel_down_m_s": 0.0, "usable_for_triangulation": false, "t_gcs_rx_ms": 1776460252667}
{"run_id": "20260417_140805", "kraken_seq": 219, "telemetry_seq": 135, "t_rx_ms": 1776460248083, "dt_ms": 31, "doa_deg": 242.0, "confidence_0_1": 0.32105088233947754, "lat_deg": 34.0407085, "lon_deg": -117.8154699, "altitude_rel_ft": 0.128, "yaw_deg": -29.3286, "pitch_deg": 12.0217, "roll_deg": -65.3898, "ground_speed_ft_s": 0.0, "vel_north_m_s": 0.0, "vel_east_m_s": 0.0, "vel_down_m_s": 0.0, "usable_for_triangulation": false, "t_gcs_rx_ms": 1776460253205}
{"run_id": "20260417_140805", "kraken_seq": 220, "telemetry_seq": 136, "t_rx_ms": 1776460248386, "dt_ms": -67, "doa_deg": 242.0, "confidence_0_1": 0.32230421900749207, "lat_deg": 34.0407085, "lon_deg": -117.8154699, "altitude_rel_ft": 0.128, "yaw_deg": -29.3286, "pitch_deg": 12.0217, "roll_deg": -65.3898, "ground_speed_ft_s": 0.0, "vel_north_m_s": 0.0, "vel_east_m_s": 0.0, "vel_down_m_s": 0.0, "usable_for_triangulation": false, "t_gcs_rx_ms": 1776460253497}
{"run_id": "20260417_140805", "kraken_seq": 221, "telemetry_seq": 139, "t_rx_ms": 1776460248890, "dt_ms": 39, "doa_deg": 242.0, "confidence_0_1": 0.3229338675737381, "lat_deg": 34.0407085, "lon_deg": -117.81546979999999, "altitude_rel_ft": 0.164, "yaw_deg": -29.295, "pitch_deg": 12.163, "roll_deg": -65.523, "ground_speed_ft_s": 0.0, "vel_north_m_s": 0.0, "vel_east_m_s": 0.0, "vel_down_m_s": 0.0, "usable_for_triangulation": false, "t_gcs_rx_ms": 1776460254091}
{"run_id": "20260417_140805", "kraken_seq": 222, "telemetry_seq": 141, "t_rx_ms": 1776460249323, "dt_ms": 16, "doa_deg": 242.0, "confidence_0_1": 0.31958699226379395, "lat_deg": 34.0407085, "lon_deg": -117.81546979999999, "altitude_rel_ft": 0.164, "yaw_deg": -29.295, "pitch_deg": 12.163, "roll_deg": -65.523, "ground_speed_ft_s": 0.0, "vel_north_m_s": 0.0, "vel_east_m_s": 0.0, "vel_down_m_s": 0.0, "usable_for_triangulation": false, "t_gcs_rx_ms": 1776460254562}
{"run_id": "20260417_140805", "kraken_seq": 223, "telemetry_seq": 143, "t_rx_ms": 1776460249738, "dt_ms": 5, "doa_deg": 242.0, "confidence_0_1": 0.32037045806646347, "lat_deg": 34.0407085, "lon_deg": -117.8154696, "altitude_rel_ft": 0.1476, "yaw_deg": -29.5695, "pitch_deg": 12.0765, "roll_deg": -65.7134, "ground_speed_ft_s": 0.0, "vel_north_m_s": 0.0, "vel_east_m_s": 0.0, "vel_down_m_s": 0.0, "usable_for_triangulation": false, "t_gcs_rx_ms": 1776460255039}
{"run_id": "20260417_140805", "kraken_seq": 224, "telemetry_seq": 145, "t_rx_ms": 1776460250147, "dt_ms": 3, "doa_deg": 241.0, "confidence_0_1": 0.32157111912965775, "lat_deg": 34.0407085, "lon_deg": -117.8154696, "altitude_rel_ft": 0.1476, "yaw_deg": -29.5695, "pitch_deg": 12.0765, "roll_deg": -65.7134, "ground_speed_ft_s": 0.0, "vel_north_m_s": 0.0, "vel_east_m_s": 0.0, "vel_down_m_s": 0.0, "usable_for_triangulation": false, "t_gcs_rx_ms": 1776460255398}
{"run_id": "20260417_140805", "kraken_seq": 225, "telemetry_seq": 146, "t_rx_ms": 1776460250448, "dt_ms": -96, "doa_deg": 241.0, "confidence_0_1": 0.3189467638731003, "lat_deg": 34.0407085, "lon_deg": -117.8154696, "altitude_rel_ft": 0.1476, "yaw_deg": -29.5695, "pitch_deg": 12.0765, "roll_deg": -65.7134, "ground_speed_ft_s": 0.0, "vel_north_m_s": 0.0, "vel_east_m_s": 0.0, "vel_down_m_s": 0.0, "usable_for_triangulation": false, "t_gcs_rx_ms": 1776460255891}
{"run_id": "20260417_140805", "kraken_seq": 226, "telemetry_seq": 149, "t_rx_ms": 1776460250954, "dt_ms": 17, "doa_deg": 241.0, "confidence_0_1": 0.32003093510866165, "lat_deg": 34.0407085, "lon_deg": -117.81546949999999, "altitude_rel_ft": 0.2165, "yaw_deg": -29.5126, "pitch_deg": 12.1139, "roll_deg": -65.7629, "ground_speed_ft_s": 0.0, "vel_north_m_s": 0.0, "vel_east_m_s": 0.0, "vel_down_m_s": 0.0, "usable_for_triangulation": false, "t_gcs_rx_ms": 1776460256289}
{"run_id": "20260417_140805", "kraken_seq": 227, "telemetry_seq": 151, "t_rx_ms": 1776460251474, "dt_ms": -98, "doa_deg": 242.0, "confidence_0_1": 0.3074553795158863, "lat_deg": 34.0407085, "lon_deg": -117.81546949999999, "altitude_rel_ft": 0.2165, "yaw_deg": -29.5126, "pitch_deg": 12.1139, "roll_deg": -65.7629, "ground_speed_ft_s": 0.0, "vel_north_m_s": 0.0, "vel_east_m_s": 0.0, "vel_down_m_s": 0.0, "usable_for_triangulation": false, "t_gcs_rx_ms": 1776460256791}
{"run_id": "20260417_140805", "kraken_seq": 228, "telemetry_seq": 154, "t_rx_ms": 1776460251980, "dt_ms": 9, "doa_deg": 243.0, "confidence_0_1": 0.29825234785676, "lat_deg": 34.0407085, "lon_deg": -117.8154694, "altitude_rel_ft": 0.2461, "yaw_deg": -29.656, "pitch_deg": 12.1083, "roll_deg": -65.773, "ground_speed_ft_s": 0.0328, "vel_north_m_s": 0.0, "vel_east_m_s": 0.01, "vel_down_m_s": 0.0, "usable_for_triangulation": false, "t_gcs_rx_ms": 1776460257277}
{"run_id": "20260417_140805", "kraken_seq": 229, "telemetry_seq": 155, "t_rx_ms": 1776460252289, "dt_ms": -100, "doa_deg": 243.0, "confidence_0_1": 0.2944045513868332, "lat_deg": 34.0407085, "lon_deg": -117.8154694, "altitude_rel_ft": 0.2461, "yaw_deg": -29.656, "pitch_deg": 12.1083, "roll_deg": -65.773, "ground_speed_ft_s": 0.0328, "vel_north_m_s": 0.0, "vel_east_m_s": 0.01, "vel_down_m_s": 0.0, "usable_for_triangulation": false, "t_gcs_rx_ms": 1776460257579}
{"run_id": "20260417_140805", "kraken_seq": 230, "telemetry_seq": 158, "t_rx_ms": 1776460252813, "dt_ms": -19, "doa_deg": 243.0, "confidence_0_1": 0.29781389981508255, "lat_deg": 34.0407084, "lon_deg": -117.81546929999999, "altitude_rel_ft": 0.082, "yaw_deg": -29.7677, "pitch_deg": 12.062, "roll_deg": -65.904, "ground_speed_ft_s": 0.0328, "vel_north_m_s": 0.0, "vel_east_m_s": 0.01, "vel_down_m_s": 0.0, "usable_for_triangulation": false, "t_gcs_rx_ms": 1776460258239}
{"run_id": "20260417_140805", "kraken_seq": 231, "telemetry_seq": 160, "t_rx_ms": 1776460253214, "dt_ms": -18, "doa_deg": 242.0, "confidence_0_1": 0.30869241803884506, "lat_deg": 34.0407084, "lon_deg": -117.81546929999999, "altitude_rel_ft": 0.082, "yaw_deg": -29.7677, "pitch_deg": 12.062, "roll_deg": -65.904, "ground_speed_ft_s": 0.0328, "vel_north_m_s": 0.0, "vel_east_m_s": 0.01, "vel_down_m_s": 0.0, "usable_for_triangulation": false, "t_gcs_rx_ms": 1776460258542}
{"run_id": "20260417_140805", "kraken_seq": 232, "telemetry_seq": 163, "t_rx_ms": 1776460253852, "dt_ms": -51, "doa_deg": 241.0, "confidence_0_1": 0.31316202133893967, "lat_deg": 34.0407084, "lon_deg": -117.8154692, "altitude_rel_ft": 0.3018, "yaw_deg": -29.7584, "pitch_deg": 12.0782, "roll_deg": -65.9549, "ground_speed_ft_s": 0.0328, "vel_north_m_s": 0.0, "vel_east_m_s": 0.01, "vel_down_m_s": -0.01, "usable_for_triangulation": false, "t_gcs_rx_ms": 1776460259170}
{"run_id": "20260417_140805", "kraken_seq": 233, "telemetry_seq": 165, "t_rx_ms": 1776460254156, "dt_ms": 50, "doa_deg": 242.0, "confidence_0_1": 0.3098003566265106, "lat_deg": 34.0407084, "lon_deg": -117.8154692, "altitude_rel_ft": 0.3018, "yaw_deg": -29.7584, "pitch_deg": 12.0782, "roll_deg": -65.9549, "ground_speed_ft_s": 0.0328, "vel_north_m_s": 0.0, "vel_east_m_s": 0.01, "vel_down_m_s": -0.01, "usable_for_triangulation": false, "t_gcs_rx_ms": 1776460259488}
{"run_id": "20260417_140805", "kraken_seq": 234, "telemetry_seq": 167, "t_rx_ms": 1776460254569, "dt_ms": 41, "doa_deg": 242.0, "confidence_0_1": 0.3122847341001034, "lat_deg": 34.0407084, "lon_deg": -117.8154692, "altitude_rel_ft": 0.3018, "yaw_deg": -29.7584, "pitch_deg": 12.0782, "roll_deg": -65.9549, "ground_speed_ft_s": 0.0328, "vel_north_m_s": 0.0, "vel_east_m_s": 0.01, "vel_down_m_s": -0.01, "usable_for_triangulation": false, "t_gcs_rx_ms": 1776460259906}
{"run_id": "20260417_140805", "kraken_seq": 235, "telemetry_seq": 169, "t_rx_ms": 1776460254976, "dt_ms": 38, "doa_deg": 242.0, "confidence_0_1": 0.31750526279211044, "lat_deg": 34.0407083, "lon_deg": -117.8154691, "altitude_rel_ft": 0.5348, "yaw_deg": -29.9881, "pitch_deg": 12.0329, "roll_deg": -66.0043, "ground_speed_ft_s": 0.0328, "vel_north_m_s": 0.0, "vel_east_m_s": 0.01, "vel_down_m_s": -0.02, "usable_for_triangulation": false, "t_gcs_rx_ms": 1776460260427}
{"run_id": "20260417_140805", "kraken_seq": 236, "telemetry_seq": 171, "t_rx_ms": 1776460255381, "dt_ms": 38, "doa_deg": 242.0, "confidence_0_1": 0.33477697521448135, "lat_deg": 34.0407083, "lon_deg": -117.8154691, "altitude_rel_ft": 0.5348, "yaw_deg": -29.9881, "pitch_deg": 12.0329, "roll_deg": -66.0043, "ground_speed_ft_s": 0.0328, "vel_north_m_s": 0.0, "vel_east_m_s": 0.01, "vel_down_m_s": -0.02, "usable_for_triangulation": false, "t_gcs_rx_ms": 1776460260811}
{"run_id": "20260417_140805", "kraken_seq": 237, "telemetry_seq": 173, "t_rx_ms": 1776460255783, "dt_ms": 40, "doa_deg": 242.0, "confidence_0_1": 0.3318272903561592, "lat_deg": 34.0407082, "lon_deg": -117.8154691, "altitude_rel_ft": 0.6529, "yaw_deg": -30.1331, "pitch_deg": 12.0057, "roll_deg": -66.0371, "ground_speed_ft_s": 0.0328, "vel_north_m_s": 0.0, "vel_east_m_s": 0.01, "vel_down_m_s": -0.02, "usable_for_triangulation": false, "t_gcs_rx_ms": 1776460261304}
{"run_id": "20260417_140805", "kraken_seq": 238, "telemetry_seq": 175, "t_rx_ms": 1776460256211, "dt_ms": 16, "doa_deg": 242.0, "confidence_0_1": 0.31931713223457336, "lat_deg": 34.0407082, "lon_deg": -117.8154691, "altitude_rel_ft": 0.6529, "yaw_deg": -30.1331, "pitch_deg": 12.0057, "roll_deg": -66.0371, "ground_speed_ft_s": 0.0328, "vel_north_m_s": 0.0, "vel_east_m_s": 0.01, "vel_down_m_s": -0.02, "usable_for_triangulation": false, "t_gcs_rx_ms": 1776460261627}
{"run_id": "20260417_140805", "kraken_seq": 239, "telemetry_seq": 177, "t_rx_ms": 1776460256724, "dt_ms": -95, "doa_deg": 242.0, "confidence_0_1": 0.32999034970998764, "lat_deg": 34.0407082, "lon_deg": -117.8154691, "altitude_rel_ft": 0.6529, "yaw_deg": -30.1331, "pitch_deg": 12.0057, "roll_deg": -66.0371, "ground_speed_ft_s": 0.0328, "vel_north_m_s": 0.0, "vel_east_m_s": 0.01, "vel_down_m_s": -0.02, "usable_for_triangulation": false, "t_gcs_rx_ms": 1776460262278}
{"run_id": "20260417_140805", "kraken_seq": 240, "telemetry_seq": 180, "t_rx_ms": 1776460257160, "dt_ms": 76, "doa_deg": 241.0, "confidence_0_1": 0.3521454706788063, "lat_deg": 34.0407082, "lon_deg": -117.8154691, "altitude_rel_ft": 0.7283, "yaw_deg": -30.1702, "pitch_deg": 11.9922, "roll_deg": -66.106, "ground_speed_ft_s": 0.0, "vel_north_m_s": 0.0, "vel_east_m_s": 0.0, "vel_down_m_s": -0.02, "usable_for_triangulation": false, "t_gcs_rx_ms": 1776460262573}
{"run_id": "20260417_140805", "kraken_seq": 241, "telemetry_seq": 182, "t_rx_ms": 1776460257566, "dt_ms": 73, "doa_deg": 242.0, "confidence_0_1": 0.3213335946202278, "lat_deg": 34.0407082, "lon_deg": -117.8154691, "altitude_rel_ft": 0.7283, "yaw_deg": -30.1702, "pitch_deg": 11.9922, "roll_deg": -66.106, "ground_speed_ft_s": 0.0, "vel_north_m_s": 0.0, "vel_east_m_s": 0.0, "vel_down_m_s": -0.02, "usable_for_triangulation": false, "t_gcs_rx_ms": 1776460263170}
{"run_id": "20260417_140805", "kraken_seq": 242, "telemetry_seq": 184, "t_rx_ms": 1776460258076, "dt_ms": -29, "doa_deg": 242.0, "confidence_0_1": 0.3117113560438156, "lat_deg": 34.0407082, "lon_deg": -117.8154692, "altitude_rel_ft": 0.8235, "yaw_deg": -30.161, "pitch_deg": 11.9868, "roll_deg": -66.1328, "ground_speed_ft_s": 0.0, "vel_north_m_s": 0.0, "vel_east_m_s": 0.0, "vel_down_m_s": -0.02, "usable_for_triangulation": false, "t_gcs_rx_ms": 1776460263492}
{"run_id": "20260417_140805", "kraken_seq": 243, "telemetry_seq": 186, "t_rx_ms": 1776460258513, "dt_ms": -57, "doa_deg": 242.0, "confidence_0_1": 0.3375934436917305, "lat_deg": 34.0407082, "lon_deg": -117.8154692, "altitude_rel_ft": 0.8235, "yaw_deg": -30.161, "pitch_deg": 11.9868, "roll_deg": -66.1328, "ground_speed_ft_s": 0.0, "vel_north_m_s": 0.0, "vel_east_m_s": 0.0, "vel_down_m_s": -0.02, "usable_for_triangulation": false, "t_gcs_rx_ms": 1776460264123}
{"run_id": "20260417_140805", "kraken_seq": 244, "telemetry_seq": 188, "t_rx_ms": 1776460258815, "dt_ms": 48, "doa_deg": 242.0, "confidence_0_1": 0.3282438963651657, "lat_deg": 34.0407082, "lon_deg": -117.8154691, "altitude_rel_ft": -0.0328, "yaw_deg": -30.0619, "pitch_deg": 12.0178, "roll_deg": -66.2366, "ground_speed_ft_s": 0.0328, "vel_north_m_s": 0.0, "vel_east_m_s": 0.01, "vel_down_m_s": -0.01, "usable_for_triangulation": false, "t_gcs_rx_ms": 1776460264463}
{"run_id": "20260417_140805", "kraken_seq": 245, "telemetry_seq": 190, "t_rx_ms": 1776460259328, "dt_ms": -45, "doa_deg": 243.0, "confidence_0_1": 0.3230525925755501, "lat_deg": 34.0407082, "lon_deg": -117.8154691, "altitude_rel_ft": -0.0328, "yaw_deg": -30.0619, "pitch_deg": 12.0178, "roll_deg": -66.2366, "ground_speed_ft_s": 0.0328, "vel_north_m_s": 0.0, "vel_east_m_s": 0.01, "vel_down_m_s": -0.01, "usable_for_triangulation": false, "t_gcs_rx_ms": 1776460264831}
{"run_id": "20260417_140805", "kraken_seq": 246, "telemetry_seq": 193, "t_rx_ms": 1776460259840, "dt_ms": 69, "doa_deg": 243.0, "confidence_0_1": 0.3471093624830246, "lat_deg": 34.0407082, "lon_deg": -117.8154691, "altitude_rel_ft": -0.1017, "yaw_deg": -30.2156, "pitch_deg": 11.9966, "roll_deg": -66.1973, "ground_speed_ft_s": 0.0, "vel_north_m_s": 0.0, "vel_east_m_s": 0.0, "vel_down_m_s": -0.01, "usable_for_triangulation": false, "t_gcs_rx_ms": 1776460265292}
{"run_id": "20260417_140805", "kraken_seq": 247, "telemetry_seq": 195, "t_rx_ms": 1776460260251, "dt_ms": 62, "doa_deg": 245.0, "confidence_0_1": 0.3286322206258774, "lat_deg": 34.0407082, "lon_deg": -117.8154691, "altitude_rel_ft": -0.1017, "yaw_deg": -30.2156, "pitch_deg": 11.9966, "roll_deg": -66.1973, "ground_speed_ft_s": 0.0, "vel_north_m_s": 0.0, "vel_east_m_s": 0.0, "vel_down_m_s": -0.01, "usable_for_triangulation": false, "t_gcs_rx_ms": 1776460265784}
{"run_id": "20260417_140805", "kraken_seq": 248, "telemetry_seq": 197, "t_rx_ms": 1776460260663, "dt_ms": 51, "doa_deg": 243.0, "confidence_0_1": 0.2829032577574253, "lat_deg": 34.0407082, "lon_deg": -117.8154691, "altitude_rel_ft": -0.1575, "yaw_deg": -30.2446, "pitch_deg": 11.957, "roll_deg": -66.2836, "ground_speed_ft_s": 0.0, "vel_north_m_s": 0.0, "vel_east_m_s": 0.0, "vel_down_m_s": 0.0, "usable_for_triangulation": false, "t_gcs_rx_ms": 1776460266267}
{"run_id": "20260417_140805", "kraken_seq": 249, "telemetry_seq": 198, "t_rx_ms": 1776460260965, "dt_ms": -49, "doa_deg": 244.0, "confidence_0_1": 0.31861189752817154, "lat_deg": 34.0407082, "lon_deg": -117.8154691, "altitude_rel_ft": -0.1575, "yaw_deg": -30.2446, "pitch_deg": 11.957, "roll_deg": -66.2836, "ground_speed_ft_s": 0.0, "vel_north_m_s": 0.0, "vel_east_m_s": 0.0, "vel_down_m_s": 0.0, "usable_for_triangulation": false, "t_gcs_rx_ms": 1776460266587}
{"run_id": "20260417_140805", "kraken_seq": 250, "telemetry_seq": 200, "t_rx_ms": 1776460261367, "dt_ms": -45, "doa_deg": 244.0, "confidence_0_1": 0.34122325479984283, "lat_deg": 34.0407082, "lon_deg": -117.8154691, "altitude_rel_ft": -0.1575, "yaw_deg": -30.2446, "pitch_deg": 11.957, "roll_deg": -66.2836, "ground_speed_ft_s": 0.0, "vel_north_m_s": 0.0, "vel_east_m_s": 0.0, "vel_down_m_s": 0.0, "usable_for_triangulation": false, "t_gcs_rx_ms": 1776460267281}
{"run_id": "20260417_140805", "kraken_seq": 251, "telemetry_seq": 203, "t_rx_ms": 1776460261888, "dt_ms": 36, "doa_deg": 242.0, "confidence_0_1": 0.3122105449438095, "lat_deg": 34.0407082, "lon_deg": -117.8154691, "altitude_rel_ft": -0.1837, "yaw_deg": -30.2204, "pitch_deg": 13.7283, "roll_deg": -62.688, "ground_speed_ft_s": 0.0, "vel_north_m_s": 0.0, "vel_east_m_s": 0.0, "vel_down_m_s": 0.0, "usable_for_triangulation": false, "t_gcs_rx_ms": 1776460267520}
{"run_id": "20260417_140805", "kraken_seq": 252, "telemetry_seq": 205, "t_rx_ms": 1776460262299, "dt_ms": 36, "doa_deg": 242.0, "confidence_0_1": 0.2850467525422573, "lat_deg": 34.0407082, "lon_deg": -117.8154691, "altitude_rel_ft": -0.1837, "yaw_deg": -30.2204, "pitch_deg": 13.7283, "roll_deg": -62.688, "ground_speed_ft_s": 0.0, "vel_north_m_s": 0.0, "vel_east_m_s": 0.0, "vel_down_m_s": 0.0, "usable_for_triangulation": false, "t_gcs_rx_ms": 1776460267991}
{"run_id": "20260417_140805", "kraken_seq": 253, "telemetry_seq": 207, "t_rx_ms": 1776460262703, "dt_ms": 40, "doa_deg": 243.0, "confidence_0_1": 0.28593922033905983, "lat_deg": 34.0407082, "lon_deg": -117.8154691, "altitude_rel_ft": -0.1903, "yaw_deg": -31.142, "pitch_deg": 13.8025, "roll_deg": -61.884, "ground_speed_ft_s": 0.0656, "vel_north_m_s": 0.0, "vel_east_m_s": 0.02, "vel_down_m_s": -0.01, "usable_for_triangulation": false, "t_gcs_rx_ms": 1776460268276}
{"run_id": "20260417_140805", "kraken_seq": 254, "telemetry_seq": 209, "t_rx_ms": 1776460263204, "dt_ms": -60, "doa_deg": 243.0, "confidence_0_1": 0.28660034760832787, "lat_deg": 34.0407082, "lon_deg": -117.8154691, "altitude_rel_ft": -0.1903, "yaw_deg": -31.142, "pitch_deg": 13.8025, "roll_deg": -61.884, "ground_speed_ft_s": 0.0656, "vel_north_m_s": 0.0, "vel_east_m_s": 0.02, "vel_down_m_s": -0.01, "usable_for_triangulation": false, "t_gcs_rx_ms": 1776460268836}
{"run_id": "20260417_140805", "kraken_seq": 255, "telemetry_seq": 212, "t_rx_ms": 1776460263706, "dt_ms": 40, "doa_deg": 244.0, "confidence_0_1": 0.2834426239132881, "lat_deg": 34.0407082, "lon_deg": -117.8154691, "altitude_rel_ft": -0.1247, "yaw_deg": -31.4858, "pitch_deg": 13.7518, "roll_deg": -62.2024, "ground_speed_ft_s": 0.0, "vel_north_m_s": 0.0, "vel_east_m_s": 0.0, "vel_down_m_s": -0.01, "usable_for_triangulation": false, "t_gcs_rx_ms": 1776460269307}
{"run_id": "20260417_140805", "kraken_seq": 256, "telemetry_seq": 213, "t_rx_ms": 1776460264009, "dt_ms": -61, "doa_deg": 246.0, "confidence_0_1": 0.2520805038511753, "lat_deg": 34.0407082, "lon_deg": -117.8154691, "altitude_rel_ft": -0.1247, "yaw_deg": -31.4858, "pitch_deg": 13.7518, "roll_deg": -62.2024, "ground_speed_ft_s": 0.0, "vel_north_m_s": 0.0, "vel_east_m_s": 0.0, "vel_down_m_s": -0.01, "usable_for_triangulation": false, "t_gcs_rx_ms": 1776460269653}
{"run_id": "20260417_140805", "kraken_seq": 257, "telemetry_seq": 216, "t_rx_ms": 1776460264615, "dt_ms": -56, "doa_deg": 247.0, "confidence_0_1": 0.2520814724266529, "lat_deg": 34.0407082, "lon_deg": -117.8154691, "altitude_rel_ft": -0.1247, "yaw_deg": -31.4858, "pitch_deg": 13.7518, "roll_deg": -62.2024, "ground_speed_ft_s": 0.0, "vel_north_m_s": 0.0, "vel_east_m_s": 0.0, "vel_down_m_s": -0.01, "usable_for_triangulation": false, "t_gcs_rx_ms": 1776460270150}
{"run_id": "20260417_140805", "kraken_seq": 258, "telemetry_seq": 218, "t_rx_ms": 1776460264928, "dt_ms": 36, "doa_deg": 247.0, "confidence_0_1": 0.24029353633522987, "lat_deg": 34.0407082, "lon_deg": -117.8154691, "altitude_rel_ft": -0.1575, "yaw_deg": -31.3945, "pitch_deg": 11.1693, "roll_deg": -67.9611, "ground_speed_ft_s": 0.0, "vel_north_m_s": 0.0, "vel_east_m_s": 0.0, "vel_down_m_s": -0.02, "usable_for_triangulation": false, "t_gcs_rx_ms": 1776460270613}
{"run_id": "20260417_140805", "kraken_seq": 259, "telemetry_seq": 220, "t_rx_ms": 1776460265331, "dt_ms": 45, "doa_deg": 246.0, "confidence_0_1": 0.25708695873618126, "lat_deg": 34.0407082, "lon_deg": -117.8154691, "altitude_rel_ft": -0.1575, "yaw_deg": -31.3945, "pitch_deg": 11.1693, "roll_deg": -67.9611, "ground_speed_ft_s": 0.0, "vel_north_m_s": 0.0, "vel_east_m_s": 0.0, "vel_down_m_s": -0.02, "usable_for_triangulation": false, "t_gcs_rx_ms": 1776460271211}
{"run_id": "20260417_140805", "kraken_seq": 260, "telemetry_seq": 222, "t_rx_ms": 1776460265733, "dt_ms": 46, "doa_deg": 246.0, "confidence_0_1": 0.2544326148927212, "lat_deg": 34.0407083, "lon_deg": -117.8154691, "altitude_rel_ft": -0.4364, "yaw_deg": -31.4298, "pitch_deg": 10.8817, "roll_deg": -65.4776, "ground_speed_ft_s": 0.1392, "vel_north_m_s": 0.03, "vel_east_m_s": 0.03, "vel_down_m_s": 0.04, "usable_for_triangulation": false, "t_gcs_rx_ms": 1776460271403}
{"run_id": "20260417_140805", "kraken_seq": 261, "telemetry_seq": 224, "t_rx_ms": 1776460266233, "dt_ms": -50, "doa_deg": 245.0, "confidence_0_1": 0.26845522224903107, "lat_deg": 34.0407083, "lon_deg": -117.8154691, "altitude_rel_ft": -0.4364, "yaw_deg": -31.4298, "pitch_deg": 10.8817, "roll_deg": -65.4776, "ground_speed_ft_s": 0.1392, "vel_north_m_s": 0.03, "vel_east_m_s": 0.03, "vel_down_m_s": 0.04, "usable_for_triangulation": false, "t_gcs_rx_ms": 1776460271787}
{"run_id": "20260417_140805", "kraken_seq": 262, "telemetry_seq": 227, "t_rx_ms": 1776460266840, "dt_ms": -51, "doa_deg": 245.0, "confidence_0_1": 0.30427370220422745, "lat_deg": 34.0407085, "lon_deg": -117.815469, "altitude_rel_ft": -0.5282, "yaw_deg": -31.9224, "pitch_deg": 14.383, "roll_deg": -49.7493, "ground_speed_ft_s": 0.1312, "vel_north_m_s": 0.0, "vel_east_m_s": 0.04, "vel_down_m_s": 0.02, "usable_for_triangulation": true, "t_gcs_rx_ms": 1776460272317}
{"run_id": "20260417_140805", "kraken_seq": 263, "telemetry_seq": 229, "t_rx_ms": 1776460267145, "dt_ms": 45, "doa_deg": 246.0, "confidence_0_1": 0.31249528750777245, "lat_deg": 34.0407085, "lon_deg": -117.815469, "altitude_rel_ft": -0.5282, "yaw_deg": -31.9224, "pitch_deg": 14.383, "roll_deg": -49.7493, "ground_speed_ft_s": 0.1312, "vel_north_m_s": 0.0, "vel_east_m_s": 0.04, "vel_down_m_s": 0.02, "usable_for_triangulation": true, "t_gcs_rx_ms": 1776460272726}
{"run_id": "20260417_140805", "kraken_seq": 264, "telemetry_seq": 231, "t_rx_ms": 1776460267547, "dt_ms": 46, "doa_deg": 247.0, "confidence_0_1": 0.31665775924921036, "lat_deg": 34.0407085, "lon_deg": -117.815469, "altitude_rel_ft": -0.5282, "yaw_deg": -31.9224, "pitch_deg": 14.383, "roll_deg": -49.7493, "ground_speed_ft_s": 0.1312, "vel_north_m_s": 0.0, "vel_east_m_s": 0.04, "vel_down_m_s": 0.02, "usable_for_triangulation": true, "t_gcs_rx_ms": 1776460273335}
{"run_id": "20260417_140805", "kraken_seq": 265, "telemetry_seq": 233, "t_rx_ms": 1776460267952, "dt_ms": 47, "doa_deg": 246.0, "confidence_0_1": 0.31978804618120193, "lat_deg": 34.040708599999995, "lon_deg": -117.815469, "altitude_rel_ft": -0.584, "yaw_deg": -32.4095, "pitch_deg": 11.2562, "roll_deg": -25.3118, "ground_speed_ft_s": 0.1183, "vel_north_m_s": 0.02, "vel_east_m_s": 0.03, "vel_down_m_s": -0.01, "usable_for_triangulation": true, "t_gcs_rx_ms": 1776460273547}
{"run_id": "20260417_140805", "kraken_seq": 266, "telemetry_seq": 235, "t_rx_ms": 1776460268457, "dt_ms": -55, "doa_deg": 248.0, "confidence_0_1": 0.32410498708486557, "lat_deg": 34.040708599999995, "lon_deg": -117.815469, "altitude_rel_ft": -0.584, "yaw_deg": -32.4095, "pitch_deg": 11.2562, "roll_deg": -25.3118, "ground_speed_ft_s": 0.1183, "vel_north_m_s": 0.02, "vel_east_m_s": 0.03, "vel_down_m_s": -0.01, "usable_for_triangulation": true, "t_gcs_rx_ms": 1776460274144}
{"run_id": "20260417_140805", "kraken_seq": 267, "telemetry_seq": 237, "t_rx_ms": 1776460268862, "dt_ms": -56, "doa_deg": 247.0, "confidence_0_1": 0.3082318603992462, "lat_deg": 34.040708599999995, "lon_deg": -117.8154691, "altitude_rel_ft": -0.6759, "yaw_deg": -34.8466, "pitch_deg": 10.8143, "roll_deg": -0.731, "ground_speed_ft_s": 0.0, "vel_north_m_s": 0.0, "vel_east_m_s": 0.0, "vel_down_m_s": 0.01, "usable_for_triangulation": true, "t_gcs_rx_ms": 1776460274468}
{"run_id": "20260417_140805", "kraken_seq": 268, "telemetry_seq": 240, "t_rx_ms": 1776460269366, "dt_ms": 41, "doa_deg": 247.0, "confidence_0_1": 0.2825491316616535, "lat_deg": 34.040708599999995, "lon_deg": -117.8154691, "altitude_rel_ft": -0.6759, "yaw_deg": -34.8466, "pitch_deg": 10.8143, "roll_deg": -0.731, "ground_speed_ft_s": 0.0, "vel_north_m_s": 0.0, "vel_east_m_s": 0.0, "vel_down_m_s": 0.01, "usable_for_triangulation": false, "t_gcs_rx_ms": 1776460274876}
{"run_id": "20260417_140805", "kraken_seq": 269, "telemetry_seq": 242, "t_rx_ms": 1776460269768, "dt_ms": 41, "doa_deg": 247.0, "confidence_0_1": 0.2869531884789467, "lat_deg": 34.040708599999995, "lon_deg": -117.8154691, "altitude_rel_ft": -0.7546, "yaw_deg": -35.6627, "pitch_deg": 10.2333, "roll_deg": 4.7108, "ground_speed_ft_s": 0.0984, "vel_north_m_s": 0.0, "vel_east_m_s": 0.03, "vel_down_m_s": 0.0, "usable_for_triangulation": false, "t_gcs_rx_ms": 1776460275303}
{"run_id": "20260417_140805", "kraken_seq": 270, "telemetry_seq": 244, "t_rx_ms": 1776460270169, "dt_ms": 44, "doa_deg": 246.0, "confidence_0_1": 0.2962028793990612, "lat_deg": 34.040708599999995, "lon_deg": -117.8154691, "altitude_rel_ft": -0.7546, "yaw_deg": -35.6627, "pitch_deg": 10.2333, "roll_deg": 4.7108, "ground_speed_ft_s": 0.0984, "vel_north_m_s": 0.0, "vel_east_m_s": 0.03, "vel_down_m_s": 0.0, "usable_for_triangulation": false, "t_gcs_rx_ms": 1776460275792}
{"run_id": "20260417_140805", "kraken_seq": 271, "telemetry_seq": 246, "t_rx_ms": 1776460270676, "dt_ms": -58, "doa_deg": 246.0, "confidence_0_1": 0.3011181764304638, "lat_deg": 34.040708599999995, "lon_deg": -117.8154691, "altitude_rel_ft": -0.7546, "yaw_deg": -35.6627, "pitch_deg": 10.2333, "roll_deg": 4.7108, "ground_speed_ft_s": 0.0984, "vel_north_m_s": 0.0, "vel_east_m_s": 0.03, "vel_down_m_s": 0.0, "usable_for_triangulation": true, "t_gcs_rx_ms": 1776460276280}
{"run_id": "20260417_140805", "kraken_seq": 272, "telemetry_seq": 248, "t_rx_ms": 1776460271076, "dt_ms": -53, "doa_deg": 246.0, "confidence_0_1": 0.3000573068857193, "lat_deg": 34.0407085, "lon_deg": -117.8154692, "altitude_rel_ft": 0.0295, "yaw_deg": -36.264, "pitch_deg": 11.5691, "roll_deg": -0.4044, "ground_speed_ft_s": 0.0656, "vel_north_m_s": -0.02, "vel_east_m_s": 0.0, "vel_down_m_s": 0.0, "usable_for_triangulation": true, "t_gcs_rx_ms": 1776460276708}
{"run_id": "20260417_140805", "kraken_seq": 273, "telemetry_seq": 250, "t_rx_ms": 1776460271479, "dt_ms": -53, "doa_deg": 245.0, "confidence_0_1": 0.29670339077711105, "lat_deg": 34.0407085, "lon_deg": -117.8154692, "altitude_rel_ft": 0.0295, "yaw_deg": -36.264, "pitch_deg": 11.5691, "roll_deg": -0.4044, "ground_speed_ft_s": 0.0656, "vel_north_m_s": -0.02, "vel_east_m_s": 0.0, "vel_down_m_s": 0.0, "usable_for_triangulation": false, "t_gcs_rx_ms": 1776460277190}
{"run_id": "20260417_140805", "kraken_seq": 274, "telemetry_seq": 253, "t_rx_ms": 1776460271983, "dt_ms": 46, "doa_deg": 245.0, "confidence_0_1": 0.31035471707582474, "lat_deg": 34.0407083, "lon_deg": -117.81546929999999, "altitude_rel_ft": 0.0623, "yaw_deg": -39.8826, "pitch_deg": 14.4124, "roll_deg": -2.2301, "ground_speed_ft_s": 0.2388, "vel_north_m_s": -0.07, "vel_east_m_s": -0.02, "vel_down_m_s": -0.01, "usable_for_triangulation": true, "t_gcs_rx_ms": 1776460277563}
{"run_id": "20260417_140805", "kraken_seq": 275, "telemetry_seq": 255, "t_rx_ms": 1776460272386, "dt_ms": 46, "doa_deg": 244.0, "confidence_0_1": 0.3087541088461876, "lat_deg": 34.0407083, "lon_deg": -117.81546929999999, "altitude_rel_ft": 0.0623, "yaw_deg": -39.8826, "pitch_deg": 14.4124, "roll_deg": -2.2301, "ground_speed_ft_s": 0.2388, "vel_north_m_s": -0.07, "vel_east_m_s": -0.02, "vel_down_m_s": -0.01, "usable_for_triangulation": true, "t_gcs_rx_ms": 1776460278155}
{"run_id": "20260417_140805", "kraken_seq": 276, "telemetry_seq": 257, "t_rx_ms": 1776460272791, "dt_ms": 42, "doa_deg": 244.0, "confidence_0_1": 0.3003409132361412, "lat_deg": 34.0407082, "lon_deg": -117.8154694, "altitude_rel_ft": 0.0656, "yaw_deg": -39.8851, "pitch_deg": 14.2076, "roll_deg": -2.7941, "ground_speed_ft_s": 0.164, "vel_north_m_s": -0.05, "vel_east_m_s": 0.0, "vel_down_m_s": -0.02, "usable_for_triangulation": true, "t_gcs_rx_ms": 1776460278328}
{"run_id": "20260417_140805", "kraken_seq": 277, "telemetry_seq": 259, "t_rx_ms": 1776460273191, "dt_ms": 45, "doa_deg": 244.0, "confidence_0_1": 0.2834843285381794, "lat_deg": 34.0407082, "lon_deg": -117.8154694, "altitude_rel_ft": 0.0656, "yaw_deg": -39.8851, "pitch_deg": 14.2076, "roll_deg": -2.7941, "ground_speed_ft_s": 0.164, "vel_north_m_s": -0.05, "vel_east_m_s": 0.0, "vel_down_m_s": -0.02, "usable_for_triangulation": false, "t_gcs_rx_ms": 1776460278901}
{"run_id": "20260417_140805", "kraken_seq": 278, "telemetry_seq": 261, "t_rx_ms": 1776460273695, "dt_ms": -56, "doa_deg": 245.0, "confidence_0_1": 0.270621906965971, "lat_deg": 34.0407082, "lon_deg": -117.8154694, "altitude_rel_ft": 0.0656, "yaw_deg": -39.8851, "pitch_deg": 14.2076, "roll_deg": -2.7941, "ground_speed_ft_s": 0.164, "vel_north_m_s": -0.05, "vel_east_m_s": 0.0, "vel_down_m_s": -0.02, "usable_for_triangulation": false, "t_gcs_rx_ms": 1776460279346}
{"run_id": "20260417_140805", "kraken_seq": 279, "telemetry_seq": 264, "t_rx_ms": 1776460274196, "dt_ms": 47, "doa_deg": 245.0, "confidence_0_1": 0.23731419816613197, "lat_deg": 34.0407082, "lon_deg": -117.8154694, "altitude_rel_ft": 0.1378, "yaw_deg": -40.0782, "pitch_deg": 14.2195, "roll_deg": -2.5385, "ground_speed_ft_s": 0.164, "vel_north_m_s": -0.05, "vel_east_m_s": 0.0, "vel_down_m_s": -0.02, "usable_for_triangulation": false, "t_gcs_rx_ms": 1776460279698}
{"run_id": "20260417_140805", "kraken_seq": 280, "telemetry_seq": 265, "t_rx_ms": 1776460274498, "dt_ms": -54, "doa_deg": 244.0, "confidence_0_1": 0.2479231171309948, "lat_deg": 34.0407082, "lon_deg": -117.8154694, "altitude_rel_ft": 0.1378, "yaw_deg": -40.0782, "pitch_deg": 14.2195, "roll_deg": -2.5385, "ground_speed_ft_s": 0.164, "vel_north_m_s": -0.05, "vel_east_m_s": 0.0, "vel_down_m_s": -0.02, "usable_for_triangulation": false, "t_gcs_rx_ms": 1776460280238}
{"run_id": "20260417_140805", "kraken_seq": 281, "telemetry_seq": 268, "t_rx_ms": 1776460275102, "dt_ms": -53, "doa_deg": 245.0, "confidence_0_1": 0.2791292406618595, "lat_deg": 34.0407083, "lon_deg": -117.8154694, "altitude_rel_ft": 0.1411, "yaw_deg": -40.5922, "pitch_deg": 15.0327, "roll_deg": -3.6798, "ground_speed_ft_s": 0.1183, "vel_north_m_s": -0.03, "vel_east_m_s": 0.02, "vel_down_m_s": -0.02, "usable_for_triangulation": false, "t_gcs_rx_ms": 1776460280626}
{"run_id": "20260417_140805", "kraken_seq": 282, "telemetry_seq": 270, "t_rx_ms": 1776460275407, "dt_ms": 45, "doa_deg": 246.0, "confidence_0_1": 0.29582954943180084, "lat_deg": 34.0407083, "lon_deg": -117.8154694, "altitude_rel_ft": 0.1411, "yaw_deg": -40.5922, "pitch_deg": 15.0327, "roll_deg": -3.6798, "ground_speed_ft_s": 0.1183, "vel_north_m_s": -0.03, "vel_east_m_s": 0.02, "vel_down_m_s": -0.02, "usable_for_triangulation": false, "t_gcs_rx_ms": 1776460281236}
{"run_id": "20260417_140805", "kraken_seq": 283, "telemetry_seq": 272, "t_rx_ms": 1776460275908, "dt_ms": -51, "doa_deg": 246.0, "confidence_0_1": 0.3112954646348953, "lat_deg": 34.0407083, "lon_deg": -117.81546929999999, "altitude_rel_ft": 0.2297, "yaw_deg": -33.6748, "pitch_deg": 19.2924, "roll_deg": -11.9236, "ground_speed_ft_s": 0.164, "vel_north_m_s": -0.04, "vel_east_m_s": -0.03, "vel_down_m_s": 0.0, "usable_for_triangulation": true, "t_gcs_rx_ms": 1776460281585}
{"run_id": "20260417_140805", "kraken_seq": 284, "telemetry_seq": 274, "t_rx_ms": 1776460276309, "dt_ms": -51, "doa_deg": 247.0, "confidence_0_1": 0.29873035848140717, "lat_deg": 34.0407083, "lon_deg": -117.81546929999999, "altitude_rel_ft": 0.2297, "yaw_deg": -33.6748, "pitch_deg": 19.2924, "roll_deg": -11.9236, "ground_speed_ft_s": 0.164, "vel_north_m_s": -0.04, "vel_east_m_s": -0.03, "vel_down_m_s": 0.0, "usable_for_triangulation": false, "t_gcs_rx_ms": 1776460281849}
{"run_id": "20260417_140805", "kraken_seq": 285, "telemetry_seq": 277, "t_rx_ms": 1776460276811, "dt_ms": 49, "doa_deg": 248.0, "confidence_0_1": 0.2809145115315914, "lat_deg": 34.0407082, "lon_deg": -117.8154691, "altitude_rel_ft": -0.0164, "yaw_deg": -27.1912, "pitch_deg": 19.2116, "roll_deg": -10.4805, "ground_speed_ft_s": 0.1996, "vel_north_m_s": -0.01, "vel_east_m_s": 0.06, "vel_down_m_s": -0.03, "usable_for_triangulation": false, "t_gcs_rx_ms": 1776460282379}
{"run_id": "20260417_140805", "kraken_seq": 286, "telemetry_seq": 278, "t_rx_ms": 1776460277113, "dt_ms": -52, "doa_deg": 249.0, "confidence_0_1": 0.2544804476201534, "lat_deg": 34.0407082, "lon_deg": -117.8154691, "altitude_rel_ft": -0.0164, "yaw_deg": -27.1912, "pitch_deg": 19.2116, "roll_deg": -10.4805, "ground_speed_ft_s": 0.1996, "vel_north_m_s": -0.01, "vel_east_m_s": 0.06, "vel_down_m_s": -0.03, "usable_for_triangulation": false, "t_gcs_rx_ms": 1776460282750}
{"run_id": "20260417_140805", "kraken_seq": 287, "telemetry_seq": 281, "t_rx_ms": 1776460277614, "dt_ms": 50, "doa_deg": 253.0, "confidence_0_1": 0.24012256413698196, "lat_deg": 34.040708099999996, "lon_deg": -117.8154687, "altitude_rel_ft": -0.1378, "yaw_deg": -21.9785, "pitch_deg": 19.4019, "roll_deg": 3.1199, "ground_speed_ft_s": 0.2803, "vel_north_m_s": -0.03, "vel_east_m_s": 0.08, "vel_down_m_s": -0.04, "usable_for_triangulation": false, "t_gcs_rx_ms": 1776460283215}
{"run_id": "20260417_140805", "kraken_seq": 288, "telemetry_seq": 283, "t_rx_ms": 1776460278020, "dt_ms": 46, "doa_deg": 255.0, "confidence_0_1": 0.21677831187844276, "lat_deg": 34.040708099999996, "lon_deg": -117.8154687, "altitude_rel_ft": -0.1378, "yaw_deg": -21.9785, "pitch_deg": 19.4019, "roll_deg": 3.1199, "ground_speed_ft_s": 0.2803, "vel_north_m_s": -0.03, "vel_east_m_s": 0.08, "vel_down_m_s": -0.04, "usable_for_triangulation": false, "t_gcs_rx_ms": 1776460283569}
{"run_id": "20260417_140805", "kraken_seq": 289, "telemetry_seq": 285, "t_rx_ms": 1776460278521, "dt_ms": -49, "doa_deg": 101.0, "confidence_0_1": 0.30836593359708786, "lat_deg": 34.040708099999996, "lon_deg": -117.8154687, "altitude_rel_ft": -0.1378, "yaw_deg": -21.9785, "pitch_deg": 19.4019, "roll_deg": 3.1199, "ground_speed_ft_s": 0.2803, "vel_north_m_s": -0.03, "vel_east_m_s": 0.08, "vel_down_m_s": -0.04, "usable_for_triangulation": true, "t_gcs_rx_ms": 1776460284285}
{"run_id": "20260417_140805", "kraken_seq": 290, "telemetry_seq": 287, "t_rx_ms": 1776460278925, "dt_ms": -49, "doa_deg": 100.0, "confidence_0_1": 1.0038422793149948, "lat_deg": 34.040708099999996, "lon_deg": -117.8154685, "altitude_rel_ft": -0.1673, "yaw_deg": -22.2729, "pitch_deg": 18.8058, "roll_deg": 2.7365, "ground_speed_ft_s": 0.2934, "vel_north_m_s": -0.04, "vel_east_m_s": 0.08, "vel_down_m_s": -0.05, "usable_for_triangulation": true, "t_gcs_rx_ms": 1776460284532}
{"run_id": "20260417_140805", "kraken_seq": 291, "telemetry_seq": 290, "t_rx_ms": 1776460279427, "dt_ms": 51, "doa_deg": 111.0, "confidence_0_1": 2.429506629705429, "lat_deg": 34.040708099999996, "lon_deg": -117.8154685, "altitude_rel_ft": -0.1673, "yaw_deg": -22.2729, "pitch_deg": 18.8058, "roll_deg": 2.7365, "ground_speed_ft_s": 0.2934, "vel_north_m_s": -0.04, "vel_east_m_s": 0.08, "vel_down_m_s": -0.05, "usable_for_triangulation": true, "t_gcs_rx_ms": 1776460285122}
{"run_id": "20260417_140805", "kraken_seq": 292, "telemetry_seq": 291, "t_rx_ms": 1776460279728, "dt_ms": -42, "doa_deg": 127.0, "confidence_0_1": 1.3268376886844635, "lat_deg": 34.040708099999996, "lon_deg": -117.8154684, "altitude_rel_ft": -0.1837, "yaw_deg": -23.6843, "pitch_deg": 18.8385, "roll_deg": 2.7829, "ground_speed_ft_s": 0.3534, "vel_north_m_s": -0.04, "vel_east_m_s": 0.1, "vel_down_m_s": -0.03, "usable_for_triangulation": true, "t_gcs_rx_ms": 1776460285380}
{"run_id": "20260417_140805", "kraken_seq": 293, "telemetry_seq": 294, "t_rx_ms": 1776460280230, "dt_ms": 59, "doa_deg": 105.0, "confidence_0_1": 0.4479949548840523, "lat_deg": 34.040708099999996, "lon_deg": -117.8154684, "altitude_rel_ft": -0.1837, "yaw_deg": -23.6843, "pitch_deg": 18.8385, "roll_deg": 2.7829, "ground_speed_ft_s": 0.3534, "vel_north_m_s": -0.04, "vel_east_m_s": 0.1, "vel_down_m_s": -0.03, "usable_for_triangulation": true, "t_gcs_rx_ms": 1776460285862}
{"run_id": "20260417_140805", "kraken_seq": 294, "telemetry_seq": 296, "t_rx_ms": 1776460280632, "dt_ms": 59, "doa_deg": 94.0, "confidence_0_1": 1.5398827195167542, "lat_deg": 34.040708099999996, "lon_deg": -117.8154685, "altitude_rel_ft": -0.1476, "yaw_deg": -22.6398, "pitch_deg": 18.9389, "roll_deg": 2.0298, "ground_speed_ft_s": 0.2499, "vel_north_m_s": -0.03, "vel_east_m_s": 0.07, "vel_down_m_s": -0.02, "usable_for_triangulation": true, "t_gcs_rx_ms": 1776460286279}
{"run_id": "20260417_140805", "kraken_seq": 295, "telemetry_seq": 298, "t_rx_ms": 1776460281133, "dt_ms": -36, "doa_deg": 95.0, "confidence_0_1": 0.7298889011144638, "lat_deg": 34.040708099999996, "lon_deg": -117.8154685, "altitude_rel_ft": -0.1476, "yaw_deg": -22.6398, "pitch_deg": 18.9389, "roll_deg": 2.0298, "ground_speed_ft_s": 0.2499, "vel_north_m_s": -0.03, "vel_east_m_s": 0.07, "vel_down_m_s": -0.02, "usable_for_triangulation": true, "t_gcs_rx_ms": 1776460286663}
{"run_id": "20260417_140805", "kraken_seq": 296, "telemetry_seq": 300, "t_rx_ms": 1776460281537, "dt_ms": -37, "doa_deg": 94.0, "confidence_0_1": 0.2527428977191448, "lat_deg": 34.040708099999996, "lon_deg": -117.8154685, "altitude_rel_ft": -0.1476, "yaw_deg": -22.6398, "pitch_deg": 18.9389, "roll_deg": 2.0298, "ground_speed_ft_s": 0.2499, "vel_north_m_s": -0.03, "vel_east_m_s": 0.07, "vel_down_m_s": -0.02, "usable_for_triangulation": false, "t_gcs_rx_ms": 1776460287229}
{"run_id": "20260417_140805", "kraken_seq": 297, "telemetry_seq": 302, "t_rx_ms": 1776460281945, "dt_ms": -42, "doa_deg": 228.0, "confidence_0_1": 0.7814982533454895, "lat_deg": 34.040707999999995, "lon_deg": -117.8154687, "altitude_rel_ft": -0.164, "yaw_deg": -23.2148, "pitch_deg": 20.3234, "roll_deg": 0.751, "ground_speed_ft_s": 0.1856, "vel_north_m_s": -0.04, "vel_east_m_s": 0.04, "vel_down_m_s": -0.03, "usable_for_triangulation": true, "t_gcs_rx_ms": 1776460287736}
{"run_id": "20260417_140805", "kraken_seq": 298, "telemetry_seq": 305, "t_rx_ms": 1776460282551, "dt_ms": -42, "doa_deg": 17.0, "confidence_0_1": 0.3122110292315483, "lat_deg": 34.040707999999995, "lon_deg": -117.8154687, "altitude_rel_ft": -0.164, "yaw_deg": -23.2148, "pitch_deg": 20.3234, "roll_deg": 0.751, "ground_speed_ft_s": 0.1856, "vel_north_m_s": -0.04, "vel_east_m_s": 0.04, "vel_down_m_s": -0.03, "usable_for_triangulation": true, "t_gcs_rx_ms": 1776460288216}
{"run_id": "20260417_140805", "kraken_seq": 299, "telemetry_seq": 307, "t_rx_ms": 1776460282968, "dt_ms": -55, "doa_deg": 259.0, "confidence_0_1": 0.3160974383354187, "lat_deg": 34.040708099999996, "lon_deg": -117.8154687, "altitude_rel_ft": 0.0066, "yaw_deg": -23.1278, "pitch_deg": 21.8199, "roll_deg": 0.5288, "ground_speed_ft_s": 0.2201, "vel_north_m_s": -0.03, "vel_east_m_s": 0.06, "vel_down_m_s": -0.03, "usable_for_triangulation": true, "t_gcs_rx_ms": 1776460288490}
{"run_id": "20260417_140805", "kraken_seq": 300, "telemetry_seq": 309, "t_rx_ms": 1776460283268, "dt_ms": 48, "doa_deg": 258.0, "confidence_0_1": 0.3021904081106186, "lat_deg": 34.040708099999996, "lon_deg": -117.8154687, "altitude_rel_ft": 0.0066, "yaw_deg": -23.1278, "pitch_deg": 21.8199, "roll_deg": 0.5288, "ground_speed_ft_s": 0.2201, "vel_north_m_s": -0.03, "vel_east_m_s": 0.06, "vel_down_m_s": -0.03, "usable_for_triangulation": true, "t_gcs_rx_ms": 1776460289003}
{"run_id": "20260417_140805", "kraken_seq": 301, "telemetry_seq": 311, "t_rx_ms": 1776460283679, "dt_ms": 39, "doa_deg": 253.0, "confidence_0_1": 0.3157965838909149, "lat_deg": 34.040708099999996, "lon_deg": -117.81546879999999, "altitude_rel_ft": 0.1476, "yaw_deg": -24.3458, "pitch_deg": 21.669, "roll_deg": 0.6873, "ground_speed_ft_s": 0.1913, "vel_north_m_s": -0.03, "vel_east_m_s": 0.05, "vel_down_m_s": -0.04, "usable_for_triangulation": true, "t_gcs_rx_ms": 1776460289402}
{"run_id": "20260417_140805", "kraken_seq": 302, "telemetry_seq": 313, "t_rx_ms": 1776460284182, "dt_ms": -60, "doa_deg": 253.0, "confidence_0_1": 0.3249030187726021, "lat_deg": 34.040708099999996, "lon_deg": -117.81546879999999, "altitude_rel_ft": 0.1476, "yaw_deg": -24.3458, "pitch_deg": 21.669, "roll_deg": 0.6873, "ground_speed_ft_s": 0.1913, "vel_north_m_s": -0.03, "vel_east_m_s": 0.05, "vel_down_m_s": -0.04, "usable_for_triangulation": true, "t_gcs_rx_ms": 1776460289873}
{"run_id": "20260417_140805", "kraken_seq": 303, "telemetry_seq": 315, "t_rx_ms": 1776460284583, "dt_ms": -60, "doa_deg": 247.0, "confidence_0_1": 0.4305477812886238, "lat_deg": 34.040708099999996, "lon_deg": -117.81546879999999, "altitude_rel_ft": 0.1476, "yaw_deg": -24.3458, "pitch_deg": 21.669, "roll_deg": 0.6873, "ground_speed_ft_s": 0.1913, "vel_north_m_s": -0.03, "vel_east_m_s": 0.05, "vel_down_m_s": -0.04, "usable_for_triangulation": true, "t_gcs_rx_ms": 1776460290239}
{"run_id": "20260417_140805", "kraken_seq": 304, "telemetry_seq": 318, "t_rx_ms": 1776460285085, "dt_ms": 43, "doa_deg": 256.0, "confidence_0_1": 0.555025190114975, "lat_deg": 34.040708099999996, "lon_deg": -117.81546879999999, "altitude_rel_ft": 0.1148, "yaw_deg": -27.3729, "pitch_deg": 27.0679, "roll_deg": 0.885, "ground_speed_ft_s": 0.1856, "vel_north_m_s": -0.04, "vel_east_m_s": 0.04, "vel_down_m_s": -0.05, "usable_for_triangulation": true, "t_gcs_rx_ms": 1776460290661}
{"run_id": "20260417_140805", "kraken_seq": 305, "telemetry_seq": 320, "t_rx_ms": 1776460285503, "dt_ms": 26, "doa_deg": 233.0, "confidence_0_1": 0.4280025511980057, "lat_deg": 34.040708099999996, "lon_deg": -117.81546879999999, "altitude_rel_ft": 0.1148, "yaw_deg": -27.3729, "pitch_deg": 27.0679, "roll_deg": 0.885, "ground_speed_ft_s": 0.1856, "vel_north_m_s": -0.04, "vel_east_m_s": 0.04, "vel_down_m_s": -0.05, "usable_for_triangulation": true, "t_gcs_rx_ms": 1776460291262}
{"run_id": "20260417_140805", "kraken_seq": 306, "telemetry_seq": 322, "t_rx_ms": 1776460285906, "dt_ms": 33, "doa_deg": 238.0, "confidence_0_1": 0.6638585776090622, "lat_deg": 34.0407082, "lon_deg": -117.81546879999999, "altitude_rel_ft": 0.0951, "yaw_deg": -26.1973, "pitch_deg": 21.8956, "roll_deg": 1.8004, "ground_speed_ft_s": 0.1856, "vel_north_m_s": -0.04, "vel_east_m_s": 0.04, "vel_down_m_s": -0.04, "usable_for_triangulation": true, "t_gcs_rx_ms": 1776460291481}
{"run_id": "20260417_140805", "kraken_seq": 307, "telemetry_seq": 324, "t_rx_ms": 1776460286410, "dt_ms": -67, "doa_deg": 249.0, "confidence_0_1": 0.43021954596042633, "lat_deg": 34.0407082, "lon_deg": -117.81546879999999, "altitude_rel_ft": 0.0951, "yaw_deg": -26.1973, "pitch_deg": 21.8956, "roll_deg": 1.8004, "ground_speed_ft_s": 0.1856, "vel_north_m_s": -0.04, "vel_east_m_s": 0.04, "vel_down_m_s": -0.04, "usable_for_triangulation": true, "t_gcs_rx_ms": 1776460291952}
{"run_id": "20260417_140805", "kraken_seq": 308, "telemetry_seq": 326, "t_rx_ms": 1776460286810, "dt_ms": -64, "doa_deg": 246.0, "confidence_0_1": 0.3208402916789055, "lat_deg": 34.0407082, "lon_deg": -117.81546879999999, "altitude_rel_ft": 0.1411, "yaw_deg": -27.0706, "pitch_deg": 20.5731, "roll_deg": 3.0402, "ground_speed_ft_s": 0.1392, "vel_north_m_s": -0.03, "vel_east_m_s": 0.03, "vel_down_m_s": -0.02, "usable_for_triangulation": true, "t_gcs_rx_ms": 1776460292490}
{"run_id": "20260417_140805", "kraken_seq": 309, "telemetry_seq": 328, "t_rx_ms": 1776460287212, "dt_ms": -63, "doa_deg": 246.0, "confidence_0_1": 0.32262053340673447, "lat_deg": 34.0407082, "lon_deg": -117.81546879999999, "altitude_rel_ft": 0.1411, "yaw_deg": -27.0706, "pitch_deg": 20.5731, "roll_deg": 3.0402, "ground_speed_ft_s": 0.1392, "vel_north_m_s": -0.03, "vel_east_m_s": 0.03, "vel_down_m_s": -0.02, "usable_for_triangulation": true, "t_gcs_rx_ms": 1776460292819}
{"run_id": "20260417_140805", "kraken_seq": 310, "telemetry_seq": 330, "t_rx_ms": 1776460287612, "dt_ms": -56, "doa_deg": 244.0, "confidence_0_1": 0.28577443212270737, "lat_deg": 34.0407082, "lon_deg": -117.81546879999999, "altitude_rel_ft": 0.1411, "yaw_deg": -27.0706, "pitch_deg": 20.5731, "roll_deg": 3.0402, "ground_speed_ft_s": 0.1392, "vel_north_m_s": -0.03, "vel_east_m_s": 0.03, "vel_down_m_s": -0.02, "usable_for_triangulation": false, "t_gcs_rx_ms": 1776460293241}
{"run_id": "20260417_140805", "kraken_seq": 311, "telemetry_seq": 333, "t_rx_ms": 1776460288115, "dt_ms": 41, "doa_deg": 242.0, "confidence_0_1": 0.29554661363363266, "lat_deg": 34.040708099999996, "lon_deg": -117.81546879999999, "altitude_rel_ft": 0.164, "yaw_deg": -27.3151, "pitch_deg": 19.3026, "roll_deg": 3.415, "ground_speed_ft_s": 0.1856, "vel_north_m_s": -0.04, "vel_east_m_s": 0.04, "vel_down_m_s": -0.05, "usable_for_triangulation": false, "t_gcs_rx_ms": 1776460293705}
{"run_id": "20260417_140805", "kraken_seq": 312, "telemetry_seq": 335, "t_rx_ms": 1776460288516, "dt_ms": 42, "doa_deg": 246.0, "confidence_0_1": 0.266411155462265, "lat_deg": 34.040708099999996, "lon_deg": -117.81546879999999, "altitude_rel_ft": 0.164, "yaw_deg": -27.3151, "pitch_deg": 19.3026, "roll_deg": 3.415, "ground_speed_ft_s": 0.1856, "vel_north_m_s": -0.04, "vel_east_m_s": 0.04, "vel_down_m_s": -0.05, "usable_for_triangulation": false, "t_gcs_rx_ms": 1776460294270}
{"run_id": "20260417_140805", "kraken_seq": 313, "telemetry_seq": 337, "t_rx_ms": 1776460288920, "dt_ms": 40, "doa_deg": 244.0, "confidence_0_1": 0.29870087280869484, "lat_deg": 34.040708099999996, "lon_deg": -117.81546879999999, "altitude_rel_ft": 0.0361, "yaw_deg": -27.4074, "pitch_deg": 18.8418, "roll_deg": 3.4405, "ground_speed_ft_s": 0.1353, "vel_north_m_s": -0.04, "vel_east_m_s": 0.01, "vel_down_m_s": -0.03, "usable_for_triangulation": false, "t_gcs_rx_ms": 1776460294676}
{"run_id": "20260417_140805", "kraken_seq": 314, "telemetry_seq": 339, "t_rx_ms": 1776460289423, "dt_ms": -62, "doa_deg": 244.0, "confidence_0_1": 0.3631727397441864, "lat_deg": 34.040708099999996, "lon_deg": -117.81546879999999, "altitude_rel_ft": 0.0361, "yaw_deg": -27.4074, "pitch_deg": 18.8418, "roll_deg": 3.4405, "ground_speed_ft_s": 0.1353, "vel_north_m_s": -0.04, "vel_east_m_s": 0.01, "vel_down_m_s": -0.03, "usable_for_triangulation": true, "t_gcs_rx_ms": 1776460295155}
{"run_id": "20260417_140805", "kraken_seq": 315, "telemetry_seq": 341, "t_rx_ms": 1776460289824, "dt_ms": -61, "doa_deg": 246.0, "confidence_0_1": 0.3794340044260025, "lat_deg": 34.0407082, "lon_deg": -117.81546879999999, "altitude_rel_ft": 0.1214, "yaw_deg": -28.0309, "pitch_deg": 17.5371, "roll_deg": 4.4737, "ground_speed_ft_s": 0.1767, "vel_north_m_s": -0.05, "vel_east_m_s": 0.02, "vel_down_m_s": -0.04, "usable_for_triangulation": true, "t_gcs_rx_ms": 1776460295445}
{"run_id": "20260417_140805", "kraken_seq": 316, "telemetry_seq": 343, "t_rx_ms": 1776460290231, "dt_ms": -64, "doa_deg": 248.0, "confidence_0_1": 0.32147303223609924, "lat_deg": 34.0407082, "lon_deg": -117.81546879999999, "altitude_rel_ft": 0.1214, "yaw_deg": -28.0309, "pitch_deg": 17.5371, "roll_deg": 4.4737, "ground_speed_ft_s": 0.1767, "vel_north_m_s": -0.05, "vel_east_m_s": 0.02, "vel_down_m_s": -0.04, "usable_for_triangulation": true, "t_gcs_rx_ms": 1776460295859}
{"run_id": "20260417_140805", "kraken_seq": 317, "telemetry_seq": 346, "t_rx_ms": 1776460290736, "dt_ms": 35, "doa_deg": 247.0, "confidence_0_1": 0.30814651399850845, "lat_deg": 34.0407082, "lon_deg": -117.8154687, "altitude_rel_ft": 0.1903, "yaw_deg": -29.4738, "pitch_deg": 18.28, "roll_deg": 5.6583, "ground_speed_ft_s": 0.1183, "vel_north_m_s": -0.03, "vel_east_m_s": 0.02, "vel_down_m_s": -0.02, "usable_for_triangulation": true, "t_gcs_rx_ms": 1776460296311}
{"run_id": "20260417_140805", "kraken_seq": 318, "telemetry_seq": 348, "t_rx_ms": 1776460291142, "dt_ms": 32, "doa_deg": 248.0, "confidence_0_1": 0.29276613146066666, "lat_deg": 34.0407082, "lon_deg": -117.8154687, "altitude_rel_ft": 0.1903, "yaw_deg": -29.4738, "pitch_deg": 18.28, "roll_deg": 5.6583, "ground_speed_ft_s": 0.1183, "vel_north_m_s": -0.03, "vel_east_m_s": 0.02, "vel_down_m_s": -0.02, "usable_for_triangulation": false, "t_gcs_rx_ms": 1776460296786}
{"run_id": "20260417_140805", "kraken_seq": 319, "telemetry_seq": 350, "t_rx_ms": 1776460291544, "dt_ms": 32, "doa_deg": 254.0, "confidence_0_1": 0.31349726021289825, "lat_deg": 34.0407082, "lon_deg": -117.8154687, "altitude_rel_ft": 0.1903, "yaw_deg": -29.4738, "pitch_deg": 18.28, "roll_deg": 5.6583, "ground_speed_ft_s": 0.1183, "vel_north_m_s": -0.03, "vel_east_m_s": 0.02, "vel_down_m_s": -0.02, "usable_for_triangulation": true, "t_gcs_rx_ms": 1776460297281}
{"run_id": "20260417_140805", "kraken_seq": 320, "telemetry_seq": 352, "t_rx_ms": 1776460292045, "dt_ms": -65, "doa_deg": 267.0, "confidence_0_1": 0.36361031234264374, "lat_deg": 34.0407082, "lon_deg": -117.81546859999999, "altitude_rel_ft": 0.2526, "yaw_deg": -29.6766, "pitch_deg": 17.7993, "roll_deg": 5.4958, "ground_speed_ft_s": 0.1856, "vel_north_m_s": -0.04, "vel_east_m_s": 0.04, "vel_down_m_s": -0.03, "usable_for_triangulation": true, "t_gcs_rx_ms": 1776460297611}
{"run_id": "20260417_140805", "kraken_seq": 321, "telemetry_seq": 354, "t_rx_ms": 1776460292449, "dt_ms": -68, "doa_deg": 267.0, "confidence_0_1": 0.4045527055859566, "lat_deg": 34.0407082, "lon_deg": -117.81546859999999, "altitude_rel_ft": 0.2526, "yaw_deg": -29.6766, "pitch_deg": 17.7993, "roll_deg": 5.4958, "ground_speed_ft_s": 0.1856, "vel_north_m_s": -0.04, "vel_east_m_s": 0.04, "vel_down_m_s": -0.03, "usable_for_triangulation": true, "t_gcs_rx_ms": 1776460298216}
{"run_id": "20260417_140805", "kraken_seq": 322, "telemetry_seq": 356, "t_rx_ms": 1776460292854, "dt_ms": -71, "doa_deg": 263.0, "confidence_0_1": 0.39232537150382996, "lat_deg": 34.040708099999996, "lon_deg": -117.8154685, "altitude_rel_ft": 0.2559, "yaw_deg": -29.4181, "pitch_deg": 17.6845, "roll_deg": 4.8527, "ground_speed_ft_s": 0.1767, "vel_north_m_s": -0.05, "vel_east_m_s": 0.02, "vel_down_m_s": -0.02, "usable_for_triangulation": true, "t_gcs_rx_ms": 1776460298511}
{"run_id": "20260417_140805", "kraken_seq": 323, "telemetry_seq": 359, "t_rx_ms": 1776460293355, "dt_ms": 30, "doa_deg": 8.0, "confidence_0_1": 0.41254207491874695, "lat_deg": 34.040708099999996, "lon_deg": -117.8154685, "altitude_rel_ft": 0.2559, "yaw_deg": -29.4181, "pitch_deg": 17.6845, "roll_deg": 4.8527, "ground_speed_ft_s": 0.1767, "vel_north_m_s": -0.05, "vel_east_m_s": 0.02, "vel_down_m_s": -0.02, "usable_for_triangulation": true, "t_gcs_rx_ms": 1776460299166}
