{"run_id": "20260417_115945", "kraken_seq": 56, "telemetry_seq": 822, "t_rx_ms": 1776453844277, "dt_ms": 66, "doa_deg": 105.0, "confidence_0_1": 1.1245429515838623, "lat_deg": 34.039662799999995, "lon_deg": -117.81645549999999, "altitude_rel_ft": -0.1411, "yaw_deg": -43.2564, "pitch_deg": 10.2213, "roll_deg": -6.0836, "ground_speed_ft_s": 0.1392, "vel_north_m_s": 0.03, "vel_east_m_s": 0.03, "vel_down_m_s": 0.01, "usable_for_triangulation": true, "t_gcs_rx_ms": 1776456942978}
{"run_id": "20260417_115945", "kraken_seq": 57, "telemetry_seq": 824, "t_rx_ms": 1776453844779, "dt_ms": -27, "doa_deg": 105.0, "confidence_0_1": 1.1678197234869003, "lat_deg": 34.039662799999995, "lon_deg": -117.81645549999999, "altitude_rel_ft": -0.1411, "yaw_deg": -43.2564, "pitch_deg": 10.2213, "roll_deg": -6.0836, "ground_speed_ft_s": 0.1392, "vel_north_m_s": 0.03, "vel_east_m_s": 0.03, "vel_down_m_s": 0.01, "usable_for_triangulation": true, "t_gcs_rx_ms": 1776456943516}
{"run_id": "20260417_115945", "kraken_seq": 58, "telemetry_seq": 826, "t_rx_ms": 1776453845198, "dt_ms": -43, "doa_deg": 104.0, "confidence_0_1": 1.256392002105713, "lat_deg": 34.039662799999995, "lon_deg": -117.81645549999999, "altitude_rel_ft": -0.1411, "yaw_deg": -43.2564, "pitch_deg": 10.2213, "roll_deg": -6.0836, "ground_speed_ft_s": 0.1392, "vel_north_m_s": 0.03, "vel_east_m_s": 0.03, "vel_down_m_s": 0.01, "usable_for_triangulation": true, "t_gcs_rx_ms": 1776456944089}
{"run_id": "20260417_115945", "kraken_seq": 59, "telemetry_seq": 828, "t_rx_ms": 1776453845600, "dt_ms": -43, "doa_deg": 104.0, "confidence_0_1": 1.1774459481239319, "lat_deg": 34.039662799999995, "lon_deg": -117.8164552, "altitude_rel_ft": -0.1017, "yaw_deg": -43.1103, "pitch_deg": 10.2029, "roll_deg": -6.0642, "ground_speed_ft_s": 0.164, "vel_north_m_s": 0.03, "vel_east_m_s": 0.04, "vel_down_m_s": 0.02, "usable_for_triangulation": true, "t_gcs_rx_ms": 1776456944664}
{"run_id": "20260417_115945", "kraken_seq": 60, "telemetry_seq": 831, "t_rx_ms": 1776453846105, "dt_ms": 60, "doa_deg": 104.0, "confidence_0_1": 1.173277497291565, "lat_deg": 34.039662799999995, "lon_deg": -117.8164552, "altitude_rel_ft": -0.1017, "yaw_deg": -43.1103, "pitch_deg": 10.2029, "roll_deg": -6.0642, "ground_speed_ft_s": 0.164, "vel_north_m_s": 0.03, "vel_east_m_s": 0.04, "vel_down_m_s": 0.02, "usable_for_triangulation": true, "t_gcs_rx_ms": 1776456945313}
{"run_id": "20260417_115945", "kraken_seq": 61, "telemetry_seq": 833, "t_rx_ms": 1776453846607, "dt_ms": -43, "doa_deg": 105.0, "confidence_0_1": 1.1532547324895859, "lat_deg": 34.0396627, "lon_deg": -117.8164549, "altitude_rel_ft": -0.2231, "yaw_deg": -42.9537, "pitch_deg": 10.2238, "roll_deg": -6.072, "ground_speed_ft_s": 0.1913, "vel_north_m_s": 0.03, "vel_east_m_s": 0.05, "vel_down_m_s": 0.02, "usable_for_triangulation": true, "t_gcs_rx_ms": 1776456945644}
{"run_id": "20260417_115945", "kraken_seq": 62, "telemetry_seq": 835, "t_rx_ms": 1776453847009, "dt_ms": -39, "doa_deg": 105.0, "confidence_0_1": 1.1397356539964676, "lat_deg": 34.0396627, "lon_deg": -117.8164549, "altitude_rel_ft": -0.2231, "yaw_deg": -42.9537, "pitch_deg": 10.2238, "roll_deg": -6.072, "ground_speed_ft_s": 0.1913, "vel_north_m_s": 0.03, "vel_east_m_s": 0.05, "vel_down_m_s": 0.02, "usable_for_triangulation": true, "t_gcs_rx_ms": 1776456946022}
{"run_id": "20260417_115945", "kraken_seq": 63, "telemetry_seq": 837, "t_rx_ms": 1776453847413, "dt_ms": -39, "doa_deg": 102.0, "confidence_0_1": 1.2522563338279724, "lat_deg": 34.0396625, "lon_deg": -117.81645479999999, "altitude_rel_ft": -0.4462, "yaw_deg": -42.7808, "pitch_deg": 10.2128, "roll_deg": -6.0857, "ground_speed_ft_s": 0.1467, "vel_north_m_s": 0.02, "vel_east_m_s": 0.04, "vel_down_m_s": 0.03, "usable_for_triangulation": true, "t_gcs_rx_ms": 1776456946578}
{"run_id": "20260417_115945", "kraken_seq": 64, "telemetry_seq": 840, "t_rx_ms": 1776453848023, "dt_ms": -40, "doa_deg": 98.0, "confidence_0_1": 1.6002888977527618, "lat_deg": 34.0396625, "lon_deg": -117.81645479999999, "altitude_rel_ft": -0.4462, "yaw_deg": -42.7808, "pitch_deg": 10.2128, "roll_deg": -6.0857, "ground_speed_ft_s": 0.1467, "vel_north_m_s": 0.02, "vel_east_m_s": 0.04, "vel_down_m_s": 0.03, "usable_for_triangulation": true, "t_gcs_rx_ms": 1776456947006}
{"run_id": "20260417_115945", "kraken_seq": 65, "telemetry_seq": 842, "t_rx_ms": 1776453848326, "dt_ms": 60, "doa_deg": 96.0, "confidence_0_1": 1.924695372581482, "lat_deg": 34.039662299999996, "lon_deg": -117.8164549, "altitude_rel_ft": -0.6234, "yaw_deg": -42.6277, "pitch_deg": 10.1904, "roll_deg": -6.1155, "ground_speed_ft_s": 0.1037, "vel_north_m_s": 0.01, "vel_east_m_s": 0.03, "vel_down_m_s": 0.03, "usable_for_triangulation": true, "t_gcs_rx_ms": 1776456947546}
{"run_id": "20260417_115945", "kraken_seq": 66, "telemetry_seq": 844, "t_rx_ms": 1776453848733, "dt_ms": 63, "doa_deg": 97.0, "confidence_0_1": 1.7910294234752655, "lat_deg": 34.039662299999996, "lon_deg": -117.8164549, "altitude_rel_ft": -0.6234, "yaw_deg": -42.6277, "pitch_deg": 10.1904, "roll_deg": -6.1155, "ground_speed_ft_s": 0.1037, "vel_north_m_s": 0.01, "vel_east_m_s": 0.03, "vel_down_m_s": 0.03, "usable_for_triangulation": true, "t_gcs_rx_ms": 1776456948132}
{"run_id": "20260417_115945", "kraken_seq": 67, "telemetry_seq": 846, "t_rx_ms": 1776453849138, "dt_ms": 61, "doa_deg": 97.0, "confidence_0_1": 1.7874373495578766, "lat_deg": 34.039662299999996, "lon_deg": -117.8164549, "altitude_rel_ft": -0.6234, "yaw_deg": -42.6277, "pitch_deg": 10.1904, "roll_deg": -6.1155, "ground_speed_ft_s": 0.1037, "vel_north_m_s": 0.01, "vel_east_m_s": 0.03, "vel_down_m_s": 0.03, "usable_for_triangulation": true, "t_gcs_rx_ms": 1776456948608}
{"run_id": "20260417_115945", "kraken_seq": 68, "telemetry_seq": 848, "t_rx_ms": 1776453849644, "dt_ms": -40, "doa_deg": 97.0, "confidence_0_1": 1.880488097667694, "lat_deg": 34.0396624, "lon_deg": -117.8164551, "altitude_rel_ft": -0.4954, "yaw_deg": -42.4632, "pitch_deg": 10.1856, "roll_deg": -6.1099, "ground_speed_ft_s": 0.1183, "vel_north_m_s": 0.03, "vel_east_m_s": 0.02, "vel_down_m_s": 0.02, "usable_for_triangulation": true, "t_gcs_rx_ms": 1776456949211}
{"run_id": "20260417_115945", "kraken_seq": 69, "telemetry_seq": 851, "t_rx_ms": 1776453850154, "dt_ms": 56, "doa_deg": 97.0, "confidence_0_1": 1.7974139750003815, "lat_deg": 34.0396624, "lon_deg": -117.8164551, "altitude_rel_ft": -0.4954, "yaw_deg": -42.4632, "pitch_deg": 10.1856, "roll_deg": -6.1099, "ground_speed_ft_s": 0.1183, "vel_north_m_s": 0.03, "vel_east_m_s": 0.02, "vel_down_m_s": 0.02, "usable_for_triangulation": true, "t_gcs_rx_ms": 1776456949651}
{"run_id": "20260417_115945", "kraken_seq": 70, "telemetry_seq": 853, "t_rx_ms": 1776453850569, "dt_ms": 46, "doa_deg": 97.0, "confidence_0_1": 1.715421974658966, "lat_deg": 34.0396626, "lon_deg": -117.81645549999999, "altitude_rel_ft": 0.0066, "yaw_deg": -42.264, "pitch_deg": 10.1607, "roll_deg": -6.1402, "ground_speed_ft_s": 0.1312, "vel_north_m_s": 0.04, "vel_east_m_s": 0.0, "vel_down_m_s": 0.02, "usable_for_triangulation": true, "t_gcs_rx_ms": 1776456950045}
{"run_id": "20260417_115945", "kraken_seq": 71, "telemetry_seq": 855, "t_rx_ms": 1776453850974, "dt_ms": 43, "doa_deg": 98.0, "confidence_0_1": 1.6532735526561737, "lat_deg": 34.0396626, "lon_deg": -117.81645549999999, "altitude_rel_ft": 0.0066, "yaw_deg": -42.264, "pitch_deg": 10.1607, "roll_deg": -6.1402, "ground_speed_ft_s": 0.1312, "vel_north_m_s": 0.04, "vel_east_m_s": 0.0, "vel_down_m_s": 0.02, "usable_for_triangulation": true, "t_gcs_rx_ms": 1776456950593}
{"run_id": "20260417_115945", "kraken_seq": 72, "telemetry_seq": 856, "t_rx_ms": 1776453851276, "dt_ms": -56, "doa_deg": 98.0, "confidence_0_1": 1.6206823289394379, "lat_deg": 34.0396626, "lon_deg": -117.81645549999999, "altitude_rel_ft": 0.0066, "yaw_deg": -42.264, "pitch_deg": 10.1607, "roll_deg": -6.1402, "ground_speed_ft_s": 0.1312, "vel_north_m_s": 0.04, "vel_east_m_s": 0.0, "vel_down_m_s": 0.02, "usable_for_triangulation": true, "t_gcs_rx_ms": 1776456950991}
{"run_id": "20260417_115945", "kraken_seq": 73, "telemetry_seq": 859, "t_rx_ms": 1776453851788, "dt_ms": 41, "doa_deg": 98.0, "confidence_0_1": 1.5428592264652252, "lat_deg": 34.0396627, "lon_deg": -117.8164558, "altitude_rel_ft": 0.0591, "yaw_deg": -42.0666, "pitch_deg": 10.1513, "roll_deg": -6.1348, "ground_speed_ft_s": 0.1312, "vel_north_m_s": 0.04, "vel_east_m_s": 0.0, "vel_down_m_s": 0.01, "usable_for_triangulation": true, "t_gcs_rx_ms": 1776456951557}
{"run_id": "20260417_115945", "kraken_seq": 74, "telemetry_seq": 861, "t_rx_ms": 1776453852293, "dt_ms": -56, "doa_deg": 97.0, "confidence_0_1": 1.5622645616531372, "lat_deg": 34.0396627, "lon_deg": -117.8164558, "altitude_rel_ft": 0.0591, "yaw_deg": -42.0666, "pitch_deg": 10.1513, "roll_deg": -6.1348, "ground_speed_ft_s": 0.1312, "vel_north_m_s": 0.04, "vel_east_m_s": 0.0, "vel_down_m_s": 0.01, "usable_for_triangulation": true, "t_gcs_rx_ms": 1776456951915}
{"run_id": "20260417_115945", "kraken_seq": 75, "telemetry_seq": 863, "t_rx_ms": 1776453852596, "dt_ms": 48, "doa_deg": 95.0, "confidence_0_1": 1.7307111620903015, "lat_deg": 34.039662799999995, "lon_deg": -117.81645619999999, "altitude_rel_ft": 0.164, "yaw_deg": -41.8552, "pitch_deg": 10.156, "roll_deg": -6.1306, "ground_speed_ft_s": 0.1312, "vel_north_m_s": 0.04, "vel_east_m_s": 0.0, "vel_down_m_s": 0.0, "usable_for_triangulation": true, "t_gcs_rx_ms": 1776456952404}
{"run_id": "20260417_115945", "kraken_seq": 76, "telemetry_seq": 865, "t_rx_ms": 1776453853096, "dt_ms": -49, "doa_deg": 96.0, "confidence_0_1": 1.5387293696403503, "lat_deg": 34.039662799999995, "lon_deg": -117.81645619999999, "altitude_rel_ft": 0.164, "yaw_deg": -41.8552, "pitch_deg": 10.156, "roll_deg": -6.1306, "ground_speed_ft_s": 0.1312, "vel_north_m_s": 0.04, "vel_east_m_s": 0.0, "vel_down_m_s": 0.0, "usable_for_triangulation": true, "t_gcs_rx_ms": 1776456953446}
{"run_id": "20260417_115945", "kraken_seq": 77, "telemetry_seq": 873, "t_rx_ms": 1776453854599, "dt_ms": 56, "doa_deg": 97.0, "confidence_0_1": 1.5342025458812714, "lat_deg": 34.039663, "lon_deg": -117.8164568, "altitude_rel_ft": 0.315, "yaw_deg": -41.4579, "pitch_deg": 10.1659, "roll_deg": -6.1245, "ground_speed_ft_s": 0.1353, "vel_north_m_s": 0.04, "vel_east_m_s": -0.01, "vel_down_m_s": 0.0, "usable_for_triangulation": true, "t_gcs_rx_ms": 1776456953955}
{"run_id": "20260417_115945", "kraken_seq": 78, "telemetry_seq": 875, "t_rx_ms": 1776453855103, "dt_ms": -47, "doa_deg": 99.0, "confidence_0_1": 1.5405690670013428, "lat_deg": 34.039663, "lon_deg": -117.8164568, "altitude_rel_ft": 0.315, "yaw_deg": -41.4579, "pitch_deg": 10.1659, "roll_deg": -6.1245, "ground_speed_ft_s": 0.1353, "vel_north_m_s": 0.04, "vel_east_m_s": -0.01, "vel_down_m_s": 0.0, "usable_for_triangulation": true, "t_gcs_rx_ms": 1776456954498}
{"run_id": "20260417_115945", "kraken_seq": 79, "telemetry_seq": 876, "t_rx_ms": 1776453855313, "dt_ms": -55, "doa_deg": 100.0, "confidence_0_1": 1.47159144282341, "lat_deg": 34.039663, "lon_deg": -117.8164571, "altitude_rel_ft": 0.2592, "yaw_deg": -41.2213, "pitch_deg": 10.1861, "roll_deg": -6.1602, "ground_speed_ft_s": 0.1353, "vel_north_m_s": 0.04, "vel_east_m_s": -0.01, "vel_down_m_s": 0.0, "usable_for_triangulation": true, "t_gcs_rx_ms": 1776456954770}
{"run_id": "20260417_115945", "kraken_seq": 80, "telemetry_seq": 878, "t_rx_ms": 1776453855615, "dt_ms": 66, "doa_deg": 101.0, "confidence_0_1": 1.5139749646186829, "lat_deg": 34.039663, "lon_deg": -117.8164571, "altitude_rel_ft": 0.2592, "yaw_deg": -41.2213, "pitch_deg": 10.1861, "roll_deg": -6.1602, "ground_speed_ft_s": 0.1353, "vel_north_m_s": 0.04, "vel_east_m_s": -0.01, "vel_down_m_s": 0.0, "usable_for_triangulation": true, "t_gcs_rx_ms": 1776456955402}
{"run_id": "20260417_115945", "kraken_seq": 81, "telemetry_seq": 879, "t_rx_ms": 1776453855961, "dt_ms": -41, "doa_deg": 102.0, "confidence_0_1": 1.4618471264839172, "lat_deg": 34.039663, "lon_deg": -117.8164571, "altitude_rel_ft": 0.2592, "yaw_deg": -41.2213, "pitch_deg": 10.1861, "roll_deg": -6.1602, "ground_speed_ft_s": 0.1353, "vel_north_m_s": 0.04, "vel_east_m_s": -0.01, "vel_down_m_s": 0.0, "usable_for_triangulation": true, "t_gcs_rx_ms": 1776456955808}
{"run_id": "20260417_115945", "kraken_seq": 82, "telemetry_seq": 882, "t_rx_ms": 1776453856495, "dt_ms": 41, "doa_deg": 104.0, "confidence_0_1": 1.3987763226032257, "lat_deg": 34.039662899999996, "lon_deg": -117.81645739999999, "altitude_rel_ft": -0.0098, "yaw_deg": -40.9859, "pitch_deg": 10.199, "roll_deg": -6.1461, "ground_speed_ft_s": 0.1037, "vel_north_m_s": 0.03, "vel_east_m_s": -0.01, "vel_down_m_s": 0.0, "usable_for_triangulation": true, "t_gcs_rx_ms": 1776456956364}
{"run_id": "20260417_115945", "kraken_seq": 83, "telemetry_seq": 883, "t_rx_ms": 1776453856701, "dt_ms": 38, "doa_deg": 101.0, "confidence_0_1": 1.5315791964530945, "lat_deg": 34.039662899999996, "lon_deg": -117.81645739999999, "altitude_rel_ft": -0.0098, "yaw_deg": -40.9859, "pitch_deg": 10.199, "roll_deg": -6.1461, "ground_speed_ft_s": 0.1037, "vel_north_m_s": 0.03, "vel_east_m_s": -0.01, "vel_down_m_s": 0.0, "usable_for_triangulation": true, "t_gcs_rx_ms": 1776456956703}
{"run_id": "20260417_115945", "kraken_seq": 84, "telemetry_seq": 884, "t_rx_ms": 1776453857006, "dt_ms": -66, "doa_deg": 100.0, "confidence_0_1": 1.5951764583587646, "lat_deg": 34.039662899999996, "lon_deg": -117.81645739999999, "altitude_rel_ft": -0.0098, "yaw_deg": -40.9859, "pitch_deg": 10.199, "roll_deg": -6.1461, "ground_speed_ft_s": 0.1037, "vel_north_m_s": 0.03, "vel_east_m_s": -0.01, "vel_down_m_s": 0.0, "usable_for_triangulation": true, "t_gcs_rx_ms": 1776456957377}
{"run_id": "20260417_115945", "kraken_seq": 85, "telemetry_seq": 887, "t_rx_ms": 1776453857518, "dt_ms": 25, "doa_deg": 100.0, "confidence_0_1": 1.5680190920829773, "lat_deg": 34.039663, "lon_deg": -117.81645759999999, "altitude_rel_ft": -0.0164, "yaw_deg": -40.7704, "pitch_deg": 10.1812, "roll_deg": -6.0868, "ground_speed_ft_s": 0.0984, "vel_north_m_s": 0.03, "vel_east_m_s": 0.0, "vel_down_m_s": 0.01, "usable_for_triangulation": true, "t_gcs_rx_ms": 1776456957508}
{"run_id": "20260417_115945", "kraken_seq": 86, "telemetry_seq": 890, "t_rx_ms": 1776453858237, "dt_ms": -89, "doa_deg": 99.0, "confidence_0_1": 1.6858619451522827, "lat_deg": 34.039663, "lon_deg": -117.81645759999999, "altitude_rel_ft": -0.0164, "yaw_deg": -40.7704, "pitch_deg": 10.1812, "roll_deg": -6.0868, "ground_speed_ft_s": 0.0984, "vel_north_m_s": 0.03, "vel_east_m_s": 0.0, "vel_down_m_s": 0.01, "usable_for_triangulation": true, "t_gcs_rx_ms": 1776456958098}
{"run_id": "20260417_115945", "kraken_seq": 87, "telemetry_seq": 892, "t_rx_ms": 1776453858577, "dt_ms": -22, "doa_deg": 98.0, "confidence_0_1": 1.867443174123764, "lat_deg": 34.0396631, "lon_deg": -117.8164577, "altitude_rel_ft": 0.0, "yaw_deg": -40.5489, "pitch_deg": 10.208, "roll_deg": -6.1063, "ground_speed_ft_s": 0.0984, "vel_north_m_s": 0.03, "vel_east_m_s": 0.0, "vel_down_m_s": 0.0, "usable_for_triangulation": true, "t_gcs_rx_ms": 1776456958493}
{"run_id": "20260417_115945", "kraken_seq": 88, "telemetry_seq": 894, "t_rx_ms": 1776453858883, "dt_ms": 74, "doa_deg": 97.0, "confidence_0_1": 2.028263956308365, "lat_deg": 34.0396631, "lon_deg": -117.8164577, "altitude_rel_ft": 0.0, "yaw_deg": -40.5489, "pitch_deg": 10.208, "roll_deg": -6.1063, "ground_speed_ft_s": 0.0984, "vel_north_m_s": 0.03, "vel_east_m_s": 0.0, "vel_down_m_s": 0.0, "usable_for_triangulation": true, "t_gcs_rx_ms": 1776456958866}
{"run_id": "20260417_115945", "kraken_seq": 89, "telemetry_seq": 895, "t_rx_ms": 1776453859187, "dt_ms": -28, "doa_deg": 96.0, "confidence_0_1": 2.134433835744858, "lat_deg": 34.0396631, "lon_deg": -117.8164577, "altitude_rel_ft": 0.0, "yaw_deg": -40.5489, "pitch_deg": 10.208, "roll_deg": -6.1063, "ground_speed_ft_s": 0.0984, "vel_north_m_s": 0.03, "vel_east_m_s": 0.0, "vel_down_m_s": 0.0, "usable_for_triangulation": true, "t_gcs_rx_ms": 1776456959347}
{"run_id": "20260417_115945", "kraken_seq": 90, "telemetry_seq": 897, "t_rx_ms": 1776453859602, "dt_ms": -39, "doa_deg": 98.0, "confidence_0_1": 2.0970772206783295, "lat_deg": 34.0396632, "lon_deg": -117.8164577, "altitude_rel_ft": -0.0787, "yaw_deg": -40.3051, "pitch_deg": 10.1874, "roll_deg": -6.0809, "ground_speed_ft_s": 0.1353, "vel_north_m_s": 0.04, "vel_east_m_s": 0.01, "vel_down_m_s": 0.01, "usable_for_triangulation": true, "t_gcs_rx_ms": 1776456959836}
{"run_id": "20260417_115945", "kraken_seq": 91, "telemetry_seq": 900, "t_rx_ms": 1776453860221, "dt_ms": -52, "doa_deg": 97.0, "confidence_0_1": 2.126915007829666, "lat_deg": 34.0396632, "lon_deg": -117.8164577, "altitude_rel_ft": -0.0787, "yaw_deg": -40.3051, "pitch_deg": 10.1874, "roll_deg": -6.0809, "ground_speed_ft_s": 0.1353, "vel_north_m_s": 0.04, "vel_east_m_s": 0.01, "vel_down_m_s": 0.01, "usable_for_triangulation": true, "t_gcs_rx_ms": 1776456960323}
{"run_id": "20260417_115945", "kraken_seq": 92, "telemetry_seq": 902, "t_rx_ms": 1776453860639, "dt_ms": -68, "doa_deg": 96.0, "confidence_0_1": 2.1167704463005066, "lat_deg": 34.039663399999995, "lon_deg": -117.8164577, "altitude_rel_ft": -0.1542, "yaw_deg": -40.0512, "pitch_deg": 10.2219, "roll_deg": -6.1321, "ground_speed_ft_s": 0.1467, "vel_north_m_s": 0.04, "vel_east_m_s": 0.02, "vel_down_m_s": 0.0, "usable_for_triangulation": true, "t_gcs_rx_ms": 1776456960651}
{"run_id": "20260417_115945", "kraken_seq": 93, "telemetry_seq": 904, "t_rx_ms": 1776453860947, "dt_ms": 28, "doa_deg": 96.0, "confidence_0_1": 2.030174434185028, "lat_deg": 34.039663399999995, "lon_deg": -117.8164577, "altitude_rel_ft": -0.1542, "yaw_deg": -40.0512, "pitch_deg": 10.2219, "roll_deg": -6.1321, "ground_speed_ft_s": 0.1467, "vel_north_m_s": 0.04, "vel_east_m_s": 0.02, "vel_down_m_s": 0.0, "usable_for_triangulation": true, "t_gcs_rx_ms": 1776456961382}
{"run_id": "20260417_115945", "kraken_seq": 94, "telemetry_seq": 907, "t_rx_ms": 1776453861559, "dt_ms": 24, "doa_deg": 97.0, "confidence_0_1": 1.961284577846527, "lat_deg": 34.039663399999995, "lon_deg": -117.8164575, "altitude_rel_ft": -0.1969, "yaw_deg": -39.815, "pitch_deg": 10.2006, "roll_deg": -6.0668, "ground_speed_ft_s": 0.1392, "vel_north_m_s": 0.03, "vel_east_m_s": 0.03, "vel_down_m_s": 0.02, "usable_for_triangulation": true, "t_gcs_rx_ms": 1776456961557}
{"run_id": "20260417_115945", "kraken_seq": 95, "telemetry_seq": 908, "t_rx_ms": 1776453861861, "dt_ms": -74, "doa_deg": 98.0, "confidence_0_1": 1.86207115650177, "lat_deg": 34.039663399999995, "lon_deg": -117.8164575, "altitude_rel_ft": -0.1969, "yaw_deg": -39.815, "pitch_deg": 10.2006, "roll_deg": -6.0668, "ground_speed_ft_s": 0.1392, "vel_north_m_s": 0.03, "vel_east_m_s": 0.03, "vel_down_m_s": 0.02, "usable_for_triangulation": true, "t_gcs_rx_ms": 1776456961991}
{"run_id": "20260417_115945", "kraken_seq": 96, "telemetry_seq": 910, "t_rx_ms": 1776453862267, "dt_ms": -77, "doa_deg": 101.0, "confidence_0_1": 1.7824779450893402, "lat_deg": 34.039663399999995, "lon_deg": -117.8164575, "altitude_rel_ft": -0.1969, "yaw_deg": -39.815, "pitch_deg": 10.2006, "roll_deg": -6.0668, "ground_speed_ft_s": 0.1392, "vel_north_m_s": 0.03, "vel_east_m_s": 0.03, "vel_down_m_s": 0.02, "usable_for_triangulation": true, "t_gcs_rx_ms": 1776456962511}
{"run_id": "20260417_115945", "kraken_seq": 97, "telemetry_seq": 912, "t_rx_ms": 1776453862675, "dt_ms": -83, "doa_deg": 99.0, "confidence_0_1": 1.831924021244049, "lat_deg": 34.039663399999995, "lon_deg": -117.81645759999999, "altitude_rel_ft": 0.0066, "yaw_deg": -39.5621, "pitch_deg": 10.2216, "roll_deg": -6.1156, "ground_speed_ft_s": 0.0928, "vel_north_m_s": 0.02, "vel_east_m_s": 0.02, "vel_down_m_s": 0.01, "usable_for_triangulation": true, "t_gcs_rx_ms": 1776456962883}
{"run_id": "20260417_115945", "kraken_seq": 99, "telemetry_seq": 917, "t_rx_ms": 1776453863583, "dt_ms": 18, "doa_deg": 98.0, "confidence_0_1": 2.071659415960312, "lat_deg": 34.0396633, "lon_deg": -117.8164577, "altitude_rel_ft": 0.0394, "yaw_deg": -39.3148, "pitch_deg": 10.21, "roll_deg": -6.1336, "ground_speed_ft_s": 0.0464, "vel_north_m_s": 0.01, "vel_east_m_s": 0.01, "vel_down_m_s": 0.02, "usable_for_triangulation": true, "t_gcs_rx_ms": 1776456963698}
{"run_id": "20260417_115945", "kraken_seq": 100, "telemetry_seq": 919, "t_rx_ms": 1776453864100, "dt_ms": -86, "doa_deg": 101.0, "confidence_0_1": 1.8184298276901245, "lat_deg": 34.0396633, "lon_deg": -117.8164577, "altitude_rel_ft": 0.0394, "yaw_deg": -39.3148, "pitch_deg": 10.21, "roll_deg": -6.1336, "ground_speed_ft_s": 0.0464, "vel_north_m_s": 0.01, "vel_east_m_s": 0.01, "vel_down_m_s": 0.02, "usable_for_triangulation": true, "t_gcs_rx_ms": 1776456964347}
{"run_id": "20260417_115945", "kraken_seq": 101, "telemetry_seq": 921, "t_rx_ms": 1776453864511, "dt_ms": -89, "doa_deg": 103.0, "confidence_0_1": 1.643989086151123, "lat_deg": 34.0396632, "lon_deg": -117.8164578, "altitude_rel_ft": 0.023, "yaw_deg": -39.0543, "pitch_deg": 10.2416, "roll_deg": -6.162, "ground_speed_ft_s": 0.0464, "vel_north_m_s": 0.01, "vel_east_m_s": 0.01, "vel_down_m_s": 0.01, "usable_for_triangulation": true, "t_gcs_rx_ms": 1776456964651}
{"run_id": "20260417_115945", "kraken_seq": 102, "telemetry_seq": 923, "t_rx_ms": 1776453864926, "dt_ms": -84, "doa_deg": 153.0, "confidence_0_1": 0.9315356612205505, "lat_deg": 34.0396632, "lon_deg": -117.8164578, "altitude_rel_ft": 0.023, "yaw_deg": -39.0543, "pitch_deg": 10.2416, "roll_deg": -6.162, "ground_speed_ft_s": 0.0464, "vel_north_m_s": 0.01, "vel_east_m_s": 0.01, "vel_down_m_s": 0.01, "usable_for_triangulation": true, "t_gcs_rx_ms": 1776456965056}
{"run_id": "20260417_115945", "kraken_seq": 103, "telemetry_seq": 925, "t_rx_ms": 1776453865328, "dt_ms": -85, "doa_deg": 163.0, "confidence_0_1": 0.8186646550893784, "lat_deg": 34.0396632, "lon_deg": -117.81645789999999, "altitude_rel_ft": 0.0459, "yaw_deg": -38.8061, "pitch_deg": 10.2295, "roll_deg": -6.1763, "ground_speed_ft_s": 0.0464, "vel_north_m_s": 0.01, "vel_east_m_s": 0.01, "vel_down_m_s": 0.01, "usable_for_triangulation": true, "t_gcs_rx_ms": 1776456965553}
{"run_id": "20260417_115945", "kraken_seq": 104, "telemetry_seq": 927, "t_rx_ms": 1776453865729, "dt_ms": -83, "doa_deg": 164.0, "confidence_0_1": 0.8004176616668701, "lat_deg": 34.0396632, "lon_deg": -117.81645789999999, "altitude_rel_ft": 0.0459, "yaw_deg": -38.8061, "pitch_deg": 10.2295, "roll_deg": -6.1763, "ground_speed_ft_s": 0.0464, "vel_north_m_s": 0.01, "vel_east_m_s": 0.01, "vel_down_m_s": 0.01, "usable_for_triangulation": true, "t_gcs_rx_ms": 1776456966208}
{"run_id": "20260417_115945", "kraken_seq": 105, "telemetry_seq": 930, "t_rx_ms": 1776453866231, "dt_ms": 22, "doa_deg": 161.0, "confidence_0_1": 0.7991348206996918, "lat_deg": 34.0396632, "lon_deg": -117.81645789999999, "altitude_rel_ft": 0.0525, "yaw_deg": -38.5376, "pitch_deg": 10.2246, "roll_deg": -6.1547, "ground_speed_ft_s": 0.0464, "vel_north_m_s": 0.01, "vel_east_m_s": 0.01, "vel_down_m_s": 0.01, "usable_for_triangulation": true, "t_gcs_rx_ms": 1776456966514}
{"run_id": "20260417_115945", "kraken_seq": 106, "telemetry_seq": 932, "t_rx_ms": 1776453866739, "dt_ms": -82, "doa_deg": 127.0, "confidence_0_1": 0.9659197926521301, "lat_deg": 34.0396632, "lon_deg": -117.81645789999999, "altitude_rel_ft": 0.0525, "yaw_deg": -38.5376, "pitch_deg": 10.2246, "roll_deg": -6.1547, "ground_speed_ft_s": 0.0464, "vel_north_m_s": 0.01, "vel_east_m_s": 0.01, "vel_down_m_s": 0.01, "usable_for_triangulation": true, "t_gcs_rx_ms": 1776456966894}
{"run_id": "20260417_115945", "kraken_seq": 107, "telemetry_seq": 934, "t_rx_ms": 1776453867071, "dt_ms": -13, "doa_deg": 118.0, "confidence_0_1": 1.0273226350545883, "lat_deg": 34.0396632, "lon_deg": -117.81645789999999, "altitude_rel_ft": 0.0525, "yaw_deg": -38.5376, "pitch_deg": 10.2246, "roll_deg": -6.1547, "ground_speed_ft_s": 0.0464, "vel_north_m_s": 0.01, "vel_east_m_s": 0.01, "vel_down_m_s": 0.01, "usable_for_triangulation": true, "t_gcs_rx_ms": 1776456967384}
{"run_id": "20260417_115945", "kraken_seq": 108, "telemetry_seq": 936, "t_rx_ms": 1776453867477, "dt_ms": -13, "doa_deg": 119.0, "confidence_0_1": 1.0999226570129395, "lat_deg": 34.0396632, "lon_deg": -117.81645789999999, "altitude_rel_ft": -0.023, "yaw_deg": -38.2629, "pitch_deg": 10.2253, "roll_deg": -6.1695, "ground_speed_ft_s": 0.0734, "vel_north_m_s": 0.01, "vel_east_m_s": 0.02, "vel_down_m_s": 0.01, "usable_for_triangulation": true, "t_gcs_rx_ms": 1776456967863}
{"run_id": "20260417_115945", "kraken_seq": 109, "telemetry_seq": 938, "t_rx_ms": 1776453867886, "dt_ms": -19, "doa_deg": 155.0, "confidence_0_1": 0.7966712862253189, "lat_deg": 34.0396632, "lon_deg": -117.81645789999999, "altitude_rel_ft": -0.023, "yaw_deg": -38.2629, "pitch_deg": 10.2253, "roll_deg": -6.1695, "ground_speed_ft_s": 0.0734, "vel_north_m_s": 0.01, "vel_east_m_s": 0.02, "vel_down_m_s": 0.01, "usable_for_triangulation": true, "t_gcs_rx_ms": 1776456968344}
{"run_id": "20260417_115945", "kraken_seq": 110, "telemetry_seq": 941, "t_rx_ms": 1776453868392, "dt_ms": 78, "doa_deg": 188.0, "confidence_0_1": 0.7690992206335068, "lat_deg": 34.039663399999995, "lon_deg": -117.81645789999999, "altitude_rel_ft": 0.1345, "yaw_deg": -37.9951, "pitch_deg": 10.1894, "roll_deg": -6.1469, "ground_speed_ft_s": 0.1037, "vel_north_m_s": 0.03, "vel_east_m_s": 0.01, "vel_down_m_s": 0.01, "usable_for_triangulation": true, "t_gcs_rx_ms": 1776456968676}
{"run_id": "20260417_115945", "kraken_seq": 111, "telemetry_seq": 943, "t_rx_ms": 1776453868794, "dt_ms": 78, "doa_deg": 197.0, "confidence_0_1": 0.8208230137825012, "lat_deg": 34.039663399999995, "lon_deg": -117.81645789999999, "altitude_rel_ft": 0.1345, "yaw_deg": -37.9951, "pitch_deg": 10.1894, "roll_deg": -6.1469, "ground_speed_ft_s": 0.1037, "vel_north_m_s": 0.03, "vel_east_m_s": 0.01, "vel_down_m_s": 0.01, "usable_for_triangulation": true, "t_gcs_rx_ms": 1776456969028}
{"run_id": "20260417_115945", "kraken_seq": 112, "telemetry_seq": 945, "t_rx_ms": 1776453869199, "dt_ms": 76, "doa_deg": 136.0, "confidence_0_1": 0.8005490154027939, "lat_deg": 34.0396639, "lon_deg": -117.8164578, "altitude_rel_ft": 0.315, "yaw_deg": -37.7197, "pitch_deg": 10.1784, "roll_deg": -6.1581, "ground_speed_ft_s": 0.1467, "vel_north_m_s": 0.04, "vel_east_m_s": 0.02, "vel_down_m_s": 0.0, "usable_for_triangulation": true, "t_gcs_rx_ms": 1776456969597}
{"run_id": "20260417_115945", "kraken_seq": 113, "telemetry_seq": 947, "t_rx_ms": 1776453869707, "dt_ms": -19, "doa_deg": 203.0, "confidence_0_1": 0.900232121348381, "lat_deg": 34.0396639, "lon_deg": -117.8164578, "altitude_rel_ft": 0.315, "yaw_deg": -37.7197, "pitch_deg": 10.1784, "roll_deg": -6.1581, "ground_speed_ft_s": 0.1467, "vel_north_m_s": 0.04, "vel_east_m_s": 0.02, "vel_down_m_s": 0.0, "usable_for_triangulation": true, "t_gcs_rx_ms": 1776456970008}
{"run_id": "20260417_115945", "kraken_seq": 114, "telemetry_seq": 949, "t_rx_ms": 1776453870109, "dt_ms": -17, "doa_deg": 184.0, "confidence_0_1": 0.8946378529071808, "lat_deg": 34.0396639, "lon_deg": -117.8164578, "altitude_rel_ft": 0.315, "yaw_deg": -37.7197, "pitch_deg": 10.1784, "roll_deg": -6.1581, "ground_speed_ft_s": 0.1467, "vel_north_m_s": 0.04, "vel_east_m_s": 0.02, "vel_down_m_s": 0.0, "usable_for_triangulation": true, "t_gcs_rx_ms": 1776456970387}
{"run_id": "20260417_115945", "kraken_seq": 115, "telemetry_seq": 951, "t_rx_ms": 1776453870517, "dt_ms": -19, "doa_deg": 179.0, "confidence_0_1": 0.9976208209991455, "lat_deg": 34.0396642, "lon_deg": -117.8164577, "altitude_rel_ft": 0.3937, "yaw_deg": -37.4564, "pitch_deg": 10.2142, "roll_deg": -6.1408, "ground_speed_ft_s": 0.1467, "vel_north_m_s": 0.04, "vel_east_m_s": 0.02, "vel_down_m_s": 0.0, "usable_for_triangulation": true, "t_gcs_rx_ms": 1776456970792}
{"run_id": "20260417_115945", "kraken_seq": 116, "telemetry_seq": 955, "t_rx_ms": 1776453871244, "dt_ms": 60, "doa_deg": 181.0, "confidence_0_1": 0.9544521570205688, "lat_deg": 34.0396646, "lon_deg": -117.81645759999999, "altitude_rel_ft": 0.374, "yaw_deg": -37.1967, "pitch_deg": 10.2126, "roll_deg": -6.1737, "ground_speed_ft_s": 0.1767, "vel_north_m_s": 0.05, "vel_east_m_s": 0.02, "vel_down_m_s": 0.0, "usable_for_triangulation": true, "t_gcs_rx_ms": 1776456971404}
{"run_id": "20260417_115945", "kraken_seq": 117, "telemetry_seq": 956, "t_rx_ms": 1776453871550, "dt_ms": -45, "doa_deg": 181.0, "confidence_0_1": 0.9652259200811386, "lat_deg": 34.0396646, "lon_deg": -117.81645759999999, "altitude_rel_ft": 0.374, "yaw_deg": -37.1967, "pitch_deg": 10.2126, "roll_deg": -6.1737, "ground_speed_ft_s": 0.1767, "vel_north_m_s": 0.05, "vel_east_m_s": 0.02, "vel_down_m_s": 0.0, "usable_for_triangulation": true, "t_gcs_rx_ms": 1776456971706}
{"run_id": "20260417_115945", "kraken_seq": 118, "telemetry_seq": 958, "t_rx_ms": 1776453871851, "dt_ms": 56, "doa_deg": 182.0, "confidence_0_1": 0.9745199978351593, "lat_deg": 34.0396646, "lon_deg": -117.81645759999999, "altitude_rel_ft": 0.374, "yaw_deg": -37.1967, "pitch_deg": 10.2126, "roll_deg": -6.1737, "ground_speed_ft_s": 0.1767, "vel_north_m_s": 0.05, "vel_east_m_s": 0.02, "vel_down_m_s": 0.0, "usable_for_triangulation": true, "t_gcs_rx_ms": 1776456972354}
{"run_id": "20260417_115945", "kraken_seq": 119, "telemetry_seq": 960, "t_rx_ms": 1776453872254, "dt_ms": 61, "doa_deg": 181.0, "confidence_0_1": 0.987183004617691, "lat_deg": 34.0396651, "lon_deg": -117.8164573, "altitude_rel_ft": 0.456, "yaw_deg": -36.9408, "pitch_deg": 10.2056, "roll_deg": -6.1344, "ground_speed_ft_s": 0.1913, "vel_north_m_s": 0.05, "vel_east_m_s": 0.03, "vel_down_m_s": 0.0, "usable_for_triangulation": true, "t_gcs_rx_ms": 1776456972544}
{"run_id": "20260417_115945", "kraken_seq": 120, "telemetry_seq": 962, "t_rx_ms": 1776453872756, "dt_ms": -40, "doa_deg": 182.0, "confidence_0_1": 1.0130324214696884, "lat_deg": 34.0396651, "lon_deg": -117.8164573, "altitude_rel_ft": 0.456, "yaw_deg": -36.9408, "pitch_deg": 10.2056, "roll_deg": -6.1344, "ground_speed_ft_s": 0.1913, "vel_north_m_s": 0.05, "vel_east_m_s": 0.03, "vel_down_m_s": 0.0, "usable_for_triangulation": true, "t_gcs_rx_ms": 1776456973047}
{"run_id": "20260417_115945", "kraken_seq": 121, "telemetry_seq": 965, "t_rx_ms": 1776453873261, "dt_ms": 60, "doa_deg": 184.0, "confidence_0_1": 1.002001166343689, "lat_deg": 34.0396654, "lon_deg": -117.816457, "altitude_rel_ft": 0.4265, "yaw_deg": -36.6427, "pitch_deg": 10.2068, "roll_deg": -6.1955, "ground_speed_ft_s": 0.1913, "vel_north_m_s": 0.05, "vel_east_m_s": 0.03, "vel_down_m_s": 0.0, "usable_for_triangulation": true, "t_gcs_rx_ms": 1776456973542}
{"run_id": "20260417_115945", "kraken_seq": 122, "telemetry_seq": 966, "t_rx_ms": 1776453873564, "dt_ms": -42, "doa_deg": 184.0, "confidence_0_1": 0.9705611318349838, "lat_deg": 34.0396654, "lon_deg": -117.816457, "altitude_rel_ft": 0.4265, "yaw_deg": -36.6427, "pitch_deg": 10.2068, "roll_deg": -6.1955, "ground_speed_ft_s": 0.1913, "vel_north_m_s": 0.05, "vel_east_m_s": 0.03, "vel_down_m_s": 0.0, "usable_for_triangulation": true, "t_gcs_rx_ms": 1776456974021}
{"run_id": "20260417_115945", "kraken_seq": 123, "telemetry_seq": 969, "t_rx_ms": 1776453874067, "dt_ms": 65, "doa_deg": 184.0, "confidence_0_1": 0.9774480760097504, "lat_deg": 34.0396654, "lon_deg": -117.816457, "altitude_rel_ft": 0.4265, "yaw_deg": -36.6427, "pitch_deg": 10.2068, "roll_deg": -6.1955, "ground_speed_ft_s": 0.1913, "vel_north_m_s": 0.05, "vel_east_m_s": 0.03, "vel_down_m_s": 0.0, "usable_for_triangulation": true, "t_gcs_rx_ms": 1776456974395}
{"run_id": "20260417_115945", "kraken_seq": 124, "telemetry_seq": 971, "t_rx_ms": 1776453874574, "dt_ms": -43, "doa_deg": 184.0, "confidence_0_1": 1.0168618708848953, "lat_deg": 34.0396655, "lon_deg": -117.81645689999999, "altitude_rel_ft": 0.0, "yaw_deg": -36.3704, "pitch_deg": 10.213, "roll_deg": -6.188, "ground_speed_ft_s": 0.1183, "vel_north_m_s": 0.03, "vel_east_m_s": 0.02, "vel_down_m_s": 0.0, "usable_for_triangulation": true, "t_gcs_rx_ms": 1776456974937}
{"run_id": "20260417_115945", "kraken_seq": 125, "telemetry_seq": 973, "t_rx_ms": 1776453874994, "dt_ms": -53, "doa_deg": 184.0, "confidence_0_1": 1.076987311244011, "lat_deg": 34.0396655, "lon_deg": -117.81645689999999, "altitude_rel_ft": 0.0, "yaw_deg": -36.3704, "pitch_deg": 10.213, "roll_deg": -6.188, "ground_speed_ft_s": 0.1183, "vel_north_m_s": 0.03, "vel_east_m_s": 0.02, "vel_down_m_s": 0.0, "usable_for_triangulation": true, "t_gcs_rx_ms": 1776456975365}
{"run_id": "20260417_115945", "kraken_seq": 126, "telemetry_seq": 975, "t_rx_ms": 1776453875395, "dt_ms": -36, "doa_deg": 184.0, "confidence_0_1": 1.0864651948213577, "lat_deg": 34.0396655, "lon_deg": -117.8164568, "altitude_rel_ft": 0.0164, "yaw_deg": -36.0918, "pitch_deg": 10.205, "roll_deg": -6.2202, "ground_speed_ft_s": 0.1037, "vel_north_m_s": 0.03, "vel_east_m_s": 0.01, "vel_down_m_s": 0.0, "usable_for_triangulation": true, "t_gcs_rx_ms": 1776456975732}
{"run_id": "20260417_115945", "kraken_seq": 127, "telemetry_seq": 977, "t_rx_ms": 1776453875820, "dt_ms": -52, "doa_deg": 183.0, "confidence_0_1": 1.0366733372211456, "lat_deg": 34.0396655, "lon_deg": -117.8164568, "altitude_rel_ft": 0.0164, "yaw_deg": -36.0918, "pitch_deg": 10.205, "roll_deg": -6.2202, "ground_speed_ft_s": 0.1037, "vel_north_m_s": 0.03, "vel_east_m_s": 0.01, "vel_down_m_s": 0.0, "usable_for_triangulation": true, "t_gcs_rx_ms": 1776456976331}
{"run_id": "20260417_115945", "kraken_seq": 128, "telemetry_seq": 979, "t_rx_ms": 1776453876229, "dt_ms": -57, "doa_deg": 180.0, "confidence_0_1": 0.9642138332128525, "lat_deg": 34.0396655, "lon_deg": -117.8164568, "altitude_rel_ft": 0.0164, "yaw_deg": -36.0918, "pitch_deg": 10.205, "roll_deg": -6.2202, "ground_speed_ft_s": 0.1037, "vel_north_m_s": 0.03, "vel_east_m_s": 0.01, "vel_down_m_s": 0.0, "usable_for_triangulation": true, "t_gcs_rx_ms": 1776456976654}
{"run_id": "20260417_115945", "kraken_seq": 129, "telemetry_seq": 981, "t_rx_ms": 1776453876634, "dt_ms": -59, "doa_deg": 179.0, "confidence_0_1": 0.9400086104869843, "lat_deg": 34.0396656, "lon_deg": -117.8164568, "altitude_rel_ft": 0.0951, "yaw_deg": -35.8318, "pitch_deg": 10.2192, "roll_deg": -6.2051, "ground_speed_ft_s": 0.0734, "vel_north_m_s": 0.02, "vel_east_m_s": 0.01, "vel_down_m_s": 0.0, "usable_for_triangulation": true, "t_gcs_rx_ms": 1776456977277}
{"run_id": "20260417_115945", "kraken_seq": 131, "telemetry_seq": 986, "t_rx_ms": 1776453877553, "dt_ms": 30, "doa_deg": 180.0, "confidence_0_1": 1.017570048570633, "lat_deg": 34.0396658, "lon_deg": -117.81645689999999, "altitude_rel_ft": 0.0951, "yaw_deg": -35.5429, "pitch_deg": 10.2218, "roll_deg": -6.2095, "ground_speed_ft_s": 0.0328, "vel_north_m_s": 0.01, "vel_east_m_s": 0.0, "vel_down_m_s": 0.0, "usable_for_triangulation": true, "t_gcs_rx_ms": 1776456978030}
{"run_id": "20260417_115945", "kraken_seq": 132, "telemetry_seq": 989, "t_rx_ms": 1776453878171, "dt_ms": 27, "doa_deg": 181.0, "confidence_0_1": 1.0322070866823196, "lat_deg": 34.0396658, "lon_deg": -117.81645689999999, "altitude_rel_ft": 0.0951, "yaw_deg": -35.5429, "pitch_deg": 10.2218, "roll_deg": -6.2095, "ground_speed_ft_s": 0.0328, "vel_north_m_s": 0.01, "vel_east_m_s": 0.0, "vel_down_m_s": 0.0, "usable_for_triangulation": true, "t_gcs_rx_ms": 1776456978414}
{"run_id": "20260417_115945", "kraken_seq": 133, "telemetry_seq": 990, "t_rx_ms": 1776453878482, "dt_ms": -82, "doa_deg": 182.0, "confidence_0_1": 1.0238448530435562, "lat_deg": 34.039665899999996, "lon_deg": -117.816457, "altitude_rel_ft": 0.105, "yaw_deg": -35.267, "pitch_deg": 10.1818, "roll_deg": -6.2198, "ground_speed_ft_s": 0.0656, "vel_north_m_s": 0.02, "vel_east_m_s": 0.0, "vel_down_m_s": 0.01, "usable_for_triangulation": true, "t_gcs_rx_ms": 1776456978951}
{"run_id": "20260417_115945", "kraken_seq": 134, "telemetry_seq": 992, "t_rx_ms": 1776453878888, "dt_ms": -87, "doa_deg": 182.0, "confidence_0_1": 1.0022234916687012, "lat_deg": 34.039665899999996, "lon_deg": -117.816457, "altitude_rel_ft": 0.105, "yaw_deg": -35.267, "pitch_deg": 10.1818, "roll_deg": -6.2198, "ground_speed_ft_s": 0.0656, "vel_north_m_s": 0.02, "vel_east_m_s": 0.0, "vel_down_m_s": 0.01, "usable_for_triangulation": true, "t_gcs_rx_ms": 1776456979353}
{"run_id": "20260417_115945", "kraken_seq": 135, "telemetry_seq": 995, "t_rx_ms": 1776453879392, "dt_ms": 14, "doa_deg": 182.0, "confidence_0_1": 1.0173874348402023, "lat_deg": 34.039665899999996, "lon_deg": -117.816457, "altitude_rel_ft": 0.0295, "yaw_deg": -34.9729, "pitch_deg": 10.2033, "roll_deg": -6.214, "ground_speed_ft_s": 0.0328, "vel_north_m_s": 0.01, "vel_east_m_s": 0.0, "vel_down_m_s": 0.01, "usable_for_triangulation": true, "t_gcs_rx_ms": 1776456979912}
{"run_id": "20260417_115945", "kraken_seq": 136, "telemetry_seq": 997, "t_rx_ms": 1776453879898, "dt_ms": -86, "doa_deg": 183.0, "confidence_0_1": 1.059633046388626, "lat_deg": 34.039665899999996, "lon_deg": -117.816457, "altitude_rel_ft": 0.0295, "yaw_deg": -34.9729, "pitch_deg": 10.2033, "roll_deg": -6.214, "ground_speed_ft_s": 0.0328, "vel_north_m_s": 0.01, "vel_east_m_s": 0.0, "vel_down_m_s": 0.01, "usable_for_triangulation": true, "t_gcs_rx_ms": 1776456980371}
{"run_id": "20260417_115945", "kraken_seq": 137, "telemetry_seq": 999, "t_rx_ms": 1776453880203, "dt_ms": 14, "doa_deg": 185.0, "confidence_0_1": 1.0868977010250092, "lat_deg": 34.039665899999996, "lon_deg": -117.816457, "altitude_rel_ft": 0.0295, "yaw_deg": -34.9729, "pitch_deg": 10.2033, "roll_deg": -6.214, "ground_speed_ft_s": 0.0328, "vel_north_m_s": 0.01, "vel_east_m_s": 0.0, "vel_down_m_s": 0.01, "usable_for_triangulation": true, "t_gcs_rx_ms": 1776456980687}
{"run_id": "20260417_115945", "kraken_seq": 138, "telemetry_seq": 1001, "t_rx_ms": 1776453880628, "dt_ms": -2, "doa_deg": 187.0, "confidence_0_1": 1.0821406543254852, "lat_deg": 34.039665899999996, "lon_deg": -117.816457, "altitude_rel_ft": -0.0427, "yaw_deg": -34.7215, "pitch_deg": 10.1821, "roll_deg": -6.2376, "ground_speed_ft_s": 0.0, "vel_north_m_s": 0.0, "vel_east_m_s": 0.0, "vel_down_m_s": 0.02, "usable_for_triangulation": true, "t_gcs_rx_ms": 1776456981436}
{"run_id": "20260417_115945", "kraken_seq": 139, "telemetry_seq": 1003, "t_rx_ms": 1776453881031, "dt_ms": 36, "doa_deg": 189.0, "confidence_0_1": 1.0618549585342407, "lat_deg": 34.039665899999996, "lon_deg": -117.816457, "altitude_rel_ft": -0.0427, "yaw_deg": -34.7215, "pitch_deg": 10.1821, "roll_deg": -6.2376, "ground_speed_ft_s": 0.0, "vel_north_m_s": 0.0, "vel_east_m_s": 0.0, "vel_down_m_s": 0.02, "usable_for_triangulation": true, "t_gcs_rx_ms": 1776456981540}
{"run_id": "20260417_115945", "kraken_seq": 140, "telemetry_seq": 1005, "t_rx_ms": 1776453881446, "dt_ms": 47, "doa_deg": 190.0, "confidence_0_1": 1.0531701892614365, "lat_deg": 34.039666, "lon_deg": -117.816457, "altitude_rel_ft": 0.0361, "yaw_deg": -34.4381, "pitch_deg": 10.2256, "roll_deg": -6.2493, "ground_speed_ft_s": 0.0, "vel_north_m_s": 0.0, "vel_east_m_s": 0.0, "vel_down_m_s": 0.0, "usable_for_triangulation": true, "t_gcs_rx_ms": 1776456982044}
{"run_id": "20260417_115945", "kraken_seq": 141, "telemetry_seq": 1007, "t_rx_ms": 1776453881948, "dt_ms": -50, "doa_deg": 189.0, "confidence_0_1": 1.0405471920967102, "lat_deg": 34.039666, "lon_deg": -117.816457, "altitude_rel_ft": 0.0361, "yaw_deg": -34.4381, "pitch_deg": 10.2256, "roll_deg": -6.2493, "ground_speed_ft_s": 0.0, "vel_north_m_s": 0.0, "vel_east_m_s": 0.0, "vel_down_m_s": 0.0, "usable_for_triangulation": true, "t_gcs_rx_ms": 1776456982396}
{"run_id": "20260417_115945", "kraken_seq": 142, "telemetry_seq": 1009, "t_rx_ms": 1776453882357, "dt_ms": -56, "doa_deg": 190.0, "confidence_0_1": 1.0394767671823502, "lat_deg": 34.0396662, "lon_deg": -117.816457, "altitude_rel_ft": 0.0328, "yaw_deg": -34.1513, "pitch_deg": 10.2163, "roll_deg": -6.2446, "ground_speed_ft_s": 0.0, "vel_north_m_s": 0.0, "vel_east_m_s": 0.0, "vel_down_m_s": 0.01, "usable_for_triangulation": true, "t_gcs_rx_ms": 1776456982913}
{"run_id": "20260417_115945", "kraken_seq": 143, "telemetry_seq": 1011, "t_rx_ms": 1776453882758, "dt_ms": -54, "doa_deg": 192.0, "confidence_0_1": 1.039789766073227, "lat_deg": 34.0396662, "lon_deg": -117.816457, "altitude_rel_ft": 0.0328, "yaw_deg": -34.1513, "pitch_deg": 10.2163, "roll_deg": -6.2446, "ground_speed_ft_s": 0.0, "vel_north_m_s": 0.0, "vel_east_m_s": 0.0, "vel_down_m_s": 0.01, "usable_for_triangulation": true, "t_gcs_rx_ms": 1776456983416}
{"run_id": "20260417_115945", "kraken_seq": 144, "telemetry_seq": 1014, "t_rx_ms": 1776453883264, "dt_ms": 43, "doa_deg": 192.0, "confidence_0_1": 1.0836471617221832, "lat_deg": 34.0396663, "lon_deg": -117.816457, "altitude_rel_ft": 0.105, "yaw_deg": -33.8903, "pitch_deg": 10.2367, "roll_deg": -6.2285, "ground_speed_ft_s": 0.0, "vel_north_m_s": 0.0, "vel_east_m_s": 0.0, "vel_down_m_s": 0.0, "usable_for_triangulation": true, "t_gcs_rx_ms": 1776456983759}
{"run_id": "20260417_115945", "kraken_seq": 145, "telemetry_seq": 1016, "t_rx_ms": 1776453883670, "dt_ms": 43, "doa_deg": 191.0, "confidence_0_1": 1.0984961688518524, "lat_deg": 34.0396663, "lon_deg": -117.816457, "altitude_rel_ft": 0.105, "yaw_deg": -33.8903, "pitch_deg": 10.2367, "roll_deg": -6.2285, "ground_speed_ft_s": 0.0, "vel_north_m_s": 0.0, "vel_east_m_s": 0.0, "vel_down_m_s": 0.0, "usable_for_triangulation": true, "t_gcs_rx_ms": 1776456984393}
{"run_id": "20260417_115945", "kraken_seq": 146, "telemetry_seq": 1018, "t_rx_ms": 1776453884176, "dt_ms": -55, "doa_deg": 190.0, "confidence_0_1": 1.0879278928041458, "lat_deg": 34.0396663, "lon_deg": -117.816457, "altitude_rel_ft": 0.105, "yaw_deg": -33.8903, "pitch_deg": 10.2367, "roll_deg": -6.2285, "ground_speed_ft_s": 0.0, "vel_north_m_s": 0.0, "vel_east_m_s": 0.0, "vel_down_m_s": 0.0, "usable_for_triangulation": true, "t_gcs_rx_ms": 1776456984536}
{"run_id": "20260417_115945", "kraken_seq": 147, "telemetry_seq": 1021, "t_rx_ms": 1776453884677, "dt_ms": 47, "doa_deg": 194.0, "confidence_0_1": 1.1504285037517548, "lat_deg": 34.0396664, "lon_deg": -117.816457, "altitude_rel_ft": 0.0984, "yaw_deg": -33.6476, "pitch_deg": 10.2188, "roll_deg": -6.2313, "ground_speed_ft_s": 0.0328, "vel_north_m_s": 0.01, "vel_east_m_s": 0.0, "vel_down_m_s": 0.02, "usable_for_triangulation": true, "t_gcs_rx_ms": 1776456985186}
{"run_id": "20260417_115945", "kraken_seq": 148, "telemetry_seq": 1022, "t_rx_ms": 1776453884980, "dt_ms": -54, "doa_deg": 202.0, "confidence_0_1": 1.2093240022659302, "lat_deg": 34.0396664, "lon_deg": -117.816457, "altitude_rel_ft": 0.0984, "yaw_deg": -33.6476, "pitch_deg": 10.2188, "roll_deg": -6.2313, "ground_speed_ft_s": 0.0328, "vel_north_m_s": 0.01, "vel_east_m_s": 0.0, "vel_down_m_s": 0.02, "usable_for_triangulation": true, "t_gcs_rx_ms": 1776456985503}
{"run_id": "20260417_115945", "kraken_seq": 149, "telemetry_seq": 1025, "t_rx_ms": 1776453885495, "dt_ms": 36, "doa_deg": 203.0, "confidence_0_1": 1.1537212133407593, "lat_deg": 34.0396667, "lon_deg": -117.816457, "altitude_rel_ft": 0.1181, "yaw_deg": -33.3551, "pitch_deg": 10.2225, "roll_deg": -6.2901, "ground_speed_ft_s": 0.0656, "vel_north_m_s": 0.02, "vel_east_m_s": 0.0, "vel_down_m_s": 0.01, "usable_for_triangulation": true, "t_gcs_rx_ms": 1776456985890}
{"run_id": "20260417_115945", "kraken_seq": 150, "telemetry_seq": 1027, "t_rx_ms": 1776453885900, "dt_ms": 36, "doa_deg": 199.0, "confidence_0_1": 1.0683607310056686, "lat_deg": 34.0396667, "lon_deg": -117.816457, "altitude_rel_ft": 0.1181, "yaw_deg": -33.3551, "pitch_deg": 10.2225, "roll_deg": -6.2901, "ground_speed_ft_s": 0.0656, "vel_north_m_s": 0.02, "vel_east_m_s": 0.0, "vel_down_m_s": 0.01, "usable_for_triangulation": true, "t_gcs_rx_ms": 1776456986446}
{"run_id": "20260417_115945", "kraken_seq": 151, "telemetry_seq": 1029, "t_rx_ms": 1776453886305, "dt_ms": 35, "doa_deg": 190.0, "confidence_0_1": 1.1207238584756851, "lat_deg": 34.039667, "lon_deg": -117.81645669999999, "altitude_rel_ft": 0.0328, "yaw_deg": -33.0991, "pitch_deg": 10.2352, "roll_deg": -6.2497, "ground_speed_ft_s": 0.0734, "vel_north_m_s": 0.02, "vel_east_m_s": 0.01, "vel_down_m_s": 0.0, "usable_for_triangulation": true, "t_gcs_rx_ms": 1776456986707}
{"run_id": "20260417_115945", "kraken_seq": 152, "telemetry_seq": 1031, "t_rx_ms": 1776453886711, "dt_ms": 31, "doa_deg": 189.0, "confidence_0_1": 1.026737466454506, "lat_deg": 34.039667, "lon_deg": -117.81645669999999, "altitude_rel_ft": 0.0328, "yaw_deg": -33.0991, "pitch_deg": 10.2352, "roll_deg": -6.2497, "ground_speed_ft_s": 0.0734, "vel_north_m_s": 0.02, "vel_east_m_s": 0.01, "vel_down_m_s": 0.0, "usable_for_triangulation": true, "t_gcs_rx_ms": 1776456987332}
{"run_id": "20260417_115945", "kraken_seq": 153, "telemetry_seq": 1033, "t_rx_ms": 1776453887118, "dt_ms": 33, "doa_deg": 197.0, "confidence_0_1": 0.8462861925363541, "lat_deg": 34.039667, "lon_deg": -117.81645669999999, "altitude_rel_ft": 0.0328, "yaw_deg": -33.0991, "pitch_deg": 10.2352, "roll_deg": -6.2497, "ground_speed_ft_s": 0.0734, "vel_north_m_s": 0.02, "vel_east_m_s": 0.01, "vel_down_m_s": 0.0, "usable_for_triangulation": true, "t_gcs_rx_ms": 1776456987663}
{"run_id": "20260417_115945", "kraken_seq": 154, "telemetry_seq": 1035, "t_rx_ms": 1776453887624, "dt_ms": -70, "doa_deg": 194.0, "confidence_0_1": 0.7570753246545792, "lat_deg": 34.0396674, "lon_deg": -117.8164565, "altitude_rel_ft": 0.1476, "yaw_deg": -32.8291, "pitch_deg": 10.2079, "roll_deg": -6.1958, "ground_speed_ft_s": 0.0734, "vel_north_m_s": 0.02, "vel_east_m_s": 0.01, "vel_down_m_s": 0.0, "usable_for_triangulation": true, "t_gcs_rx_ms": 1776456988154}
{"run_id": "20260417_115945", "kraken_seq": 155, "telemetry_seq": 1037, "t_rx_ms": 1776453888036, "dt_ms": -78, "doa_deg": 191.0, "confidence_0_1": 0.8212472498416901, "lat_deg": 34.0396674, "lon_deg": -117.8164565, "altitude_rel_ft": 0.1476, "yaw_deg": -32.8291, "pitch_deg": 10.2079, "roll_deg": -6.1958, "ground_speed_ft_s": 0.0734, "vel_north_m_s": 0.02, "vel_east_m_s": 0.01, "vel_down_m_s": 0.0, "usable_for_triangulation": true, "t_gcs_rx_ms": 1776456988527}
{"run_id": "20260417_115945", "kraken_seq": 156, "telemetry_seq": 1039, "t_rx_ms": 1776453888440, "dt_ms": -80, "doa_deg": 189.0, "confidence_0_1": 0.8834449201822281, "lat_deg": 34.0396676, "lon_deg": -117.8164563, "altitude_rel_ft": 0.2461, "yaw_deg": -32.5546, "pitch_deg": 10.2405, "roll_deg": -6.242, "ground_speed_ft_s": 0.0734, "vel_north_m_s": 0.02, "vel_east_m_s": 0.01, "vel_down_m_s": 0.0, "usable_for_triangulation": true, "t_gcs_rx_ms": 1776456989002}
{"run_id": "20260417_115945", "kraken_seq": 157, "telemetry_seq": 1042, "t_rx_ms": 1776453888947, "dt_ms": 19, "doa_deg": 188.0, "confidence_0_1": 0.8739142864942551, "lat_deg": 34.0396676, "lon_deg": -117.8164563, "altitude_rel_ft": 0.2461, "yaw_deg": -32.5546, "pitch_deg": 10.2405, "roll_deg": -6.242, "ground_speed_ft_s": 0.0734, "vel_north_m_s": 0.02, "vel_east_m_s": 0.01, "vel_down_m_s": 0.0, "usable_for_triangulation": true, "t_gcs_rx_ms": 1776456989403}
{"run_id": "20260417_115945", "kraken_seq": 158, "telemetry_seq": 1044, "t_rx_ms": 1776453889355, "dt_ms": 15, "doa_deg": 188.0, "confidence_0_1": 0.8690997213125229, "lat_deg": 34.0396675, "lon_deg": -117.8164563, "altitude_rel_ft": 0.2592, "yaw_deg": -32.2816, "pitch_deg": 10.2499, "roll_deg": -6.2233, "ground_speed_ft_s": 0.0, "vel_north_m_s": 0.0, "vel_east_m_s": 0.0, "vel_down_m_s": 0.0, "usable_for_triangulation": true, "t_gcs_rx_ms": 1776456989913}
{"run_id": "20260417_115945", "kraken_seq": 159, "telemetry_seq": 1046, "t_rx_ms": 1776453889758, "dt_ms": 16, "doa_deg": 188.0, "confidence_0_1": 0.8663851022720337, "lat_deg": 34.0396675, "lon_deg": -117.8164563, "altitude_rel_ft": 0.2592, "yaw_deg": -32.2816, "pitch_deg": 10.2499, "roll_deg": -6.2233, "ground_speed_ft_s": 0.0, "vel_north_m_s": 0.0, "vel_east_m_s": 0.0, "vel_down_m_s": 0.0, "usable_for_triangulation": true, "t_gcs_rx_ms": 1776456990338}
{"run_id": "20260417_115945", "kraken_seq": 161, "telemetry_seq": 1050, "t_rx_ms": 1776453890676, "dt_ms": -94, "doa_deg": 191.0, "confidence_0_1": 1.1090944707393646, "lat_deg": 34.0396675, "lon_deg": -117.81645619999999, "altitude_rel_ft": 0.3543, "yaw_deg": -31.9968, "pitch_deg": 10.2078, "roll_deg": -6.2582, "ground_speed_ft_s": 0.0, "vel_north_m_s": 0.0, "vel_east_m_s": 0.0, "vel_down_m_s": 0.01, "usable_for_triangulation": true, "t_gcs_rx_ms": 1776456991339}
{"run_id": "20260417_115945", "kraken_seq": 162, "telemetry_seq": 1053, "t_rx_ms": 1776453891102, "dt_ms": 86, "doa_deg": 192.0, "confidence_0_1": 1.0739848762750626, "lat_deg": 34.0396675, "lon_deg": -117.81645619999999, "altitude_rel_ft": 0.3543, "yaw_deg": -31.9968, "pitch_deg": 10.2078, "roll_deg": -6.2582, "ground_speed_ft_s": 0.0, "vel_north_m_s": 0.0, "vel_east_m_s": 0.0, "vel_down_m_s": 0.01, "usable_for_triangulation": true, "t_gcs_rx_ms": 1776456991660}
{"run_id": "20260417_115945", "kraken_seq": 163, "telemetry_seq": 1055, "t_rx_ms": 1776453891505, "dt_ms": 87, "doa_deg": 192.0, "confidence_0_1": 1.0837960988283157, "lat_deg": 34.0396676, "lon_deg": -117.81645599999999, "altitude_rel_ft": 0.3675, "yaw_deg": -31.7105, "pitch_deg": 10.2212, "roll_deg": -6.2231, "ground_speed_ft_s": 0.0, "vel_north_m_s": 0.0, "vel_east_m_s": 0.0, "vel_down_m_s": 0.0, "usable_for_triangulation": true, "t_gcs_rx_ms": 1776456992046}
{"run_id": "20260417_115945", "kraken_seq": 164, "telemetry_seq": 1057, "t_rx_ms": 1776453891913, "dt_ms": 82, "doa_deg": 191.0, "confidence_0_1": 1.1069118231534958, "lat_deg": 34.0396676, "lon_deg": -117.81645599999999, "altitude_rel_ft": 0.3675, "yaw_deg": -31.7105, "pitch_deg": 10.2212, "roll_deg": -6.2231, "ground_speed_ft_s": 0.0, "vel_north_m_s": 0.0, "vel_east_m_s": 0.0, "vel_down_m_s": 0.0, "usable_for_triangulation": true, "t_gcs_rx_ms": 1776456992481}
{"run_id": "20260417_115945", "kraken_seq": 165, "telemetry_seq": 1059, "t_rx_ms": 1776453892418, "dt_ms": -21, "doa_deg": 190.0, "confidence_0_1": 1.137281134724617, "lat_deg": 34.0396676, "lon_deg": -117.8164559, "altitude_rel_ft": 0.0164, "yaw_deg": -31.4549, "pitch_deg": 10.2124, "roll_deg": -6.2605, "ground_speed_ft_s": 0.0, "vel_north_m_s": 0.0, "vel_east_m_s": 0.0, "vel_down_m_s": 0.0, "usable_for_triangulation": true, "t_gcs_rx_ms": 1776456992970}
{"run_id": "20260417_115945", "kraken_seq": 166, "telemetry_seq": 1061, "t_rx_ms": 1776453892859, "dt_ms": -50, "doa_deg": 188.0, "confidence_0_1": 1.1076268553733826, "lat_deg": 34.0396676, "lon_deg": -117.8164559, "altitude_rel_ft": 0.0164, "yaw_deg": -31.4549, "pitch_deg": 10.2124, "roll_deg": -6.2605, "ground_speed_ft_s": 0.0, "vel_north_m_s": 0.0, "vel_east_m_s": 0.0, "vel_down_m_s": 0.0, "usable_for_triangulation": true, "t_gcs_rx_ms": 1776456993396}
{"run_id": "20260417_115945", "kraken_seq": 167, "telemetry_seq": 1063, "t_rx_ms": 1776453893264, "dt_ms": -52, "doa_deg": 189.0, "confidence_0_1": 1.0618877410888672, "lat_deg": 34.0396676, "lon_deg": -117.8164559, "altitude_rel_ft": 0.0164, "yaw_deg": -31.4549, "pitch_deg": 10.2124, "roll_deg": -6.2605, "ground_speed_ft_s": 0.0, "vel_north_m_s": 0.0, "vel_east_m_s": 0.0, "vel_down_m_s": 0.0, "usable_for_triangulation": true, "t_gcs_rx_ms": 1776456993806}
{"run_id": "20260417_115945", "kraken_seq": 168, "telemetry_seq": 1066, "t_rx_ms": 1776453893769, "dt_ms": 50, "doa_deg": 192.0, "confidence_0_1": 1.0225743055343628, "lat_deg": 34.039667699999995, "lon_deg": -117.81645569999999, "altitude_rel_ft": 0.0361, "yaw_deg": -31.1901, "pitch_deg": 10.2552, "roll_deg": -6.2425, "ground_speed_ft_s": 0.0, "vel_north_m_s": 0.0, "vel_east_m_s": 0.0, "vel_down_m_s": 0.0, "usable_for_triangulation": true, "t_gcs_rx_ms": 1776456994371}
{"run_id": "20260417_115945", "kraken_seq": 169, "telemetry_seq": 1068, "t_rx_ms": 1776453894172, "dt_ms": 55, "doa_deg": 194.0, "confidence_0_1": 1.0490050911903381, "lat_deg": 34.039667699999995, "lon_deg": -117.81645569999999, "altitude_rel_ft": 0.0361, "yaw_deg": -31.1901, "pitch_deg": 10.2552, "roll_deg": -6.2425, "ground_speed_ft_s": 0.0, "vel_north_m_s": 0.0, "vel_east_m_s": 0.0, "vel_down_m_s": 0.0, "usable_for_triangulation": true, "t_gcs_rx_ms": 1776456994732}
{"run_id": "20260417_115945", "kraken_seq": 170, "telemetry_seq": 1070, "t_rx_ms": 1776453894681, "dt_ms": -55, "doa_deg": 191.0, "confidence_0_1": 1.0697518289089203, "lat_deg": 34.0396679, "lon_deg": -117.8164556, "altitude_rel_ft": -0.0131, "yaw_deg": -30.8783, "pitch_deg": 10.239, "roll_deg": -6.2554, "ground_speed_ft_s": 0.0, "vel_north_m_s": 0.0, "vel_east_m_s": 0.0, "vel_down_m_s": 0.0, "usable_for_triangulation": true, "t_gcs_rx_ms": 1776456995225}
{"run_id": "20260417_115945", "kraken_seq": 171, "telemetry_seq": 1072, "t_rx_ms": 1776453895088, "dt_ms": -57, "doa_deg": 191.0, "confidence_0_1": 1.1077684164047241, "lat_deg": 34.0396679, "lon_deg": -117.8164556, "altitude_rel_ft": -0.0131, "yaw_deg": -30.8783, "pitch_deg": 10.239, "roll_deg": -6.2554, "ground_speed_ft_s": 0.0, "vel_north_m_s": 0.0, "vel_east_m_s": 0.0, "vel_down_m_s": 0.0, "usable_for_triangulation": true, "t_gcs_rx_ms": 1776456995671}
{"run_id": "20260417_115945", "kraken_seq": 172, "telemetry_seq": 1074, "t_rx_ms": 1776453895489, "dt_ms": -50, "doa_deg": 192.0, "confidence_0_1": 1.1673034727573395, "lat_deg": 34.0396682, "lon_deg": -117.81645549999999, "altitude_rel_ft": -0.0787, "yaw_deg": -30.6319, "pitch_deg": 10.2157, "roll_deg": -6.2044, "ground_speed_ft_s": 0.0328, "vel_north_m_s": 0.01, "vel_east_m_s": 0.0, "vel_down_m_s": 0.0, "usable_for_triangulation": true, "t_gcs_rx_ms": 1776456996054}
{"run_id": "20260417_115945", "kraken_seq": 173, "telemetry_seq": 1076, "t_rx_ms": 1776453895891, "dt_ms": -50, "doa_deg": 194.0, "confidence_0_1": 1.1292510479688644, "lat_deg": 34.0396682, "lon_deg": -117.81645549999999, "altitude_rel_ft": -0.0787, "yaw_deg": -30.6319, "pitch_deg": 10.2157, "roll_deg": -6.2044, "ground_speed_ft_s": 0.0328, "vel_north_m_s": 0.01, "vel_east_m_s": 0.0, "vel_down_m_s": 0.0, "usable_for_triangulation": true, "t_gcs_rx_ms": 1776456996481}
{"run_id": "20260417_115945", "kraken_seq": 174, "telemetry_seq": 1078, "t_rx_ms": 1776453896292, "dt_ms": -48, "doa_deg": 195.0, "confidence_0_1": 1.1047397553920746, "lat_deg": 34.0396684, "lon_deg": -117.8164553, "altitude_rel_ft": -0.1017, "yaw_deg": -30.3513, "pitch_deg": 10.2296, "roll_deg": -6.2702, "ground_speed_ft_s": 0.0328, "vel_north_m_s": 0.01, "vel_east_m_s": 0.0, "vel_down_m_s": 0.0, "usable_for_triangulation": true, "t_gcs_rx_ms": 1776456996859}
{"run_id": "20260417_115945", "kraken_seq": 175, "telemetry_seq": 1081, "t_rx_ms": 1776453896797, "dt_ms": 50, "doa_deg": 187.0, "confidence_0_1": 0.9220288693904877, "lat_deg": 34.0396684, "lon_deg": -117.8164553, "altitude_rel_ft": -0.1017, "yaw_deg": -30.3513, "pitch_deg": 10.2296, "roll_deg": -6.2702, "ground_speed_ft_s": 0.0328, "vel_north_m_s": 0.01, "vel_east_m_s": 0.0, "vel_down_m_s": 0.0, "usable_for_triangulation": true, "t_gcs_rx_ms": 1776456997367}
{"run_id": "20260417_115945", "kraken_seq": 176, "telemetry_seq": 1083, "t_rx_ms": 1776453897318, "dt_ms": -66, "doa_deg": 115.0, "confidence_0_1": 1.2841764092445374, "lat_deg": 34.0396686, "lon_deg": -117.8164551, "altitude_rel_ft": -0.0197, "yaw_deg": -30.071, "pitch_deg": 10.1894, "roll_deg": -6.2616, "ground_speed_ft_s": 0.0734, "vel_north_m_s": 0.02, "vel_east_m_s": 0.01, "vel_down_m_s": 0.02, "usable_for_triangulation": true, "t_gcs_rx_ms": 1776456997832}
{"run_id": "20260417_115945", "kraken_seq": 177, "telemetry_seq": 1085, "t_rx_ms": 1776453897723, "dt_ms": -58, "doa_deg": 114.0, "confidence_0_1": 1.4213404059410095, "lat_deg": 34.0396686, "lon_deg": -117.8164551, "altitude_rel_ft": -0.0197, "yaw_deg": -30.071, "pitch_deg": 10.1894, "roll_deg": -6.2616, "ground_speed_ft_s": 0.0734, "vel_north_m_s": 0.02, "vel_east_m_s": 0.01, "vel_down_m_s": 0.02, "usable_for_triangulation": true, "t_gcs_rx_ms": 1776456998300}
{"run_id": "20260417_115945", "kraken_seq": 178, "telemetry_seq": 1088, "t_rx_ms": 1776453898235, "dt_ms": 89, "doa_deg": 106.0, "confidence_0_1": 1.5256737172603607, "lat_deg": 34.0396687, "lon_deg": -117.81645479999999, "altitude_rel_ft": 0.0033, "yaw_deg": -29.8564, "pitch_deg": 10.2112, "roll_deg": -6.2397, "ground_speed_ft_s": 0.0734, "vel_north_m_s": 0.02, "vel_east_m_s": 0.01, "vel_down_m_s": 0.01, "usable_for_triangulation": true, "t_gcs_rx_ms": 1776456998734}
{"run_id": "20260417_115945", "kraken_seq": 179, "telemetry_seq": 1091, "t_rx_ms": 1776453898870, "dt_ms": 63, "doa_deg": 108.0, "confidence_0_1": 1.5946593880653381, "lat_deg": 34.0396687, "lon_deg": -117.81645479999999, "altitude_rel_ft": 0.0033, "yaw_deg": -29.8564, "pitch_deg": 10.2112, "roll_deg": -6.2397, "ground_speed_ft_s": 0.0734, "vel_north_m_s": 0.02, "vel_east_m_s": 0.01, "vel_down_m_s": 0.01, "usable_for_triangulation": true, "t_gcs_rx_ms": 1776456999229}
{"run_id": "20260417_115945", "kraken_seq": 180, "telemetry_seq": 1092, "t_rx_ms": 1776453899075, "dt_ms": 61, "doa_deg": 115.0, "confidence_0_1": 1.3687284290790558, "lat_deg": 34.0396687, "lon_deg": -117.81645479999999, "altitude_rel_ft": 0.0033, "yaw_deg": -29.8564, "pitch_deg": 10.2112, "roll_deg": -6.2397, "ground_speed_ft_s": 0.0734, "vel_north_m_s": 0.02, "vel_east_m_s": 0.01, "vel_down_m_s": 0.01, "usable_for_triangulation": true, "t_gcs_rx_ms": 1776456999686}
{"run_id": "20260417_115945", "kraken_seq": 181, "telemetry_seq": 1094, "t_rx_ms": 1776453899480, "dt_ms": 60, "doa_deg": 66.0, "confidence_0_1": 1.0630037635564804, "lat_deg": 34.0396688, "lon_deg": -117.81645479999999, "altitude_rel_ft": 0.1312, "yaw_deg": -29.5954, "pitch_deg": 10.2406, "roll_deg": -6.2041, "ground_speed_ft_s": 0.0464, "vel_north_m_s": 0.01, "vel_east_m_s": 0.01, "vel_down_m_s": 0.0, "usable_for_triangulation": true, "t_gcs_rx_ms": 1776457000050}
{"run_id": "20260417_115945", "kraken_seq": 182, "telemetry_seq": 1096, "t_rx_ms": 1776453899881, "dt_ms": 64, "doa_deg": 69.0, "confidence_0_1": 2.3995457589626312, "lat_deg": 34.0396688, "lon_deg": -117.81645479999999, "altitude_rel_ft": 0.1312, "yaw_deg": -29.5954, "pitch_deg": 10.2406, "roll_deg": -6.2041, "ground_speed_ft_s": 0.0464, "vel_north_m_s": 0.01, "vel_east_m_s": 0.01, "vel_down_m_s": 0.0, "usable_for_triangulation": true, "t_gcs_rx_ms": 1776457000511}
{"run_id": "20260417_115945", "kraken_seq": 183, "telemetry_seq": 1098, "t_rx_ms": 1776453900283, "dt_ms": 66, "doa_deg": 70.0, "confidence_0_1": 2.070939838886261, "lat_deg": 34.039668999999996, "lon_deg": -117.8164547, "altitude_rel_ft": 0.351, "yaw_deg": -29.3276, "pitch_deg": 10.1988, "roll_deg": -6.2902, "ground_speed_ft_s": 0.0328, "vel_north_m_s": 0.01, "vel_east_m_s": 0.0, "vel_down_m_s": 0.0, "usable_for_triangulation": true, "t_gcs_rx_ms": 1776457000860}
{"run_id": "20260417_115945", "kraken_seq": 184, "telemetry_seq": 1100, "t_rx_ms": 1776453900689, "dt_ms": 62, "doa_deg": 131.0, "confidence_0_1": 1.1133217066526413, "lat_deg": 34.039668999999996, "lon_deg": -117.8164547, "altitude_rel_ft": 0.351, "yaw_deg": -29.3276, "pitch_deg": 10.1988, "roll_deg": -6.2902, "ground_speed_ft_s": 0.0328, "vel_north_m_s": 0.01, "vel_east_m_s": 0.0, "vel_down_m_s": 0.0, "usable_for_triangulation": true, "t_gcs_rx_ms": 1776457001452}
{"run_id": "20260417_115945", "kraken_seq": 185, "telemetry_seq": 1102, "t_rx_ms": 1776453901093, "dt_ms": 60, "doa_deg": 150.0, "confidence_0_1": 0.968671441078186, "lat_deg": 34.039668999999996, "lon_deg": -117.8164547, "altitude_rel_ft": 0.351, "yaw_deg": -29.3276, "pitch_deg": 10.1988, "roll_deg": -6.2902, "ground_speed_ft_s": 0.0328, "vel_north_m_s": 0.01, "vel_east_m_s": 0.0, "vel_down_m_s": 0.0, "usable_for_triangulation": true, "t_gcs_rx_ms": 1776457001827}
{"run_id": "20260417_115945", "kraken_seq": 186, "telemetry_seq": 1104, "t_rx_ms": 1776453901596, "dt_ms": -41, "doa_deg": 142.0, "confidence_0_1": 0.9634596109390259, "lat_deg": 34.0396692, "lon_deg": -117.8164547, "altitude_rel_ft": 0.4528, "yaw_deg": -29.0616, "pitch_deg": 10.1818, "roll_deg": -6.246, "ground_speed_ft_s": 0.0656, "vel_north_m_s": 0.02, "vel_east_m_s": 0.0, "vel_down_m_s": 0.0, "usable_for_triangulation": true, "t_gcs_rx_ms": 1776457002352}
