{"run_id": "20260417_124456", "kraken_seq": 33, "telemetry_seq": 96, "t_rx_ms": 1776455324704, "dt_ms": -21, "doa_deg": 199.0, "confidence_0_1": 1.895432323217392, "lat_deg": 34.044208999999995, "lon_deg": -117.81412449999999, "altitude_rel_ft": -0.0164, "yaw_deg": 21.8012, "pitch_deg": 15.496, "roll_deg": 17.9463, "ground_speed_ft_s": 1.8235, "vel_north_m_s": -0.55, "vel_east_m_s": 0.08, "vel_down_m_s": 0.0, "usable_for_triangulation": true, "t_gcs_rx_ms": 1776458499163}
{"run_id": "20260417_124456", "kraken_seq": 35, "telemetry_seq": 98, "t_rx_ms": 1776455325113, "dt_ms": -26, "doa_deg": 212.0, "confidence_0_1": 1.9209030270576477, "lat_deg": 34.044208999999995, "lon_deg": -117.81412449999999, "altitude_rel_ft": -0.0164, "yaw_deg": 21.8012, "pitch_deg": 15.496, "roll_deg": 17.9463, "ground_speed_ft_s": 1.8235, "vel_north_m_s": -0.55, "vel_east_m_s": 0.08, "vel_down_m_s": 0.0, "usable_for_triangulation": true, "t_gcs_rx_ms": 1776458499971}
{"run_id": "20260417_124456", "kraken_seq": 36, "telemetry_seq": 101, "t_rx_ms": 1776455325731, "dt_ms": -36, "doa_deg": 222.0, "confidence_0_1": 2.114362120628357, "lat_deg": 34.044204799999996, "lon_deg": -117.8141194, "altitude_rel_ft": -0.0427, "yaw_deg": 20.6453, "pitch_deg": 15.3184, "roll_deg": 18.129, "ground_speed_ft_s": 1.8841, "vel_north_m_s": -0.57, "vel_east_m_s": 0.07, "vel_down_m_s": 0.02, "usable_for_triangulation": true, "t_gcs_rx_ms": 1776458500576}
{"run_id": "20260417_124456", "kraken_seq": 37, "telemetry_seq": 103, "t_rx_ms": 1776455326042, "dt_ms": 58, "doa_deg": 218.0, "confidence_0_1": 1.853644847869873, "lat_deg": 34.044204799999996, "lon_deg": -117.8141194, "altitude_rel_ft": -0.0427, "yaw_deg": 20.6453, "pitch_deg": 15.3184, "roll_deg": 18.129, "ground_speed_ft_s": 1.8841, "vel_north_m_s": -0.57, "vel_east_m_s": 0.07, "vel_down_m_s": 0.02, "usable_for_triangulation": true, "t_gcs_rx_ms": 1776458500725}
{"run_id": "20260417_124456", "kraken_seq": 38, "telemetry_seq": 105, "t_rx_ms": 1776455326447, "dt_ms": 58, "doa_deg": 206.0, "confidence_0_1": 0.9612290561199188, "lat_deg": 34.0442004, "lon_deg": -117.81411329999999, "altitude_rel_ft": -0.1378, "yaw_deg": 20.15, "pitch_deg": 15.324, "roll_deg": 19.0032, "ground_speed_ft_s": 1.862, "vel_north_m_s": -0.55, "vel_east_m_s": 0.14, "vel_down_m_s": 0.01, "usable_for_triangulation": true, "t_gcs_rx_ms": 1776458501150}
{"run_id": "20260417_124456", "kraken_seq": 39, "telemetry_seq": 107, "t_rx_ms": 1776455326855, "dt_ms": 52, "doa_deg": 268.0, "confidence_0_1": 1.2057861685752869, "lat_deg": 34.0442004, "lon_deg": -117.81411329999999, "altitude_rel_ft": -0.1378, "yaw_deg": 20.15, "pitch_deg": 15.324, "roll_deg": 19.0032, "ground_speed_ft_s": 1.862, "vel_north_m_s": -0.55, "vel_east_m_s": 0.14, "vel_down_m_s": 0.01, "usable_for_triangulation": true, "t_gcs_rx_ms": 1776458501595}
{"run_id": "20260417_124456", "kraken_seq": 42, "telemetry_seq": 114, "t_rx_ms": 1776455328279, "dt_ms": 49, "doa_deg": 228.0, "confidence_0_1": 1.8311195075511932, "lat_deg": 34.0441919, "lon_deg": -117.814099, "altitude_rel_ft": -0.1017, "yaw_deg": 18.3505, "pitch_deg": 14.7233, "roll_deg": 19.5968, "ground_speed_ft_s": 2.1288, "vel_north_m_s": -0.57, "vel_east_m_s": 0.31, "vel_down_m_s": 0.0, "usable_for_triangulation": true, "t_gcs_rx_ms": 1776458502902}
{"run_id": "20260417_124456", "kraken_seq": 43, "telemetry_seq": 116, "t_rx_ms": 1776455328687, "dt_ms": 44, "doa_deg": 201.0, "confidence_0_1": 2.0110298693180084, "lat_deg": 34.0441919, "lon_deg": -117.814099, "altitude_rel_ft": -0.1017, "yaw_deg": 18.3505, "pitch_deg": 14.7233, "roll_deg": 19.5968, "ground_speed_ft_s": 2.1288, "vel_north_m_s": -0.57, "vel_east_m_s": 0.31, "vel_down_m_s": 0.0, "usable_for_triangulation": true, "t_gcs_rx_ms": 1776458503377}
{"run_id": "20260417_124456", "kraken_seq": 44, "telemetry_seq": 118, "t_rx_ms": 1776455329191, "dt_ms": -55, "doa_deg": 210.0, "confidence_0_1": 1.8297092616558075, "lat_deg": 34.0441919, "lon_deg": -117.814099, "altitude_rel_ft": -0.1017, "yaw_deg": 18.3505, "pitch_deg": 14.7233, "roll_deg": 19.5968, "ground_speed_ft_s": 2.1288, "vel_north_m_s": -0.57, "vel_east_m_s": 0.31, "vel_down_m_s": 0.0, "usable_for_triangulation": true, "t_gcs_rx_ms": 1776458503700}
{"run_id": "20260417_124456", "kraken_seq": 45, "telemetry_seq": 120, "t_rx_ms": 1776455329593, "dt_ms": -53, "doa_deg": 222.0, "confidence_0_1": 1.8181636929512024, "lat_deg": 34.044185299999995, "lon_deg": -117.81409079999999, "altitude_rel_ft": -0.0328, "yaw_deg": 17.0492, "pitch_deg": 13.9581, "roll_deg": 19.3798, "ground_speed_ft_s": 3.5031, "vel_north_m_s": -0.99, "vel_east_m_s": 0.4, "vel_down_m_s": 0.02, "usable_for_triangulation": true, "t_gcs_rx_ms": 1776458504080}
{"run_id": "20260417_124456", "kraken_seq": 47, "telemetry_seq": 124, "t_rx_ms": 1776455330399, "dt_ms": -48, "doa_deg": 228.0, "confidence_0_1": 1.4674054086208344, "lat_deg": 34.044174, "lon_deg": -117.8140787, "altitude_rel_ft": 0.0459, "yaw_deg": 15.7971, "pitch_deg": 14.0229, "roll_deg": 18.7141, "ground_speed_ft_s": 5.9158, "vel_north_m_s": -1.67, "vel_east_m_s": 0.68, "vel_down_m_s": 0.0, "usable_for_triangulation": true, "t_gcs_rx_ms": 1776458504895}
{"run_id": "20260417_124456", "kraken_seq": 48, "telemetry_seq": 127, "t_rx_ms": 1776455331055, "dt_ms": -100, "doa_deg": 211.0, "confidence_0_1": 1.0503638535737991, "lat_deg": 34.044174, "lon_deg": -117.8140787, "altitude_rel_ft": 0.0459, "yaw_deg": 15.7971, "pitch_deg": 14.0229, "roll_deg": 18.7141, "ground_speed_ft_s": 5.9158, "vel_north_m_s": -1.67, "vel_east_m_s": 0.68, "vel_down_m_s": 0.0, "usable_for_triangulation": true, "t_gcs_rx_ms": 1776458505378}
{"run_id": "20260417_124456", "kraken_seq": 49, "telemetry_seq": 128, "t_rx_ms": 1776455331260, "dt_ms": -101, "doa_deg": 232.0, "confidence_0_1": 1.7745435237884521, "lat_deg": 34.044174, "lon_deg": -117.8140787, "altitude_rel_ft": 0.0459, "yaw_deg": 15.7971, "pitch_deg": 14.0229, "roll_deg": 18.7141, "ground_speed_ft_s": 5.9158, "vel_north_m_s": -1.67, "vel_east_m_s": 0.68, "vel_down_m_s": 0.0, "usable_for_triangulation": true, "t_gcs_rx_ms": 1776458505852}
{"run_id": "20260417_124456", "kraken_seq": 50, "telemetry_seq": 131, "t_rx_ms": 1776455331666, "dt_ms": 97, "doa_deg": 226.0, "confidence_0_1": 1.5379787981510162, "lat_deg": 34.044158599999996, "lon_deg": -117.8140593, "altitude_rel_ft": 0.1804, "yaw_deg": 13.2604, "pitch_deg": 13.9564, "roll_deg": 18.5237, "ground_speed_ft_s": 8.3372, "vel_north_m_s": -2.24, "vel_east_m_s": 1.2, "vel_down_m_s": -0.01, "usable_for_triangulation": true, "t_gcs_rx_ms": 1776458506132}
{"run_id": "20260417_124456", "kraken_seq": 52, "telemetry_seq": 135, "t_rx_ms": 1776455332588, "dt_ms": -18, "doa_deg": 228.0, "confidence_0_1": 1.629481464624405, "lat_deg": 34.044139099999995, "lon_deg": -117.8140313, "altitude_rel_ft": 0.3215, "yaw_deg": 11.8516, "pitch_deg": 13.0231, "roll_deg": 19.7552, "ground_speed_ft_s": 10.8024, "vel_north_m_s": -2.71, "vel_east_m_s": 1.87, "vel_down_m_s": -0.02, "usable_for_triangulation": true, "t_gcs_rx_ms": 1776458507030}
{"run_id": "20260417_124456", "kraken_seq": 53, "telemetry_seq": 138, "t_rx_ms": 1776455333093, "dt_ms": 83, "doa_deg": 229.0, "confidence_0_1": 1.583104431629181, "lat_deg": 34.044139099999995, "lon_deg": -117.8140313, "altitude_rel_ft": 0.3215, "yaw_deg": 11.8516, "pitch_deg": 13.0231, "roll_deg": 19.7552, "ground_speed_ft_s": 10.8024, "vel_north_m_s": -2.71, "vel_east_m_s": 1.87, "vel_down_m_s": -0.02, "usable_for_triangulation": true, "t_gcs_rx_ms": 1776458507604}
{"run_id": "20260417_124456", "kraken_seq": 54, "telemetry_seq": 139, "t_rx_ms": 1776455333412, "dt_ms": -36, "doa_deg": 227.0, "confidence_0_1": 1.7304962873458862, "lat_deg": 34.0441167, "lon_deg": -117.8139954, "altitude_rel_ft": 0.4495, "yaw_deg": 9.7544, "pitch_deg": 13.0396, "roll_deg": 17.627, "ground_speed_ft_s": 12.9743, "vel_north_m_s": -2.88, "vel_east_m_s": 2.71, "vel_down_m_s": -0.02, "usable_for_triangulation": true, "t_gcs_rx_ms": 1776458507832}
{"run_id": "20260417_124456", "kraken_seq": 55, "telemetry_seq": 142, "t_rx_ms": 1776455334022, "dt_ms": -37, "doa_deg": 226.0, "confidence_0_1": 1.6378690302371979, "lat_deg": 34.0441167, "lon_deg": -117.8139954, "altitude_rel_ft": 0.4495, "yaw_deg": 9.7544, "pitch_deg": 13.0396, "roll_deg": 17.627, "ground_speed_ft_s": 12.9743, "vel_north_m_s": -2.88, "vel_east_m_s": 2.71, "vel_down_m_s": -0.02, "usable_for_triangulation": true, "t_gcs_rx_ms": 1776458508227}
{"run_id": "20260417_124456", "kraken_seq": 59, "telemetry_seq": 150, "t_rx_ms": 1776455335653, "dt_ms": -53, "doa_deg": 228.0, "confidence_0_1": 1.8248733878135681, "lat_deg": 34.044067, "lon_deg": -117.8139083, "altitude_rel_ft": 0.1575, "yaw_deg": 5.7743, "pitch_deg": 12.2347, "roll_deg": 21.011, "ground_speed_ft_s": 15.9924, "vel_north_m_s": -2.87, "vel_east_m_s": 3.94, "vel_down_m_s": 0.0, "usable_for_triangulation": true, "t_gcs_rx_ms": 1776458509997}
{"run_id": "20260417_124456", "kraken_seq": 60, "telemetry_seq": 152, "t_rx_ms": 1776455336060, "dt_ms": -56, "doa_deg": 228.0, "confidence_0_1": 1.7701999843120575, "lat_deg": 34.044067, "lon_deg": -117.8139083, "altitude_rel_ft": 0.1575, "yaw_deg": 5.7743, "pitch_deg": 12.2347, "roll_deg": 21.011, "ground_speed_ft_s": 15.9924, "vel_north_m_s": -2.87, "vel_east_m_s": 3.94, "vel_down_m_s": 0.0, "usable_for_triangulation": true, "t_gcs_rx_ms": 1776458510609}
{"run_id": "20260417_124456", "kraken_seq": 63, "telemetry_seq": 159, "t_rx_ms": 1776455337487, "dt_ms": -62, "doa_deg": 226.0, "confidence_0_1": 1.5901926159858704, "lat_deg": 34.0440119, "lon_deg": -117.81381429999999, "altitude_rel_ft": -0.4364, "yaw_deg": 4.3596, "pitch_deg": 12.3474, "roll_deg": 22.2904, "ground_speed_ft_s": 17.9671, "vel_north_m_s": -2.76, "vel_east_m_s": 4.73, "vel_down_m_s": 0.12, "usable_for_triangulation": true, "t_gcs_rx_ms": 1776458511749}
{"run_id": "20260417_124456", "kraken_seq": 64, "telemetry_seq": 161, "t_rx_ms": 1776455337792, "dt_ms": 35, "doa_deg": 219.0, "confidence_0_1": 1.7978431284427643, "lat_deg": 34.0440119, "lon_deg": -117.81381429999999, "altitude_rel_ft": -0.4364, "yaw_deg": 4.3596, "pitch_deg": 12.3474, "roll_deg": 22.2904, "ground_speed_ft_s": 17.9671, "vel_north_m_s": -2.76, "vel_east_m_s": 4.73, "vel_down_m_s": 0.12, "usable_for_triangulation": true, "t_gcs_rx_ms": 1776458512239}
{"run_id": "20260417_124456", "kraken_seq": 65, "telemetry_seq": 165, "t_rx_ms": 1776455338620, "dt_ms": 14, "doa_deg": 222.0, "confidence_0_1": 1.729409396648407, "lat_deg": 34.0439824, "lon_deg": -117.81376709999999, "altitude_rel_ft": -0.6693, "yaw_deg": 3.5238, "pitch_deg": 12.8065, "roll_deg": 21.4122, "ground_speed_ft_s": 18.298, "vel_north_m_s": -2.84, "vel_east_m_s": 4.8, "vel_down_m_s": 0.11, "usable_for_triangulation": true, "t_gcs_rx_ms": 1776458512701}
{"run_id": "20260417_124456", "kraken_seq": 66, "telemetry_seq": 167, "t_rx_ms": 1776455339135, "dt_ms": -94, "doa_deg": 220.0, "confidence_0_1": 1.8521340191364288, "lat_deg": 34.0439824, "lon_deg": -117.81376709999999, "altitude_rel_ft": -0.6693, "yaw_deg": 3.5238, "pitch_deg": 12.8065, "roll_deg": 21.4122, "ground_speed_ft_s": 18.298, "vel_north_m_s": -2.84, "vel_east_m_s": 4.8, "vel_down_m_s": 0.11, "usable_for_triangulation": true, "t_gcs_rx_ms": 1776458513031}
{"run_id": "20260417_124456", "kraken_seq": 67, "telemetry_seq": 169, "t_rx_ms": 1776455339460, "dt_ms": -16, "doa_deg": 226.0, "confidence_0_1": 1.753992736339569, "lat_deg": 34.0439515, "lon_deg": -117.8137204, "altitude_rel_ft": -0.8333, "yaw_deg": 2.6826, "pitch_deg": 13.2892, "roll_deg": 20.7212, "ground_speed_ft_s": 18.4352, "vel_north_m_s": -2.97, "vel_east_m_s": 4.77, "vel_down_m_s": 0.09, "usable_for_triangulation": true, "t_gcs_rx_ms": 1776458513642}
{"run_id": "20260417_124456", "kraken_seq": 68, "telemetry_seq": 170, "t_rx_ms": 1776455339562, "dt_ms": 83, "doa_deg": 225.0, "confidence_0_1": 1.8207739293575287, "lat_deg": 34.0439515, "lon_deg": -117.8137204, "altitude_rel_ft": -0.8333, "yaw_deg": 2.6826, "pitch_deg": 13.2892, "roll_deg": 20.7212, "ground_speed_ft_s": 18.4352, "vel_north_m_s": -2.97, "vel_east_m_s": 4.77, "vel_down_m_s": 0.09, "usable_for_triangulation": true, "t_gcs_rx_ms": 1776458513898}
{"run_id": "20260417_124456", "kraken_seq": 69, "telemetry_seq": 173, "t_rx_ms": 1776455340175, "dt_ms": 82, "doa_deg": 222.0, "confidence_0_1": 1.7984512448310852, "lat_deg": 34.0439192, "lon_deg": -117.81367399999999, "altitude_rel_ft": -0.9285, "yaw_deg": 1.9052, "pitch_deg": 13.3097, "roll_deg": 21.215, "ground_speed_ft_s": 18.2625, "vel_north_m_s": -3.09, "vel_east_m_s": 4.63, "vel_down_m_s": 0.04, "usable_for_triangulation": true, "t_gcs_rx_ms": 1776458514483}
{"run_id": "20260417_124456", "kraken_seq": 71, "telemetry_seq": 177, "t_rx_ms": 1776455340996, "dt_ms": 70, "doa_deg": 222.0, "confidence_0_1": 1.7217202484607697, "lat_deg": 34.0439192, "lon_deg": -117.81367399999999, "altitude_rel_ft": -0.9285, "yaw_deg": 1.9052, "pitch_deg": 13.3097, "roll_deg": 21.215, "ground_speed_ft_s": 18.2625, "vel_north_m_s": -3.09, "vel_east_m_s": 4.63, "vel_down_m_s": 0.04, "usable_for_triangulation": true, "t_gcs_rx_ms": 1776458515165}
{"run_id": "20260417_124456", "kraken_seq": 72, "telemetry_seq": 178, "t_rx_ms": 1776455341306, "dt_ms": -34, "doa_deg": 220.0, "confidence_0_1": 1.8109317123889923, "lat_deg": 34.0438865, "lon_deg": -117.8136277, "altitude_rel_ft": -0.4134, "yaw_deg": 0.0411, "pitch_deg": 13.7734, "roll_deg": 18.6588, "ground_speed_ft_s": 18.32, "vel_north_m_s": -3.18, "vel_east_m_s": 4.59, "vel_down_m_s": 0.08, "usable_for_triangulation": true, "t_gcs_rx_ms": 1776458515663}
{"run_id": "20260417_124456", "kraken_seq": 73, "telemetry_seq": 180, "t_rx_ms": 1776455341716, "dt_ms": -42, "doa_deg": 222.0, "confidence_0_1": 1.9104509055614471, "lat_deg": 34.0438865, "lon_deg": -117.8136277, "altitude_rel_ft": -0.4134, "yaw_deg": 0.0411, "pitch_deg": 13.7734, "roll_deg": 18.6588, "ground_speed_ft_s": 18.32, "vel_north_m_s": -3.18, "vel_east_m_s": 4.59, "vel_down_m_s": 0.08, "usable_for_triangulation": true, "t_gcs_rx_ms": 1776458516008}
{"run_id": "20260417_124456", "kraken_seq": 74, "telemetry_seq": 183, "t_rx_ms": 1776455342322, "dt_ms": -41, "doa_deg": 225.0, "confidence_0_1": 1.8286465108394623, "lat_deg": 34.0438531, "lon_deg": -117.8135815, "altitude_rel_ft": -0.2461, "yaw_deg": -2.1344, "pitch_deg": 13.1791, "roll_deg": 19.5165, "ground_speed_ft_s": 18.6615, "vel_north_m_s": -3.4, "vel_east_m_s": 4.56, "vel_down_m_s": 0.08, "usable_for_triangulation": true, "t_gcs_rx_ms": 1776458516588}
{"run_id": "20260417_124456", "kraken_seq": 75, "telemetry_seq": 185, "t_rx_ms": 1776455342731, "dt_ms": -38, "doa_deg": 221.0, "confidence_0_1": 1.9386300444602966, "lat_deg": 34.0438531, "lon_deg": -117.8135815, "altitude_rel_ft": -0.2461, "yaw_deg": -2.1344, "pitch_deg": 13.1791, "roll_deg": 19.5165, "ground_speed_ft_s": 18.6615, "vel_north_m_s": -3.4, "vel_east_m_s": 4.56, "vel_down_m_s": 0.08, "usable_for_triangulation": true, "t_gcs_rx_ms": 1776458516808}
{"run_id": "20260417_124456", "kraken_seq": 76, "telemetry_seq": 187, "t_rx_ms": 1776455343168, "dt_ms": -73, "doa_deg": 215.0, "confidence_0_1": 1.821696013212204, "lat_deg": 34.0438531, "lon_deg": -117.8135815, "altitude_rel_ft": -0.2461, "yaw_deg": -2.1344, "pitch_deg": 13.1791, "roll_deg": 19.5165, "ground_speed_ft_s": 18.6615, "vel_north_m_s": -3.4, "vel_east_m_s": 4.56, "vel_down_m_s": 0.08, "usable_for_triangulation": true, "t_gcs_rx_ms": 1776458517183}
{"run_id": "20260417_124456", "kraken_seq": 77, "telemetry_seq": 189, "t_rx_ms": 1776455343595, "dt_ms": -96, "doa_deg": 223.0, "confidence_0_1": 1.878468543291092, "lat_deg": 34.043818699999996, "lon_deg": -117.81353419999999, "altitude_rel_ft": -0.5906, "yaw_deg": -1.3483, "pitch_deg": 12.8409, "roll_deg": 21.758, "ground_speed_ft_s": 19.1275, "vel_north_m_s": -3.67, "vel_east_m_s": 4.53, "vel_down_m_s": 0.14, "usable_for_triangulation": true, "t_gcs_rx_ms": 1776458517657}
{"run_id": "20260417_124456", "kraken_seq": 79, "telemetry_seq": 194, "t_rx_ms": 1776455344470, "dt_ms": 75, "doa_deg": 36.0, "confidence_0_1": 3.6684226989746094, "lat_deg": 34.0437832, "lon_deg": -117.8134863, "altitude_rel_ft": -0.8399, "yaw_deg": -4.9079, "pitch_deg": 11.3321, "roll_deg": 18.6571, "ground_speed_ft_s": 19.3622, "vel_north_m_s": -3.83, "vel_east_m_s": 4.49, "vel_down_m_s": 0.15, "usable_for_triangulation": true, "t_gcs_rx_ms": 1776458518591}
{"run_id": "20260417_124456", "kraken_seq": 80, "telemetry_seq": 197, "t_rx_ms": 1776455345086, "dt_ms": 65, "doa_deg": 194.0, "confidence_0_1": 3.6630359292030334, "lat_deg": 34.0437832, "lon_deg": -117.8134863, "altitude_rel_ft": -0.8399, "yaw_deg": -4.9079, "pitch_deg": 11.3321, "roll_deg": 18.6571, "ground_speed_ft_s": 19.3622, "vel_north_m_s": -3.83, "vel_east_m_s": 4.49, "vel_down_m_s": 0.15, "usable_for_triangulation": true, "t_gcs_rx_ms": 1776458518810}
{"run_id": "20260417_124456", "kraken_seq": 81, "telemetry_seq": 197, "t_rx_ms": 1776455345188, "dt_ms": -37, "doa_deg": 201.0, "confidence_0_1": 3.0218741297721863, "lat_deg": 34.0437832, "lon_deg": -117.8134863, "altitude_rel_ft": -0.8399, "yaw_deg": -4.9079, "pitch_deg": 11.3321, "roll_deg": 18.6571, "ground_speed_ft_s": 19.3622, "vel_north_m_s": -3.83, "vel_east_m_s": 4.49, "vel_down_m_s": 0.15, "usable_for_triangulation": true, "t_gcs_rx_ms": 1776458519234}
{"run_id": "20260417_124456", "kraken_seq": 82, "telemetry_seq": 201, "t_rx_ms": 1776455345911, "dt_ms": 50, "doa_deg": 201.0, "confidence_0_1": 3.6328160762786865, "lat_deg": 34.0437481, "lon_deg": -117.8134362, "altitude_rel_ft": -1.0925, "yaw_deg": -6.5383, "pitch_deg": 10.6343, "roll_deg": 16.8896, "ground_speed_ft_s": 19.5477, "vel_north_m_s": -3.75, "vel_east_m_s": 4.63, "vel_down_m_s": 0.13, "usable_for_triangulation": true, "t_gcs_rx_ms": 1776458519646}
{"run_id": "20260417_124456", "kraken_seq": 83, "telemetry_seq": 202, "t_rx_ms": 1776455346115, "dt_ms": 46, "doa_deg": 194.0, "confidence_0_1": 4.047080874443054, "lat_deg": 34.0437481, "lon_deg": -117.8134362, "altitude_rel_ft": -1.0925, "yaw_deg": -6.5383, "pitch_deg": 10.6343, "roll_deg": 16.8896, "ground_speed_ft_s": 19.5477, "vel_north_m_s": -3.75, "vel_east_m_s": 4.63, "vel_down_m_s": 0.13, "usable_for_triangulation": true, "t_gcs_rx_ms": 1776458520183}
{"run_id": "20260417_124456", "kraken_seq": 84, "telemetry_seq": 205, "t_rx_ms": 1776455346823, "dt_ms": -39, "doa_deg": 196.0, "confidence_0_1": 3.672283887863159, "lat_deg": 34.0437144, "lon_deg": -117.8133854, "altitude_rel_ft": -1.2238, "yaw_deg": -9.1637, "pitch_deg": 10.8839, "roll_deg": 13.2631, "ground_speed_ft_s": 19.5382, "vel_north_m_s": -3.67, "vel_east_m_s": 4.69, "vel_down_m_s": 0.1, "usable_for_triangulation": true, "t_gcs_rx_ms": 1776458520595}
{"run_id": "20260417_124456", "kraken_seq": 85, "telemetry_seq": 208, "t_rx_ms": 1776455347431, "dt_ms": -9, "doa_deg": 196.0, "confidence_0_1": 3.867802619934082, "lat_deg": 34.043681899999996, "lon_deg": -117.81333509999999, "altitude_rel_ft": -0.4757, "yaw_deg": -11.2213, "pitch_deg": 8.0246, "roll_deg": 12.9641, "ground_speed_ft_s": 19.1675, "vel_north_m_s": -3.55, "vel_east_m_s": 4.64, "vel_down_m_s": 0.08, "usable_for_triangulation": true, "t_gcs_rx_ms": 1776458520937}
{"run_id": "20260417_124456", "kraken_seq": 86, "telemetry_seq": 210, "t_rx_ms": 1776455347761, "dt_ms": 66, "doa_deg": 194.0, "confidence_0_1": 4.182639122009277, "lat_deg": 34.043681899999996, "lon_deg": -117.81333509999999, "altitude_rel_ft": -0.4757, "yaw_deg": -11.2213, "pitch_deg": 8.0246, "roll_deg": 12.9641, "ground_speed_ft_s": 19.1675, "vel_north_m_s": -3.55, "vel_east_m_s": 4.64, "vel_down_m_s": 0.08, "usable_for_triangulation": true, "t_gcs_rx_ms": 1776458521574}
{"run_id": "20260417_124456", "kraken_seq": 87, "telemetry_seq": 210, "t_rx_ms": 1776455347863, "dt_ms": -36, "doa_deg": 192.0, "confidence_0_1": 3.381354808807373, "lat_deg": 34.043681899999996, "lon_deg": -117.81333509999999, "altitude_rel_ft": -0.4757, "yaw_deg": -11.2213, "pitch_deg": 8.0246, "roll_deg": 12.9641, "ground_speed_ft_s": 19.1675, "vel_north_m_s": -3.55, "vel_east_m_s": 4.64, "vel_down_m_s": 0.08, "usable_for_triangulation": true, "t_gcs_rx_ms": 1776458521720}
{"run_id": "20260417_124456", "kraken_seq": 88, "telemetry_seq": 213, "t_rx_ms": 1776455348372, "dt_ms": 57, "doa_deg": 190.0, "confidence_0_1": 3.049764335155487, "lat_deg": 34.0436501, "lon_deg": -117.8132861, "altitude_rel_ft": -0.1115, "yaw_deg": -10.5511, "pitch_deg": 9.8397, "roll_deg": 16.1275, "ground_speed_ft_s": 18.6694, "vel_north_m_s": -3.47, "vel_east_m_s": 4.51, "vel_down_m_s": 0.13, "usable_for_triangulation": true, "t_gcs_rx_ms": 1776458522177}
{"run_id": "20260417_124456", "kraken_seq": 89, "telemetry_seq": 215, "t_rx_ms": 1776455348885, "dt_ms": -53, "doa_deg": 191.0, "confidence_0_1": 2.6591697335243225, "lat_deg": 34.0436501, "lon_deg": -117.8132861, "altitude_rel_ft": -0.1115, "yaw_deg": -10.5511, "pitch_deg": 9.8397, "roll_deg": 16.1275, "ground_speed_ft_s": 18.6694, "vel_north_m_s": -3.47, "vel_east_m_s": 4.51, "vel_down_m_s": 0.13, "usable_for_triangulation": true, "t_gcs_rx_ms": 1776458522628}
{"run_id": "20260417_124456", "kraken_seq": 90, "telemetry_seq": 217, "t_rx_ms": 1776455349189, "dt_ms": 47, "doa_deg": 190.0, "confidence_0_1": 2.858702540397644, "lat_deg": 34.043618599999995, "lon_deg": -117.8132382, "altitude_rel_ft": -0.4528, "yaw_deg": -11.4579, "pitch_deg": 10.4449, "roll_deg": 13.8624, "ground_speed_ft_s": 18.3598, "vel_north_m_s": -3.38, "vel_east_m_s": 4.46, "vel_down_m_s": 0.17, "usable_for_triangulation": true, "t_gcs_rx_ms": 1776458523230}
{"run_id": "20260417_124456", "kraken_seq": 91, "telemetry_seq": 220, "t_rx_ms": 1776455349793, "dt_ms": 47, "doa_deg": 191.0, "confidence_0_1": 2.9302072525024414, "lat_deg": 34.043618599999995, "lon_deg": -117.8132382, "altitude_rel_ft": -0.4528, "yaw_deg": -11.4579, "pitch_deg": 10.4449, "roll_deg": 13.8624, "ground_speed_ft_s": 18.3598, "vel_north_m_s": -3.38, "vel_east_m_s": 4.46, "vel_down_m_s": 0.17, "usable_for_triangulation": true, "t_gcs_rx_ms": 1776458523696}
{"run_id": "20260417_124456", "kraken_seq": 92, "telemetry_seq": 222, "t_rx_ms": 1776455350302, "dt_ms": -56, "doa_deg": 188.0, "confidence_0_1": 1.8650172650814056, "lat_deg": 34.043588299999996, "lon_deg": -117.8131916, "altitude_rel_ft": -0.6168, "yaw_deg": -12.2676, "pitch_deg": 10.5723, "roll_deg": 14.9677, "ground_speed_ft_s": 17.6785, "vel_north_m_s": -3.18, "vel_east_m_s": 4.35, "vel_down_m_s": 0.1, "usable_for_triangulation": true, "t_gcs_rx_ms": 1776458524050}
{"run_id": "20260417_124456", "kraken_seq": 93, "telemetry_seq": 223, "t_rx_ms": 1776455350504, "dt_ms": -55, "doa_deg": 190.0, "confidence_0_1": 1.5673916041851044, "lat_deg": 34.043588299999996, "lon_deg": -117.8131916, "altitude_rel_ft": -0.6168, "yaw_deg": -12.2676, "pitch_deg": 10.5723, "roll_deg": 14.9677, "ground_speed_ft_s": 17.6785, "vel_north_m_s": -3.18, "vel_east_m_s": 4.35, "vel_down_m_s": 0.1, "usable_for_triangulation": true, "t_gcs_rx_ms": 1776458524618}
{"run_id": "20260417_124456", "kraken_seq": 94, "telemetry_seq": 226, "t_rx_ms": 1776455351015, "dt_ms": 36, "doa_deg": 29.0, "confidence_0_1": 2.0156165957450867, "lat_deg": 34.043588299999996, "lon_deg": -117.8131916, "altitude_rel_ft": -0.6168, "yaw_deg": -12.2676, "pitch_deg": 10.5723, "roll_deg": 14.9677, "ground_speed_ft_s": 17.6785, "vel_north_m_s": -3.18, "vel_east_m_s": 4.35, "vel_down_m_s": 0.1, "usable_for_triangulation": true, "t_gcs_rx_ms": 1776458524854}
{"run_id": "20260417_124456", "kraken_seq": 95, "telemetry_seq": 228, "t_rx_ms": 1776455351423, "dt_ms": 37, "doa_deg": 30.0, "confidence_0_1": 1.3798913359642029, "lat_deg": 34.0435596, "lon_deg": -117.81314669999999, "altitude_rel_ft": -0.5184, "yaw_deg": -13.1581, "pitch_deg": 10.4176, "roll_deg": 16.1253, "ground_speed_ft_s": 16.5162, "vel_north_m_s": -2.99, "vel_east_m_s": 4.05, "vel_down_m_s": 0.05, "usable_for_triangulation": true, "t_gcs_rx_ms": 1776458525259}
{"run_id": "20260417_124456", "kraken_seq": 96, "telemetry_seq": 230, "t_rx_ms": 1776455351927, "dt_ms": -58, "doa_deg": 31.0, "confidence_0_1": 1.6567261517047882, "lat_deg": 34.0435596, "lon_deg": -117.81314669999999, "altitude_rel_ft": -0.5184, "yaw_deg": -13.1581, "pitch_deg": 10.4176, "roll_deg": 16.1253, "ground_speed_ft_s": 16.5162, "vel_north_m_s": -2.99, "vel_east_m_s": 4.05, "vel_down_m_s": 0.05, "usable_for_triangulation": true, "t_gcs_rx_ms": 1776458525733}
{"run_id": "20260417_124456", "kraken_seq": 97, "telemetry_seq": 233, "t_rx_ms": 1776455352435, "dt_ms": 37, "doa_deg": 195.0, "confidence_0_1": 1.8645469844341278, "lat_deg": 34.043532899999995, "lon_deg": -117.81310459999999, "altitude_rel_ft": -0.351, "yaw_deg": -13.536, "pitch_deg": 10.1363, "roll_deg": 16.3691, "ground_speed_ft_s": 15.3473, "vel_north_m_s": -2.7, "vel_east_m_s": 3.82, "vel_down_m_s": 0.07, "usable_for_triangulation": true, "t_gcs_rx_ms": 1776458526205}
{"run_id": "20260417_124456", "kraken_seq": 98, "telemetry_seq": 234, "t_rx_ms": 1776455352644, "dt_ms": 34, "doa_deg": 195.0, "confidence_0_1": 2.6515525579452515, "lat_deg": 34.043532899999995, "lon_deg": -117.81310459999999, "altitude_rel_ft": -0.351, "yaw_deg": -13.536, "pitch_deg": 10.1363, "roll_deg": 16.3691, "ground_speed_ft_s": 15.3473, "vel_north_m_s": -2.7, "vel_east_m_s": 3.82, "vel_down_m_s": 0.07, "usable_for_triangulation": true, "t_gcs_rx_ms": 1776458526588}
{"run_id": "20260417_124456", "kraken_seq": 99, "telemetry_seq": 236, "t_rx_ms": 1776455353153, "dt_ms": -48, "doa_deg": 195.0, "confidence_0_1": 2.5577890872955322, "lat_deg": 34.043532899999995, "lon_deg": -117.81310459999999, "altitude_rel_ft": -0.351, "yaw_deg": -13.536, "pitch_deg": 10.1363, "roll_deg": 16.3691, "ground_speed_ft_s": 15.3473, "vel_north_m_s": -2.7, "vel_east_m_s": 3.82, "vel_down_m_s": 0.07, "usable_for_triangulation": true, "t_gcs_rx_ms": 1776458526976}
{"run_id": "20260417_124456", "kraken_seq": 100, "telemetry_seq": 239, "t_rx_ms": 1776455353666, "dt_ms": 49, "doa_deg": 37.0, "confidence_0_1": 1.8335643410682678, "lat_deg": 34.0435084, "lon_deg": -117.8130662, "altitude_rel_ft": -0.1115, "yaw_deg": -14.256, "pitch_deg": 11.2028, "roll_deg": 15.2635, "ground_speed_ft_s": 14.0601, "vel_north_m_s": -2.43, "vel_east_m_s": 3.53, "vel_down_m_s": 0.09, "usable_for_triangulation": true, "t_gcs_rx_ms": 1776458527583}
{"run_id": "20260417_124456", "kraken_seq": 101, "telemetry_seq": 241, "t_rx_ms": 1776455354212, "dt_ms": -91, "doa_deg": 193.0, "confidence_0_1": 2.2400441765785217, "lat_deg": 34.0435084, "lon_deg": -117.8130662, "altitude_rel_ft": -0.1115, "yaw_deg": -14.256, "pitch_deg": 11.2028, "roll_deg": 15.2635, "ground_speed_ft_s": 14.0601, "vel_north_m_s": -2.43, "vel_east_m_s": 3.53, "vel_down_m_s": 0.09, "usable_for_triangulation": true, "t_gcs_rx_ms": 1776458527904}
{"run_id": "20260417_124456", "kraken_seq": 102, "telemetry_seq": 244, "t_rx_ms": 1776455354649, "dt_ms": 82, "doa_deg": 41.0, "confidence_0_1": 3.0688542127609253, "lat_deg": 34.043484899999996, "lon_deg": -117.8130314, "altitude_rel_ft": -0.21, "yaw_deg": -13.4885, "pitch_deg": 12.2047, "roll_deg": 12.9662, "ground_speed_ft_s": 13.24, "vel_north_m_s": -2.51, "vel_east_m_s": 3.16, "vel_down_m_s": 0.15, "usable_for_triangulation": true, "t_gcs_rx_ms": 1776458528387}
{"run_id": "20260417_124456", "kraken_seq": 103, "telemetry_seq": 245, "t_rx_ms": 1776455354853, "dt_ms": 78, "doa_deg": 195.0, "confidence_0_1": 1.8851259350776672, "lat_deg": 34.043484899999996, "lon_deg": -117.8130314, "altitude_rel_ft": -0.21, "yaw_deg": -13.4885, "pitch_deg": 12.2047, "roll_deg": 12.9662, "ground_speed_ft_s": 13.24, "vel_north_m_s": -2.51, "vel_east_m_s": 3.16, "vel_down_m_s": 0.15, "usable_for_triangulation": true, "t_gcs_rx_ms": 1776458528651}
{"run_id": "20260417_124456", "kraken_seq": 104, "telemetry_seq": 247, "t_rx_ms": 1776455355365, "dt_ms": -30, "doa_deg": 192.0, "confidence_0_1": 2.89928138256073, "lat_deg": 34.0434595, "lon_deg": -117.81300189999999, "altitude_rel_ft": -0.4987, "yaw_deg": -6.469, "pitch_deg": 12.4957, "roll_deg": 15.7528, "ground_speed_ft_s": 11.9967, "vel_north_m_s": -2.75, "vel_east_m_s": 2.41, "vel_down_m_s": 0.13, "usable_for_triangulation": true, "t_gcs_rx_ms": 1776458529129}
{"run_id": "20260417_124456", "kraken_seq": 105, "telemetry_seq": 251, "t_rx_ms": 1776455356075, "dt_ms": 67, "doa_deg": 193.0, "confidence_0_1": 3.3568090200424194, "lat_deg": 34.0434595, "lon_deg": -117.81300189999999, "altitude_rel_ft": -0.4987, "yaw_deg": -6.469, "pitch_deg": 12.4957, "roll_deg": 15.7528, "ground_speed_ft_s": 11.9967, "vel_north_m_s": -2.75, "vel_east_m_s": 2.41, "vel_down_m_s": 0.13, "usable_for_triangulation": true, "t_gcs_rx_ms": 1776458529603}
{"run_id": "20260417_124456", "kraken_seq": 106, "telemetry_seq": 252, "t_rx_ms": 1776455356277, "dt_ms": 67, "doa_deg": 38.0, "confidence_0_1": 2.2300343215465546, "lat_deg": 34.0434312, "lon_deg": -117.81298009999999, "altitude_rel_ft": -0.7087, "yaw_deg": 2.1261, "pitch_deg": 12.3327, "roll_deg": 16.121, "ground_speed_ft_s": 10.9319, "vel_north_m_s": -3.0, "vel_east_m_s": 1.45, "vel_down_m_s": 0.14, "usable_for_triangulation": true, "t_gcs_rx_ms": 1776458529929}
{"run_id": "20260417_124456", "kraken_seq": 107, "telemetry_seq": 253, "t_rx_ms": 1776455356583, "dt_ms": -37, "doa_deg": 192.0, "confidence_0_1": 3.0307161808013916, "lat_deg": 34.0434312, "lon_deg": -117.81298009999999, "altitude_rel_ft": -0.7087, "yaw_deg": 2.1261, "pitch_deg": 12.3327, "roll_deg": 16.121, "ground_speed_ft_s": 10.9319, "vel_north_m_s": -3.0, "vel_east_m_s": 1.45, "vel_down_m_s": 0.14, "usable_for_triangulation": true, "t_gcs_rx_ms": 1776458530416}
{"run_id": "20260417_124456", "kraken_seq": 108, "telemetry_seq": 256, "t_rx_ms": 1776455357089, "dt_ms": 62, "doa_deg": 184.0, "confidence_0_1": 5.387992262840271, "lat_deg": 34.0434312, "lon_deg": -117.81298009999999, "altitude_rel_ft": -0.7087, "yaw_deg": 2.1261, "pitch_deg": 12.3327, "roll_deg": 16.121, "ground_speed_ft_s": 10.9319, "vel_north_m_s": -3.0, "vel_east_m_s": 1.45, "vel_down_m_s": 0.14, "usable_for_triangulation": true, "t_gcs_rx_ms": 1776458530714}
{"run_id": "20260417_124456", "kraken_seq": 109, "telemetry_seq": 258, "t_rx_ms": 1776455357498, "dt_ms": 56, "doa_deg": 178.0, "confidence_0_1": 5.6150370836257935, "lat_deg": 34.0433993, "lon_deg": -117.8129676, "altitude_rel_ft": -0.9482, "yaw_deg": 15.6003, "pitch_deg": 12.5612, "roll_deg": 12.8143, "ground_speed_ft_s": 10.906, "vel_north_m_s": -3.28, "vel_east_m_s": 0.54, "vel_down_m_s": 0.19, "usable_for_triangulation": true, "t_gcs_rx_ms": 1776458531109}
{"run_id": "20260417_124456", "kraken_seq": 110, "telemetry_seq": 260, "t_rx_ms": 1776455358010, "dt_ms": -53, "doa_deg": 192.0, "confidence_0_1": 2.124112546443939, "lat_deg": 34.0433993, "lon_deg": -117.8129676, "altitude_rel_ft": -0.9482, "yaw_deg": 15.6003, "pitch_deg": 12.5612, "roll_deg": 12.8143, "ground_speed_ft_s": 10.906, "vel_north_m_s": -3.28, "vel_east_m_s": 0.54, "vel_down_m_s": 0.19, "usable_for_triangulation": true, "t_gcs_rx_ms": 1776458531591}
{"run_id": "20260417_124456", "kraken_seq": 111, "telemetry_seq": 262, "t_rx_ms": 1776455358420, "dt_ms": -55, "doa_deg": 174.0, "confidence_0_1": 3.573361039161682, "lat_deg": 34.043366, "lon_deg": -117.8129649, "altitude_rel_ft": -0.9547, "yaw_deg": 30.4703, "pitch_deg": 11.9574, "roll_deg": 16.6035, "ground_speed_ft_s": 10.7336, "vel_north_m_s": -3.23, "vel_east_m_s": -0.52, "vel_down_m_s": 0.09, "usable_for_triangulation": true, "t_gcs_rx_ms": 1776458531902}
{"run_id": "20260417_124456", "kraken_seq": 113, "telemetry_seq": 266, "t_rx_ms": 1776455359227, "dt_ms": -42, "doa_deg": 191.0, "confidence_0_1": 1.5865658223628998, "lat_deg": 34.043366, "lon_deg": -117.8129649, "altitude_rel_ft": -0.9547, "yaw_deg": 30.4703, "pitch_deg": 11.9574, "roll_deg": 16.6035, "ground_speed_ft_s": 10.7336, "vel_north_m_s": -3.23, "vel_east_m_s": -0.52, "vel_down_m_s": 0.09, "usable_for_triangulation": true, "t_gcs_rx_ms": 1776458532887}
{"run_id": "20260417_124456", "kraken_seq": 114, "telemetry_seq": 269, "t_rx_ms": 1776455359743, "dt_ms": 45, "doa_deg": 203.0, "confidence_0_1": 0.8989190310239792, "lat_deg": 34.0433334, "lon_deg": -117.812973, "altitude_rel_ft": -0.4134, "yaw_deg": 44.2704, "pitch_deg": 12.7038, "roll_deg": 15.7196, "ground_speed_ft_s": 11.4855, "vel_north_m_s": -3.23, "vel_east_m_s": -1.35, "vel_down_m_s": 0.12, "usable_for_triangulation": true, "t_gcs_rx_ms": 1776458533152}
{"run_id": "20260417_124456", "kraken_seq": 115, "telemetry_seq": 271, "t_rx_ms": 1776455360167, "dt_ms": 32, "doa_deg": 281.0, "confidence_0_1": 1.2562346458435059, "lat_deg": 34.043301, "lon_deg": -117.81299159999999, "altitude_rel_ft": -0.269, "yaw_deg": 55.7092, "pitch_deg": 12.9612, "roll_deg": 16.7899, "ground_speed_ft_s": 13.2764, "vel_north_m_s": -3.35, "vel_east_m_s": -2.27, "vel_down_m_s": 0.13, "usable_for_triangulation": true, "t_gcs_rx_ms": 1776458533716}
{"run_id": "20260417_124456", "kraken_seq": 116, "telemetry_seq": 273, "t_rx_ms": 1776455360584, "dt_ms": 21, "doa_deg": 284.0, "confidence_0_1": 1.4297394454479218, "lat_deg": 34.043301, "lon_deg": -117.81299159999999, "altitude_rel_ft": -0.269, "yaw_deg": 55.7092, "pitch_deg": 12.9612, "roll_deg": 16.7899, "ground_speed_ft_s": 13.2764, "vel_north_m_s": -3.35, "vel_east_m_s": -2.27, "vel_down_m_s": 0.13, "usable_for_triangulation": true, "t_gcs_rx_ms": 1776458534049}
{"run_id": "20260417_124456", "kraken_seq": 117, "telemetry_seq": 275, "t_rx_ms": 1776455360987, "dt_ms": 21, "doa_deg": 273.0, "confidence_0_1": 2.037670910358429, "lat_deg": 34.043301, "lon_deg": -117.81299159999999, "altitude_rel_ft": -0.269, "yaw_deg": 55.7092, "pitch_deg": 12.9612, "roll_deg": 16.7899, "ground_speed_ft_s": 13.2764, "vel_north_m_s": -3.35, "vel_east_m_s": -2.27, "vel_down_m_s": 0.13, "usable_for_triangulation": true, "t_gcs_rx_ms": 1776458534660}
{"run_id": "20260417_124456", "kraken_seq": 118, "telemetry_seq": 277, "t_rx_ms": 1776455361393, "dt_ms": 19, "doa_deg": 84.0, "confidence_0_1": 2.6637566089630127, "lat_deg": 34.0432669, "lon_deg": -117.81301819999999, "altitude_rel_ft": -0.4495, "yaw_deg": 60.4979, "pitch_deg": 11.5545, "roll_deg": 17.1922, "ground_speed_ft_s": 15.5588, "vel_north_m_s": -3.76, "vel_east_m_s": -2.89, "vel_down_m_s": 0.1, "usable_for_triangulation": true, "t_gcs_rx_ms": 1776458534872}
{"run_id": "20260417_124456", "kraken_seq": 119, "telemetry_seq": 279, "t_rx_ms": 1776455361913, "dt_ms": -78, "doa_deg": 91.0, "confidence_0_1": 1.5818224847316742, "lat_deg": 34.0432669, "lon_deg": -117.81301819999999, "altitude_rel_ft": -0.4495, "yaw_deg": 60.4979, "pitch_deg": 11.5545, "roll_deg": 17.1922, "ground_speed_ft_s": 15.5588, "vel_north_m_s": -3.76, "vel_east_m_s": -2.89, "vel_down_m_s": 0.1, "usable_for_triangulation": true, "t_gcs_rx_ms": 1776458535347}
{"run_id": "20260417_124456", "kraken_seq": 120, "telemetry_seq": 281, "t_rx_ms": 1776455362236, "dt_ms": 4, "doa_deg": 84.0, "confidence_0_1": 1.6868321597576141, "lat_deg": 34.0432306, "lon_deg": -117.81304999999999, "altitude_rel_ft": -0.4364, "yaw_deg": 62.1512, "pitch_deg": 10.0044, "roll_deg": 17.92, "ground_speed_ft_s": 17.6685, "vel_north_m_s": -4.16, "vel_east_m_s": -3.42, "vel_down_m_s": 0.1, "usable_for_triangulation": true, "t_gcs_rx_ms": 1776458535649}
{"run_id": "20260417_124456", "kraken_seq": 121, "telemetry_seq": 283, "t_rx_ms": 1776455362737, "dt_ms": -93, "doa_deg": 84.0, "confidence_0_1": 2.8223705291748047, "lat_deg": 34.0432306, "lon_deg": -117.81304999999999, "altitude_rel_ft": -0.4364, "yaw_deg": 62.1512, "pitch_deg": 10.0044, "roll_deg": 17.92, "ground_speed_ft_s": 17.6685, "vel_north_m_s": -4.16, "vel_east_m_s": -3.42, "vel_down_m_s": 0.1, "usable_for_triangulation": true, "t_gcs_rx_ms": 1776458536070}
{"run_id": "20260417_124456", "kraken_seq": 122, "telemetry_seq": 286, "t_rx_ms": 1776455363159, "dt_ms": 87, "doa_deg": 83.0, "confidence_0_1": 2.2210080921649933, "lat_deg": 34.0431914, "lon_deg": -117.8130868, "altitude_rel_ft": -0.4331, "yaw_deg": 62.3343, "pitch_deg": 9.6376, "roll_deg": 17.9642, "ground_speed_ft_s": 19.9197, "vel_north_m_s": -4.67, "vel_east_m_s": -3.88, "vel_down_m_s": 0.16, "usable_for_triangulation": true, "t_gcs_rx_ms": 1776458536656}
{"run_id": "20260417_124456", "kraken_seq": 123, "telemetry_seq": 288, "t_rx_ms": 1776455363668, "dt_ms": -19, "doa_deg": 81.0, "confidence_0_1": 2.5525715947151184, "lat_deg": 34.0431914, "lon_deg": -117.8130868, "altitude_rel_ft": -0.4331, "yaw_deg": 62.3343, "pitch_deg": 9.6376, "roll_deg": 17.9642, "ground_speed_ft_s": 19.9197, "vel_north_m_s": -4.67, "vel_east_m_s": -3.88, "vel_down_m_s": 0.16, "usable_for_triangulation": true, "t_gcs_rx_ms": 1776458536888}
{"run_id": "20260417_124456", "kraken_seq": 124, "telemetry_seq": 290, "t_rx_ms": 1776455364077, "dt_ms": -22, "doa_deg": 86.0, "confidence_0_1": 4.101635217666626, "lat_deg": 34.0431914, "lon_deg": -117.8130868, "altitude_rel_ft": -0.4331, "yaw_deg": 62.3343, "pitch_deg": 9.6376, "roll_deg": 17.9642, "ground_speed_ft_s": 19.9197, "vel_north_m_s": -4.67, "vel_east_m_s": -3.88, "vel_down_m_s": 0.16, "usable_for_triangulation": true, "t_gcs_rx_ms": 1776458537362}
{"run_id": "20260417_124456", "kraken_seq": 126, "telemetry_seq": 294, "t_rx_ms": 1776455364884, "dt_ms": -14, "doa_deg": 91.0, "confidence_0_1": 3.5982605814933777, "lat_deg": 34.0431485, "lon_deg": -117.81312709999999, "altitude_rel_ft": -0.4068, "yaw_deg": 61.4995, "pitch_deg": 10.5938, "roll_deg": 17.1097, "ground_speed_ft_s": 21.5615, "vel_north_m_s": -5.16, "vel_east_m_s": -4.07, "vel_down_m_s": 0.11, "usable_for_triangulation": true, "t_gcs_rx_ms": 1776458538119}
{"run_id": "20260417_124456", "kraken_seq": 127, "telemetry_seq": 297, "t_rx_ms": 1776455365511, "dt_ms": -38, "doa_deg": 92.0, "confidence_0_1": 3.1947103142738342, "lat_deg": 34.0431035, "lon_deg": -117.8131683, "altitude_rel_ft": -0.1739, "yaw_deg": 58.7007, "pitch_deg": 10.1809, "roll_deg": 18.166, "ground_speed_ft_s": 22.3381, "vel_north_m_s": -5.39, "vel_east_m_s": -4.16, "vel_down_m_s": 0.16, "usable_for_triangulation": true, "t_gcs_rx_ms": 1776458538659}
{"run_id": "20260417_124456", "kraken_seq": 128, "telemetry_seq": 299, "t_rx_ms": 1776455365815, "dt_ms": 63, "doa_deg": 93.0, "confidence_0_1": 3.0138516426086426, "lat_deg": 34.0431035, "lon_deg": -117.8131683, "altitude_rel_ft": -0.1739, "yaw_deg": 58.7007, "pitch_deg": 10.1809, "roll_deg": 18.166, "ground_speed_ft_s": 22.3381, "vel_north_m_s": -5.39, "vel_east_m_s": -4.16, "vel_down_m_s": 0.16, "usable_for_triangulation": true, "t_gcs_rx_ms": 1776458539015}
{"run_id": "20260417_124456", "kraken_seq": 130, "telemetry_seq": 305, "t_rx_ms": 1776455367057, "dt_ms": 34, "doa_deg": 88.0, "confidence_0_1": 3.6618009209632874, "lat_deg": 34.043057399999995, "lon_deg": -117.8132108, "altitude_rel_ft": -0.2526, "yaw_deg": 57.4357, "pitch_deg": 10.6708, "roll_deg": 16.7455, "ground_speed_ft_s": 22.8484, "vel_north_m_s": -5.54, "vel_east_m_s": -4.22, "vel_down_m_s": 0.14, "usable_for_triangulation": true, "t_gcs_rx_ms": 1776458539833}
{"run_id": "20260417_124456", "kraken_seq": 131, "telemetry_seq": 305, "t_rx_ms": 1776455367157, "dt_ms": -66, "doa_deg": 88.0, "confidence_0_1": 3.7377873063087463, "lat_deg": 34.043057399999995, "lon_deg": -117.8132108, "altitude_rel_ft": -0.2526, "yaw_deg": 57.4357, "pitch_deg": 10.6708, "roll_deg": 16.7455, "ground_speed_ft_s": 22.8484, "vel_north_m_s": -5.54, "vel_east_m_s": -4.22, "vel_down_m_s": 0.14, "usable_for_triangulation": true, "t_gcs_rx_ms": 1776458540191}
{"run_id": "20260417_124456", "kraken_seq": 132, "telemetry_seq": 308, "t_rx_ms": 1776455367668, "dt_ms": 32, "doa_deg": 88.0, "confidence_0_1": 3.776978850364685, "lat_deg": 34.0430109, "lon_deg": -117.8132541, "altitude_rel_ft": -0.456, "yaw_deg": 55.6589, "pitch_deg": 10.2759, "roll_deg": 17.5147, "ground_speed_ft_s": 22.4284, "vel_north_m_s": -5.44, "vel_east_m_s": -4.14, "vel_down_m_s": 0.15, "usable_for_triangulation": true, "t_gcs_rx_ms": 1776458540691}
{"run_id": "20260417_124456", "kraken_seq": 134, "telemetry_seq": 311, "t_rx_ms": 1776455368381, "dt_ms": -75, "doa_deg": 94.0, "confidence_0_1": 3.747089207172394, "lat_deg": 34.0429661, "lon_deg": -117.8132972, "altitude_rel_ft": -0.794, "yaw_deg": 54.4357, "pitch_deg": 9.7556, "roll_deg": 14.625, "ground_speed_ft_s": 21.4901, "vel_north_m_s": -5.21, "vel_east_m_s": -3.97, "vel_down_m_s": 0.11, "usable_for_triangulation": true, "t_gcs_rx_ms": 1776458541602}
{"run_id": "20260417_124456", "kraken_seq": 135, "telemetry_seq": 313, "t_rx_ms": 1776455368793, "dt_ms": -85, "doa_deg": 96.0, "confidence_0_1": 3.132280707359314, "lat_deg": 34.0429661, "lon_deg": -117.8132972, "altitude_rel_ft": -0.794, "yaw_deg": 54.4357, "pitch_deg": 9.7556, "roll_deg": 14.625, "ground_speed_ft_s": 21.4901, "vel_north_m_s": -5.21, "vel_east_m_s": -3.97, "vel_down_m_s": 0.11, "usable_for_triangulation": true, "t_gcs_rx_ms": 1776458541962}
{"run_id": "20260417_124456", "kraken_seq": 136, "telemetry_seq": 316, "t_rx_ms": 1776455369295, "dt_ms": 15, "doa_deg": 96.0, "confidence_0_1": 2.9012173414230347, "lat_deg": 34.0429233, "lon_deg": -117.8133385, "altitude_rel_ft": -1.1647, "yaw_deg": 53.5839, "pitch_deg": 9.2376, "roll_deg": 13.1926, "ground_speed_ft_s": 20.1841, "vel_north_m_s": -4.9, "vel_east_m_s": -3.72, "vel_down_m_s": 0.12, "usable_for_triangulation": true, "t_gcs_rx_ms": 1776458542244}
{"run_id": "20260417_124456", "kraken_seq": 138, "telemetry_seq": 320, "t_rx_ms": 1776455370219, "dt_ms": -99, "doa_deg": 99.0, "confidence_0_1": 2.473953366279602, "lat_deg": 34.0429233, "lon_deg": -117.8133385, "altitude_rel_ft": -1.1647, "yaw_deg": 53.5839, "pitch_deg": 9.2376, "roll_deg": 13.1926, "ground_speed_ft_s": 20.1841, "vel_north_m_s": -4.9, "vel_east_m_s": -3.72, "vel_down_m_s": 0.12, "usable_for_triangulation": true, "t_gcs_rx_ms": 1776458543147}
{"run_id": "20260417_124456", "kraken_seq": 140, "telemetry_seq": 324, "t_rx_ms": 1776455371026, "dt_ms": -100, "doa_deg": 80.0, "confidence_0_1": 1.2629084289073944, "lat_deg": 34.042883599999996, "lon_deg": -117.8133787, "altitude_rel_ft": -1.5157, "yaw_deg": 53.9372, "pitch_deg": 8.1811, "roll_deg": 14.4246, "ground_speed_ft_s": 18.7981, "vel_north_m_s": -4.4, "vel_east_m_s": -3.67, "vel_down_m_s": 0.12, "usable_for_triangulation": true, "t_gcs_rx_ms": 1776458543945}
{"run_id": "20260417_124456", "kraken_seq": 141, "telemetry_seq": 326, "t_rx_ms": 1776455371430, "dt_ms": -100, "doa_deg": 75.0, "confidence_0_1": 2.631773352622986, "lat_deg": 34.042846499999996, "lon_deg": -117.8134183, "altitude_rel_ft": -0.7251, "yaw_deg": 51.893, "pitch_deg": 8.0505, "roll_deg": 14.5571, "ground_speed_ft_s": 18.2775, "vel_north_m_s": -4.26, "vel_east_m_s": -3.59, "vel_down_m_s": 0.13, "usable_for_triangulation": true, "t_gcs_rx_ms": 1776458544587}
{"run_id": "20260417_124456", "kraken_seq": 142, "telemetry_seq": 328, "t_rx_ms": 1776455371834, "dt_ms": -101, "doa_deg": 87.0, "confidence_0_1": 3.809308409690857, "lat_deg": 34.042846499999996, "lon_deg": -117.8134183, "altitude_rel_ft": -0.7251, "yaw_deg": 51.893, "pitch_deg": 8.0505, "roll_deg": 14.5571, "ground_speed_ft_s": 18.2775, "vel_north_m_s": -4.26, "vel_east_m_s": -3.59, "vel_down_m_s": 0.13, "usable_for_triangulation": true, "t_gcs_rx_ms": 1776458544920}
{"run_id": "20260417_124456", "kraken_seq": 143, "telemetry_seq": 333, "t_rx_ms": 1776455372649, "dt_ms": 100, "doa_deg": 89.0, "confidence_0_1": 3.1334713101387024, "lat_deg": 34.0428089, "lon_deg": -117.8134571, "altitude_rel_ft": -0.4823, "yaw_deg": 48.4548, "pitch_deg": 7.5497, "roll_deg": 15.3419, "ground_speed_ft_s": 18.5126, "vel_north_m_s": -4.32, "vel_east_m_s": -3.63, "vel_down_m_s": 0.17, "usable_for_triangulation": true, "t_gcs_rx_ms": 1776458545186}
{"run_id": "20260417_124456", "kraken_seq": 145, "telemetry_seq": 336, "t_rx_ms": 1776455373260, "dt_ms": 93, "doa_deg": 81.0, "confidence_0_1": 1.986222118139267, "lat_deg": 34.0427683, "lon_deg": -117.8134972, "altitude_rel_ft": -0.8071, "yaw_deg": 47.4319, "pitch_deg": 7.8233, "roll_deg": 14.9976, "ground_speed_ft_s": 19.6145, "vel_north_m_s": -4.64, "vel_east_m_s": -3.77, "vel_down_m_s": 0.12, "usable_for_triangulation": true, "t_gcs_rx_ms": 1776458546077}
{"run_id": "20260417_124456", "kraken_seq": 148, "telemetry_seq": 343, "t_rx_ms": 1776455374688, "dt_ms": 77, "doa_deg": 84.0, "confidence_0_1": 2.22507581114769, "lat_deg": 34.0427258, "lon_deg": -117.8135373, "altitude_rel_ft": -0.8661, "yaw_deg": 45.4617, "pitch_deg": 7.9486, "roll_deg": 14.8498, "ground_speed_ft_s": 19.7984, "vel_north_m_s": -4.72, "vel_east_m_s": -3.76, "vel_down_m_s": 0.13, "usable_for_triangulation": true, "t_gcs_rx_ms": 1776458547380}
{"run_id": "20260417_124456", "kraken_seq": 149, "telemetry_seq": 344, "t_rx_ms": 1776455374990, "dt_ms": -24, "doa_deg": 84.0, "confidence_0_1": 2.4601176381111145, "lat_deg": 34.0427258, "lon_deg": -117.8135373, "altitude_rel_ft": -0.8661, "yaw_deg": 45.4617, "pitch_deg": 7.9486, "roll_deg": 14.8498, "ground_speed_ft_s": 19.7984, "vel_north_m_s": -4.72, "vel_east_m_s": -3.76, "vel_down_m_s": 0.13, "usable_for_triangulation": true, "t_gcs_rx_ms": 1776458547849}
{"run_id": "20260417_124456", "kraken_seq": 150, "telemetry_seq": 348, "t_rx_ms": 1776455375699, "dt_ms": 91, "doa_deg": 87.0, "confidence_0_1": 2.255142331123352, "lat_deg": 34.0426825, "lon_deg": -117.81357759999999, "altitude_rel_ft": -1.1056, "yaw_deg": 43.9059, "pitch_deg": 8.2497, "roll_deg": 14.3258, "ground_speed_ft_s": 19.9216, "vel_north_m_s": -4.76, "vel_east_m_s": -3.77, "vel_down_m_s": 0.18, "usable_for_triangulation": true, "t_gcs_rx_ms": 1776458548119}
{"run_id": "20260417_124456", "kraken_seq": 152, "telemetry_seq": 351, "t_rx_ms": 1776455376407, "dt_ms": -12, "doa_deg": 85.0, "confidence_0_1": 2.274632900953293, "lat_deg": 34.0426395, "lon_deg": -117.8136179, "altitude_rel_ft": -1.2795, "yaw_deg": 42.9815, "pitch_deg": 8.2615, "roll_deg": 14.2392, "ground_speed_ft_s": 19.6549, "vel_north_m_s": -4.68, "vel_east_m_s": -3.74, "vel_down_m_s": 0.14, "usable_for_triangulation": true, "t_gcs_rx_ms": 1776458549037}
{"run_id": "20260417_124456", "kraken_seq": 153, "telemetry_seq": 353, "t_rx_ms": 1776455376809, "dt_ms": -9, "doa_deg": 90.0, "confidence_0_1": 2.5552085041999817, "lat_deg": 34.0426395, "lon_deg": -117.8136179, "altitude_rel_ft": -1.2795, "yaw_deg": 42.9815, "pitch_deg": 8.2615, "roll_deg": 14.2392, "ground_speed_ft_s": 19.6549, "vel_north_m_s": -4.68, "vel_east_m_s": -3.74, "vel_down_m_s": 0.14, "usable_for_triangulation": true, "t_gcs_rx_ms": 1776458549627}
{"run_id": "20260417_124456", "kraken_seq": 154, "telemetry_seq": 355, "t_rx_ms": 1776455377112, "dt_ms": 91, "doa_deg": 87.0, "confidence_0_1": 1.9846327602863312, "lat_deg": 34.042597199999996, "lon_deg": -117.8136578, "altitude_rel_ft": -0.5479, "yaw_deg": 42.1707, "pitch_deg": 7.9594, "roll_deg": 15.3041, "ground_speed_ft_s": 19.4654, "vel_north_m_s": -4.63, "vel_east_m_s": -3.71, "vel_down_m_s": 0.13, "usable_for_triangulation": true, "t_gcs_rx_ms": 1776458549845}
{"run_id": "20260417_124456", "kraken_seq": 155, "telemetry_seq": 357, "t_rx_ms": 1776455377518, "dt_ms": 88, "doa_deg": 87.0, "confidence_0_1": 2.354724109172821, "lat_deg": 34.042597199999996, "lon_deg": -117.8136578, "altitude_rel_ft": -0.5479, "yaw_deg": 42.1707, "pitch_deg": 7.9594, "roll_deg": 15.3041, "ground_speed_ft_s": 19.4654, "vel_north_m_s": -4.63, "vel_east_m_s": -3.71, "vel_down_m_s": 0.13, "usable_for_triangulation": true, "t_gcs_rx_ms": 1776458550252}
{"run_id": "20260417_124456", "kraken_seq": 156, "telemetry_seq": 361, "t_rx_ms": 1776455378331, "dt_ms": 80, "doa_deg": 84.0, "confidence_0_1": 2.4799345433712006, "lat_deg": 34.0425544, "lon_deg": -117.8136981, "altitude_rel_ft": -0.3675, "yaw_deg": 40.5111, "pitch_deg": 7.6014, "roll_deg": 16.0076, "ground_speed_ft_s": 19.8037, "vel_north_m_s": -4.73, "vel_east_m_s": -3.75, "vel_down_m_s": 0.13, "usable_for_triangulation": true, "t_gcs_rx_ms": 1776458550670}
{"run_id": "20260417_124456", "kraken_seq": 157, "telemetry_seq": 362, "t_rx_ms": 1776455378533, "dt_ms": 79, "doa_deg": 86.0, "confidence_0_1": 2.797001898288727, "lat_deg": 34.0425544, "lon_deg": -117.8136981, "altitude_rel_ft": -0.3675, "yaw_deg": 40.5111, "pitch_deg": 7.6014, "roll_deg": 16.0076, "ground_speed_ft_s": 19.8037, "vel_north_m_s": -4.73, "vel_east_m_s": -3.75, "vel_down_m_s": 0.13, "usable_for_triangulation": true, "t_gcs_rx_ms": 1776458551395}
{"run_id": "20260417_124456", "kraken_seq": 158, "telemetry_seq": 364, "t_rx_ms": 1776455378962, "dt_ms": 54, "doa_deg": 86.0, "confidence_0_1": 2.108922451734543, "lat_deg": 34.0425544, "lon_deg": -117.8136981, "altitude_rel_ft": -0.3675, "yaw_deg": 40.5111, "pitch_deg": 7.6014, "roll_deg": 16.0076, "ground_speed_ft_s": 19.8037, "vel_north_m_s": -4.73, "vel_east_m_s": -3.75, "vel_down_m_s": 0.13, "usable_for_triangulation": true, "t_gcs_rx_ms": 1776458551653}
{"run_id": "20260417_124456", "kraken_seq": 159, "telemetry_seq": 366, "t_rx_ms": 1776455379371, "dt_ms": 49, "doa_deg": 85.0, "confidence_0_1": 2.2811658680438995, "lat_deg": 34.042510799999995, "lon_deg": -117.813739, "altitude_rel_ft": -0.7316, "yaw_deg": 39.3373, "pitch_deg": 8.3175, "roll_deg": 16.1706, "ground_speed_ft_s": 20.0044, "vel_north_m_s": -4.8, "vel_east_m_s": -3.76, "vel_down_m_s": 0.16, "usable_for_triangulation": true, "t_gcs_rx_ms": 1776458552159}
{"run_id": "20260417_124456", "kraken_seq": 160, "telemetry_seq": 368, "t_rx_ms": 1776455379773, "dt_ms": 50, "doa_deg": 86.0, "confidence_0_1": 2.172955274581909, "lat_deg": 34.042510799999995, "lon_deg": -117.813739, "altitude_rel_ft": -0.7316, "yaw_deg": 39.3373, "pitch_deg": 8.3175, "roll_deg": 16.1706, "ground_speed_ft_s": 20.0044, "vel_north_m_s": -4.8, "vel_east_m_s": -3.76, "vel_down_m_s": 0.16, "usable_for_triangulation": true, "t_gcs_rx_ms": 1776458552615}
{"run_id": "20260417_124456", "kraken_seq": 161, "telemetry_seq": 370, "t_rx_ms": 1776455380177, "dt_ms": 49, "doa_deg": 85.0, "confidence_0_1": 1.920570433139801, "lat_deg": 34.0424674, "lon_deg": -117.8137799, "altitude_rel_ft": -0.9121, "yaw_deg": 38.1529, "pitch_deg": 7.8946, "roll_deg": 15.9567, "ground_speed_ft_s": 19.7943, "vel_north_m_s": -4.75, "vel_east_m_s": -3.72, "vel_down_m_s": 0.11, "usable_for_triangulation": true, "t_gcs_rx_ms": 1776458552946}
{"run_id": "20260417_124456", "kraken_seq": 162, "telemetry_seq": 373, "t_rx_ms": 1776455380803, "dt_ms": 25, "doa_deg": 84.0, "confidence_0_1": 2.2834937274456024, "lat_deg": 34.0424674, "lon_deg": -117.8137799, "altitude_rel_ft": -0.9121, "yaw_deg": 38.1529, "pitch_deg": 7.8946, "roll_deg": 15.9567, "ground_speed_ft_s": 19.7943, "vel_north_m_s": -4.75, "vel_east_m_s": -3.72, "vel_down_m_s": 0.11, "usable_for_triangulation": true, "t_gcs_rx_ms": 1776458553417}
{"run_id": "20260417_124456", "kraken_seq": 163, "telemetry_seq": 374, "t_rx_ms": 1776455381108, "dt_ms": -78, "doa_deg": 88.0, "confidence_0_1": 2.7569717168807983, "lat_deg": 34.0424674, "lon_deg": -117.8137799, "altitude_rel_ft": -0.9121, "yaw_deg": 38.1529, "pitch_deg": 7.8946, "roll_deg": 15.9567, "ground_speed_ft_s": 19.7943, "vel_north_m_s": -4.75, "vel_east_m_s": -3.72, "vel_down_m_s": 0.11, "usable_for_triangulation": true, "t_gcs_rx_ms": 1776458553711}
{"run_id": "20260417_124456", "kraken_seq": 164, "telemetry_seq": 376, "t_rx_ms": 1776455381525, "dt_ms": -89, "doa_deg": 87.0, "confidence_0_1": 2.3439519107341766, "lat_deg": 34.0424249, "lon_deg": -117.81381999999999, "altitude_rel_ft": -1.0597, "yaw_deg": 37.0319, "pitch_deg": 8.1183, "roll_deg": 16.504, "ground_speed_ft_s": 19.4777, "vel_north_m_s": -4.69, "vel_east_m_s": -3.64, "vel_down_m_s": 0.12, "usable_for_triangulation": true, "t_gcs_rx_ms": 1776458554119}
{"run_id": "20260417_124456", "kraken_seq": 165, "telemetry_seq": 380, "t_rx_ms": 1776455382236, "dt_ms": 7, "doa_deg": 84.0, "confidence_0_1": 2.031947523355484, "lat_deg": 34.0423827, "lon_deg": -117.81385929999999, "altitude_rel_ft": -1.5551, "yaw_deg": 36.4124, "pitch_deg": 8.2637, "roll_deg": 17.6078, "ground_speed_ft_s": 19.1641, "vel_north_m_s": -4.6, "vel_east_m_s": -3.6, "vel_down_m_s": 0.12, "usable_for_triangulation": true, "t_gcs_rx_ms": 1776458554694}
{"run_id": "20260417_124456", "kraken_seq": 166, "telemetry_seq": 381, "t_rx_ms": 1776455382438, "dt_ms": 7, "doa_deg": 85.0, "confidence_0_1": 2.115328758955002, "lat_deg": 34.0423827, "lon_deg": -117.81385929999999, "altitude_rel_ft": -1.5551, "yaw_deg": 36.4124, "pitch_deg": 8.2637, "roll_deg": 17.6078, "ground_speed_ft_s": 19.1641, "vel_north_m_s": -4.6, "vel_east_m_s": -3.6, "vel_down_m_s": 0.12, "usable_for_triangulation": true, "t_gcs_rx_ms": 1776458555062}
{"run_id": "20260417_124456", "kraken_seq": 167, "telemetry_seq": 383, "t_rx_ms": 1776455382948, "dt_ms": -102, "doa_deg": 85.0, "confidence_0_1": 2.309104800224304, "lat_deg": 34.0423827, "lon_deg": -117.81385929999999, "altitude_rel_ft": -1.5551, "yaw_deg": 36.4124, "pitch_deg": 8.2637, "roll_deg": 17.6078, "ground_speed_ft_s": 19.1641, "vel_north_m_s": -4.6, "vel_east_m_s": -3.6, "vel_down_m_s": 0.12, "usable_for_triangulation": true, "t_gcs_rx_ms": 1776458555558}
{"run_id": "20260417_124456", "kraken_seq": 168, "telemetry_seq": 386, "t_rx_ms": 1776455383353, "dt_ms": 95, "doa_deg": 85.0, "confidence_0_1": 1.9095851480960846, "lat_deg": 34.0423419, "lon_deg": -117.8138979, "altitude_rel_ft": -0.8169, "yaw_deg": 35.2701, "pitch_deg": 7.9901, "roll_deg": 18.6961, "ground_speed_ft_s": 18.4768, "vel_north_m_s": -4.42, "vel_east_m_s": -3.49, "vel_down_m_s": 0.13, "usable_for_triangulation": true, "t_gcs_rx_ms": 1776458555870}
{"run_id": "20260417_124456", "kraken_seq": 169, "telemetry_seq": 387, "t_rx_ms": 1776455383656, "dt_ms": -5, "doa_deg": 83.0, "confidence_0_1": 2.3566026985645294, "lat_deg": 34.0423419, "lon_deg": -117.8138979, "altitude_rel_ft": -0.8169, "yaw_deg": 35.2701, "pitch_deg": 7.9901, "roll_deg": 18.6961, "ground_speed_ft_s": 18.4768, "vel_north_m_s": -4.42, "vel_east_m_s": -3.49, "vel_down_m_s": 0.13, "usable_for_triangulation": true, "t_gcs_rx_ms": 1776458556249}
{"run_id": "20260417_124456", "kraken_seq": 170, "telemetry_seq": 390, "t_rx_ms": 1776455384160, "dt_ms": 94, "doa_deg": 80.0, "confidence_0_1": 2.2003503143787384, "lat_deg": 34.0423025, "lon_deg": -117.81393539999999, "altitude_rel_ft": -0.3215, "yaw_deg": 34.3602, "pitch_deg": 7.5651, "roll_deg": 19.6878, "ground_speed_ft_s": 18.0, "vel_north_m_s": -4.29, "vel_east_m_s": -3.42, "vel_down_m_s": 0.12, "usable_for_triangulation": true, "t_gcs_rx_ms": 1776458556725}
{"run_id": "20260417_124456", "kraken_seq": 171, "telemetry_seq": 392, "t_rx_ms": 1776455384662, "dt_ms": -5, "doa_deg": 83.0, "confidence_0_1": 2.6388955116271973, "lat_deg": 34.0423025, "lon_deg": -117.81393539999999, "altitude_rel_ft": -0.3215, "yaw_deg": 34.3602, "pitch_deg": 7.5651, "roll_deg": 19.6878, "ground_speed_ft_s": 18.0, "vel_north_m_s": -4.29, "vel_east_m_s": -3.42, "vel_down_m_s": 0.12, "usable_for_triangulation": true, "t_gcs_rx_ms": 1776458557061}
{"run_id": "20260417_124456", "kraken_seq": 172, "telemetry_seq": 394, "t_rx_ms": 1776455385075, "dt_ms": -7, "doa_deg": 81.0, "confidence_0_1": 2.279471755027771, "lat_deg": 34.0423025, "lon_deg": -117.81393539999999, "altitude_rel_ft": -0.3215, "yaw_deg": 34.3602, "pitch_deg": 7.5651, "roll_deg": 19.6878, "ground_speed_ft_s": 18.0, "vel_north_m_s": -4.29, "vel_east_m_s": -3.42, "vel_down_m_s": 0.12, "usable_for_triangulation": true, "t_gcs_rx_ms": 1776458557637}
{"run_id": "20260417_124456", "kraken_seq": 173, "telemetry_seq": 396, "t_rx_ms": 1776455385479, "dt_ms": -7, "doa_deg": 80.0, "confidence_0_1": 2.394069582223892, "lat_deg": 34.0422642, "lon_deg": -117.81397199999999, "altitude_rel_ft": -0.6037, "yaw_deg": 33.7023, "pitch_deg": 7.4641, "roll_deg": 19.5754, "ground_speed_ft_s": 17.5747, "vel_north_m_s": -4.18, "vel_east_m_s": -3.35, "vel_down_m_s": 0.1, "usable_for_triangulation": true, "t_gcs_rx_ms": 1776458557871}
{"run_id": "20260417_124456", "kraken_seq": 174, "telemetry_seq": 398, "t_rx_ms": 1776455385884, "dt_ms": -8, "doa_deg": 82.0, "confidence_0_1": 1.7601904273033142, "lat_deg": 34.0422642, "lon_deg": -117.81397199999999, "altitude_rel_ft": -0.6037, "yaw_deg": 33.7023, "pitch_deg": 7.4641, "roll_deg": 19.5754, "ground_speed_ft_s": 17.5747, "vel_north_m_s": -4.18, "vel_east_m_s": -3.35, "vel_down_m_s": 0.1, "usable_for_triangulation": true, "t_gcs_rx_ms": 1776458558481}
{"run_id": "20260417_124456", "kraken_seq": 175, "telemetry_seq": 401, "t_rx_ms": 1776455386420, "dt_ms": 58, "doa_deg": 78.0, "confidence_0_1": 1.6156458854675293, "lat_deg": 34.042227499999996, "lon_deg": -117.8140071, "altitude_rel_ft": -0.9482, "yaw_deg": 32.2271, "pitch_deg": 7.7263, "roll_deg": 18.4082, "ground_speed_ft_s": 16.8472, "vel_north_m_s": -4.0, "vel_east_m_s": -3.22, "vel_down_m_s": 0.12, "usable_for_triangulation": true, "t_gcs_rx_ms": 1776458558836}
{"run_id": "20260417_124456", "kraken_seq": 176, "telemetry_seq": 403, "t_rx_ms": 1776455386823, "dt_ms": 57, "doa_deg": 80.0, "confidence_0_1": 1.6265231370925903, "lat_deg": 34.042227499999996, "lon_deg": -117.8140071, "altitude_rel_ft": -0.9482, "yaw_deg": 32.2271, "pitch_deg": 7.7263, "roll_deg": 18.4082, "ground_speed_ft_s": 16.8472, "vel_north_m_s": -4.0, "vel_east_m_s": -3.22, "vel_down_m_s": 0.12, "usable_for_triangulation": true, "t_gcs_rx_ms": 1776458559178}
{"run_id": "20260417_124456", "kraken_seq": 178, "telemetry_seq": 407, "t_rx_ms": 1776455387636, "dt_ms": 51, "doa_deg": 83.0, "confidence_0_1": 1.8205314874649048, "lat_deg": 34.0421924, "lon_deg": -117.8140406, "altitude_rel_ft": -1.2927, "yaw_deg": 30.8514, "pitch_deg": 8.0622, "roll_deg": 19.9446, "ground_speed_ft_s": 16.0632, "vel_north_m_s": -3.83, "vel_east_m_s": -3.05, "vel_down_m_s": 0.11, "usable_for_triangulation": true, "t_gcs_rx_ms": 1776458560007}
{"run_id": "20260417_124456", "kraken_seq": 179, "telemetry_seq": 410, "t_rx_ms": 1776455388246, "dt_ms": 49, "doa_deg": 81.0, "confidence_0_1": 1.3418519496917725, "lat_deg": 34.042159, "lon_deg": -117.8140718, "altitude_rel_ft": -1.4961, "yaw_deg": 28.3224, "pitch_deg": 13.736, "roll_deg": 35.264, "ground_speed_ft_s": 14.9463, "vel_north_m_s": -3.57, "vel_east_m_s": -2.83, "vel_down_m_s": 0.11, "usable_for_triangulation": true, "t_gcs_rx_ms": 1776458560590}
{"run_id": "20260417_124456", "kraken_seq": 180, "telemetry_seq": 411, "t_rx_ms": 1776455388448, "dt_ms": 48, "doa_deg": 80.0, "confidence_0_1": 1.4596159756183624, "lat_deg": 34.042159, "lon_deg": -117.8140718, "altitude_rel_ft": -1.4961, "yaw_deg": 28.3224, "pitch_deg": 13.736, "roll_deg": 35.264, "ground_speed_ft_s": 14.9463, "vel_north_m_s": -3.57, "vel_east_m_s": -2.83, "vel_down_m_s": 0.11, "usable_for_triangulation": true, "t_gcs_rx_ms": 1776458560800}
{"run_id": "20260417_124456", "kraken_seq": 186, "telemetry_seq": 424, "t_rx_ms": 1776455391232, "dt_ms": -84, "doa_deg": 91.0, "confidence_0_1": 3.827158212661743, "lat_deg": 34.0421001, "lon_deg": -117.81412639999999, "altitude_rel_ft": -0.1247, "yaw_deg": 27.8755, "pitch_deg": 12.45, "roll_deg": 25.5559, "ground_speed_ft_s": 12.3384, "vel_north_m_s": -2.92, "vel_east_m_s": -2.37, "vel_down_m_s": 0.08, "usable_for_triangulation": true, "t_gcs_rx_ms": 1776458563588}
{"run_id": "20260417_124456", "kraken_seq": 187, "telemetry_seq": 428, "t_rx_ms": 1776455391865, "dt_ms": 100, "doa_deg": 99.0, "confidence_0_1": 3.2742807269096375, "lat_deg": 34.042075499999996, "lon_deg": -117.814149, "altitude_rel_ft": -0.3117, "yaw_deg": 26.0347, "pitch_deg": 12.1146, "roll_deg": 23.3583, "ground_speed_ft_s": 10.9549, "vel_north_m_s": -2.62, "vel_east_m_s": -2.07, "vel_down_m_s": 0.08, "usable_for_triangulation": true, "t_gcs_rx_ms": 1776458563739}
